{"type":"FeatureCollection","features":[{"type":"Feature","geometry":{"type":"Point","coordinates":[103.918217,30.870195]},"properties":{"province":"四川省","city":"成都市","county":"郫都区","community":"三道堰镇八步桥社区八组安置点","full_address":"四川省成都市郫都区三道堰镇八步桥社区八组安置点","info":""}},{"type":"Feature","geometry":{"type":"Point","coordinates":[131.133626,44.39798]},"properties":{"province":"黑龙江省","city":"牡丹江市","county":"绥芬河市","community":"海融富华苑小区","full_address":"黑龙江省牡丹江市绥芬河市海融富华苑小区","info":""}},{"type":"Feature","geometry":{"type":"Point","coordinates":[131.160489,44.39006]},"properties":{"province":"黑龙江省","city":"牡丹江市","county":"绥芬河市","community":"机务段铁路综合楼","full_address":"黑龙江省牡丹江市绥芬河市机务段铁路综合楼","info":""}},{"type":"Feature","geometry":{"type":"Point","coordinates":[89.169205,42.955598]},"properties":{"province":"新疆维吾尔自治区","city":"吐鲁番市","county":"高昌区","community":"红盾小区","full_address":"新疆维吾尔自治区吐鲁番市高昌区红盾小区","info":""}},{"type":"Feature","geometry":{"type":"Point","coordinates":[125.293975,43.88385]},"properties":{"province":"北京市","city":"市辖区","county":"朝阳区","community":"汉庭酒店大山子店（包括底商）","full_address":"北京市市辖区朝阳区汉庭酒店大山子店（包括底商）","info":""}},{"type":"Feature","geometry":{"type":"Point","coordinates":[121.738617,39.098633]},"properties":{"province":"辽宁省","city":"大连市","county":"金州区","community":"金普新区先进街道金润小区B区","full_address":"辽宁省大连市金州区金普新区先进街道金润小区B区","info":""}},{"type":"Feature","geometry":{"type":"Point","coordinates":[121.721102,39.106753]},"properties":{"province":"辽宁省","city":"大连市","county":"金州区","community":"光中街道金东路社区","full_address":"辽宁省大连市金州区光中街道金东路社区","info":""}},{"type":"Feature","geometry":{"type":"Point","coordinates":[123.352048,41.837869]},"properties":{"province":"辽宁省","city":"沈阳市","county":"于洪区","community":"北陵街道宏达社区","full_address":"辽宁省沈阳市于洪区北陵街道宏达社区","info":""}},{"type":"Feature","geometry":{"type":"Point","coordinates":[123.360949,41.857899]},"properties":{"province":"辽宁省","city":"沈阳市","county":"于洪区","community":"华润橡树湾二期","full_address":"辽宁省沈阳市于洪区华润橡树湾二期","info":""}}]}