{"type":"FeatureCollection","features":[{"type":"Feature","geometry":{"type":"Point","coordinates":[118.85533,25.24658]},"properties":{"province":"福建省","city":"莆田市","county":"仙游县","community":"枫亭镇","full_address":"福建省莆田市仙游县枫亭镇","info":""}},{"type":"Feature","geometry":{"type":"Point","coordinates":[118.1233,24.710726]},"properties":{"province":"福建省","city":"厦门市","county":"同安区","community":"新民镇乌涂社区","full_address":"福建省厦门市同安区新民镇乌涂社区","info":""}},{"type":"Feature","geometry":{"type":"Point","coordinates":[118.105791,24.70532]},"properties":{"province":"福建省","city":"厦门市","county":"同安区","community":"新民镇西塘社区","full_address":"福建省厦门市同安区新民镇西塘社区","info":""}},{"type":"Feature","geometry":{"type":"Point","coordinates":[118.118541,24.692932]},"properties":{"province":"福建省","city":"厦门市","county":"同安区","community":"梧侣社区","full_address":"福建省厦门市同安区梧侣社区","info":""}},{"type":"Feature","geometry":{"type":"Point","coordinates":[118.112206,24.722187]},"properties":{"province":"福建省","city":"厦门市","county":"同安区","community":"新民镇柑岭村","full_address":"福建省厦门市同安区新民镇柑岭村","info":""}}]}