{"type":"FeatureCollection","features":[{"type":"Feature","geometry":{"type":"Point","coordinates":[126.486076,46.832719]},"properties":{"province":"黑龙江省","city":"绥化市","county":"望奎县","community":"","full_address":"黑龙江省绥化市望奎县","info":""}},{"type":"Feature","geometry":{"type":"Point","coordinates":[114.847075,38.021567]},"properties":{"province":"河北省","city":"石家庄市","county":"藁城区","community":"","full_address":"河北省石家庄市藁城区","info":""}},{"type":"Feature","geometry":{"type":"Point","coordinates":[125.93087,41.712627]},"properties":{"province":"吉林省","city":"通化市","county":"东昌区","community":"民主街江南社区波尔多小镇小区","full_address":"吉林省通化市东昌区民主街江南社区波尔多小镇小区","info":""}},{"type":"Feature","geometry":{"type":"Point","coordinates":[125.938481,41.705605]},"properties":{"province":"吉林省","city":"通化市","county":"东昌区","community":"自由自宅小区","full_address":"吉林省通化市东昌区自由自宅小区","info":""}},{"type":"Feature","geometry":{"type":"Point","coordinates":[125.951367,41.732753]},"properties":{"province":"吉林省","city":"通化市","county":"东昌区","community":"新站街胜利社区公用事业局家属楼","full_address":"吉林省通化市东昌区新站街胜利社区公用事业局家属楼","info":""}},{"type":"Feature","geometry":{"type":"Point","coordinates":[125.955062,41.734008]},"properties":{"province":"吉林省","city":"通化市","county":"东昌区","community":"新兴社区中安欣盛A区","full_address":"吉林省通化市东昌区新兴社区中安欣盛A区","info":""}},{"type":"Feature","geometry":{"type":"Point","coordinates":[125.958825,41.724344]},"properties":{"province":"吉林省","city":"通化市","county":"东昌区","community":"新山社区银都府邸小区","full_address":"吉林省通化市东昌区新山社区银都府邸小区","info":""}}]}