{"type":"FeatureCollection","features":[{"type":"Feature","geometry":{"type":"Point","coordinates":[97.75088,24.187587]},"properties":{"province":"云南省","city":"德宏傣族景颇族自治州","county":"陇川县","community":"章凤镇迭撒村拉影村民小组","full_address":"云南省德宏傣族景颇族自治州陇川县章凤镇迭撒村拉影村民小组","info":""}},{"type":"Feature","geometry":{"type":"Point","coordinates":[97.654805,23.878132]},"properties":{"province":"云南省","city":"德宏傣族景颇族自治州","county":"瑞丽市","community":"弄岛镇雷允村委会雷允村民小组","full_address":"云南省德宏傣族景颇族自治州瑞丽市弄岛镇雷允村委会雷允村民小组","info":""}},{"type":"Feature","geometry":{"type":"Point","coordinates":[104.702063,31.390056]},"properties":{"province":"四川省","city":"绵阳市","county":"涪城区","community":"吴家镇惠科路1号厂区","full_address":"四川省绵阳市涪城区吴家镇惠科路1号厂区","info":""}},{"type":"Feature","geometry":{"type":"Point","coordinates":[123.479533,41.807102]},"properties":{"province":"辽宁省","city":"沈阳市","county":"大东区","community":"珠林路50-15号楼","full_address":"辽宁省沈阳市大东区珠林路50-15号楼","info":""}},{"type":"Feature","geometry":{"type":"Point","coordinates":[118.87371,31.684002]},"properties":{"province":"江苏省","city":"南京市","county":"江宁区","community":"禄口街道谢村社区","full_address":"江苏省南京市江宁区禄口街道谢村社区","info":""}},{"type":"Feature","geometry":{"type":"Point","coordinates":[118.862862,31.776974]},"properties":{"province":"江苏省","city":"南京市","county":"江宁区","community":"白云路社区","full_address":"江苏省南京市江宁区白云路社区","info":""}},{"type":"Feature","geometry":{"type":"Point","coordinates":[118.96626,31.689765]},"properties":{"province":"江苏省","city":"南京市","county":"溧水区","community":"石湫街道九塘行政村毛家圩自然村","full_address":"江苏省南京市溧水区石湫街道九塘行政村毛家圩自然村","info":""}},{"type":"Feature","geometry":{"type":"Point","coordinates":[118.927537,31.695885]},"properties":{"province":"江苏省","city":"南京市","county":"江宁区","community":"禄口街道曹村村张家自然村","full_address":"江苏省南京市江宁区禄口街道曹村村张家自然村","info":""}},{"type":"Feature","geometry":{"type":"Point","coordinates":[118.927537,31.695885]},"properties":{"province":"江苏省","city":"南京市","county":"江宁区","community":"禄口街道曹村村欢墩山自然村","full_address":"江苏省南京市江宁区禄口街道曹村村欢墩山自然村","info":""}},{"type":"Feature","geometry":{"type":"Point","coordinates":[118.870728,31.769695]},"properties":{"province":"江苏省","city":"南京市","county":"江宁区","community":"禄口街道永兴社区外槽坊自然村","full_address":"江苏省南京市江宁区禄口街道永兴社区外槽坊自然村","info":""}},{"type":"Feature","geometry":{"type":"Point","coordinates":[118.896182,31.671436]},"properties":{"province":"江苏省","city":"南京市","county":"江宁区","community":"禄口街道溧塘村铜山端自然村","full_address":"江苏省南京市江宁区禄口街道溧塘村铜山端自然村","info":""}},{"type":"Feature","geometry":{"type":"Point","coordinates":[118.855903,31.776907]},"properties":{"province":"江苏省","city":"南京市","county":"江宁区","community":"禄口街道茅亭社区百利华府小区三期","full_address":"江苏省南京市江宁区禄口街道茅亭社区百利华府小区三期","info":""}},{"type":"Feature","geometry":{"type":"Point","coordinates":[118.87098,31.772189]},"properties":{"province":"江苏省","city":"南京市","county":"江宁区","community":"禄口街道机场社区一小区","full_address":"江苏省南京市江宁区禄口街道机场社区一小区","info":""}},{"type":"Feature","geometry":{"type":"Point","coordinates":[118.858005,31.77966]},"properties":{"province":"江苏省","city":"南京市","county":"江宁区","community":"禄口街道茅亭社区茅亭小区","full_address":"江苏省南京市江宁区禄口街道茅亭社区茅亭小区","info":""}},{"type":"Feature","geometry":{"type":"Point","coordinates":[118.846876,31.697743]},"properties":{"province":"江苏省","city":"南京市","county":"江宁区","community":"禄口街道陈巷村前陈巷自然村","full_address":"江苏省南京市江宁区禄口街道陈巷村前陈巷自然村","info":""}},{"type":"Feature","geometry":{"type":"Point","coordinates":[118.836507,31.672965]},"properties":{"province":"江苏省","city":"南京市","county":"江宁区","community":"禄口街道桑园村排驾口自然村","full_address":"江苏省南京市江宁区禄口街道桑园村排驾口自然村","info":""}},{"type":"Feature","geometry":{"type":"Point","coordinates":[118.842884,31.667479]},"properties":{"province":"江苏省","city":"南京市","county":"江宁区","community":"禄口街道驻驾山自然村","full_address":"江苏省南京市江宁区禄口街道驻驾山自然村","info":""}},{"type":"Feature","geometry":{"type":"Point","coordinates":[118.906959,31.694685]},"properties":{"province":"江苏省","city":"南京市","county":"江宁区","community":"禄口街道埂方村卷蓬自然村","full_address":"江苏省南京市江宁区禄口街道埂方村卷蓬自然村","info":""}},{"type":"Feature","geometry":{"type":"Point","coordinates":[118.86678,31.764614]},"properties":{"province":"江苏省","city":"南京市","county":"江宁区","community":"禄口街道钟村社区永欣新寓春兰苑","full_address":"江苏省南京市江宁区禄口街道钟村社区永欣新寓春兰苑","info":""}},{"type":"Feature","geometry":{"type":"Point","coordinates":[118.932013,31.700758]},"properties":{"province":"江苏省","city":"南京市","county":"江宁区","community":"禄口街道彭福村彭福自然村","full_address":"江苏省南京市江宁区禄口街道彭福村彭福自然村","info":""}},{"type":"Feature","geometry":{"type":"Point","coordinates":[118.860647,31.762793]},"properties":{"province":"江苏省","city":"南京市","county":"江宁区","community":"禄口街道秦村村永欣新寓紫荆苑","full_address":"江苏省南京市江宁区禄口街道秦村村永欣新寓紫荆苑","info":""}},{"type":"Feature","geometry":{"type":"Point","coordinates":[118.94874,31.797019]},"properties":{"province":"江苏省","city":"南京市","county":"江宁区","community":"禄口街道湖熟街道周岗社区张巷自然村","full_address":"江苏省南京市江宁区禄口街道湖熟街道周岗社区张巷自然村","info":""}},{"type":"Feature","geometry":{"type":"Point","coordinates":[118.824076,31.900879]},"properties":{"province":"江苏省","city":"南京市","county":"江宁区","community":"禄口街道秣陵街道殷巷社区龙湖文馨苑小区","full_address":"江苏省南京市江宁区禄口街道秣陵街道殷巷社区龙湖文馨苑小区","info":""}},{"type":"Feature","geometry":{"type":"Point","coordinates":[118.868414,31.683556]},"properties":{"province":"江苏省","city":"南京市","county":"江宁区","community":"禄口街道铜山社区铜陵新村","full_address":"江苏省南京市江宁区禄口街道铜山社区铜陵新村","info":""}},{"type":"Feature","geometry":{"type":"Point","coordinates":[118.857902,31.79522]},"properties":{"province":"江苏省","city":"南京市","county":"江宁区","community":"禄口街道陆纲社区翠屏城小区","full_address":"江苏省南京市江宁区禄口街道陆纲社区翠屏城小区","info":""}},{"type":"Feature","geometry":{"type":"Point","coordinates":[119.011545,31.868194]},"properties":{"province":"江苏省","city":"南京市","county":"江宁区","community":"湖熟街道庄上自然村","full_address":"江苏省南京市江宁区湖熟街道庄上自然村","info":""}},{"type":"Feature","geometry":{"type":"Point","coordinates":[118.855972,31.769651]},"properties":{"province":"江苏省","city":"南京市","county":"江宁区","community":"禄口街道茅亭社区信陵路388号","full_address":"江苏省南京市江宁区禄口街道茅亭社区信陵路388号","info":""}},{"type":"Feature","geometry":{"type":"Point","coordinates":[119.165386,31.369209]},"properties":{"province":"江苏省","city":"南京市","county":"高淳区","community":"桠溪街道省道239与桠定路交叉路口芜太建材店所在建筑范围","full_address":"江苏省南京市高淳区桠溪街道省道239与桠定路交叉路口芜太建材店所在建筑范围","info":""}},{"type":"Feature","geometry":{"type":"Point","coordinates":[118.753997,32.019354]},"properties":{"province":"江苏省","city":"南京市","county":"建邺区","community":"南苑街道所街26号","full_address":"江苏省南京市建邺区南苑街道所街26号","info":""}},{"type":"Feature","geometry":{"type":"Point","coordinates":[119.052645,31.642283]},"properties":{"province":"江苏省","city":"南京市","county":"溧水区","community":"永阳街道万科城香樟苑","full_address":"江苏省南京市溧水区永阳街道万科城香樟苑","info":""}}]}