{"type":"FeatureCollection","features":[{"type":"Feature","geometry":{"type":"Point","coordinates":[118.084854,24.453777]},"properties":{"province":"福建省","city":"厦门市","county":"思明区","community":"中华街道仁安社区部分区域","full_address":"福建省厦门市思明区中华街道仁安社区部分区域","info":""}},{"type":"Feature","geometry":{"type":"Point","coordinates":[118.092826,24.466017]},"properties":{"province":"福建省","city":"厦门市","county":"思明区","community":"开元街道后江社区福满家园小区","full_address":"福建省厦门市思明区开元街道后江社区福满家园小区","info":""}},{"type":"Feature","geometry":{"type":"Point","coordinates":[118.14104,24.652395]},"properties":{"province":"福建省","city":"厦门市","county":"同安区","community":"西柯镇官田洋一里","full_address":"福建省厦门市同安区西柯镇官田洋一里","info":""}},{"type":"Feature","geometry":{"type":"Point","coordinates":[118.117469,24.693033]},"properties":{"province":"福建省","city":"厦门市","county":"同安区","community":"新民镇梧侣村","full_address":"福建省厦门市同安区新民镇梧侣村","info":""}},{"type":"Feature","geometry":{"type":"Point","coordinates":[118.112206,24.722187]},"properties":{"province":"福建省","city":"厦门市","county":"同安区","community":"新民镇柑岭村","full_address":"福建省厦门市同安区新民镇柑岭村","info":""}},{"type":"Feature","geometry":{"type":"Point","coordinates":[118.839657,25.319664]},"properties":{"province":"福建省","city":"莆田市","county":"仙游县","community":"郊尾镇后沈村","full_address":"福建省莆田市仙游县郊尾镇后沈村","info":""}},{"type":"Feature","geometry":{"type":"Point","coordinates":[118.790951,25.322929]},"properties":{"province":"福建省","city":"莆田市","county":"仙游县","community":"郊尾镇宝坑村","full_address":"福建省莆田市仙游县郊尾镇宝坑村","info":""}},{"type":"Feature","geometry":{"type":"Point","coordinates":[118.762333,25.330094]},"properties":{"province":"福建省","city":"莆田市","county":"仙游县","community":"赖店镇象岭村","full_address":"福建省莆田市仙游县赖店镇象岭村","info":""}},{"type":"Feature","geometry":{"type":"Point","coordinates":[118.758959,25.209447]},"properties":{"province":"福建省","city":"莆田市","county":"仙游县","community":"园庄镇大埔村","full_address":"福建省莆田市仙游县园庄镇大埔村","info":""}},{"type":"Feature","geometry":{"type":"Point","coordinates":[118.74164,25.33284]},"properties":{"province":"福建省","city":"莆田市","county":"仙游县","community":"赖店镇锦田村顶厝自然村","full_address":"福建省莆田市仙游县赖店镇锦田村顶厝自然村","info":""}},{"type":"Feature","geometry":{"type":"Point","coordinates":[118.701399,25.33685]},"properties":{"province":"福建省","city":"莆田市","county":"仙游县","community":"锂南镇横塘村富力院士廷8栋","full_address":"福建省莆田市仙游县锂南镇横塘村富力院士廷8栋","info":""}},{"type":"Feature","geometry":{"type":"Point","coordinates":[118.695938,25.349209]},"properties":{"province":"福建省","city":"莆田市","county":"仙游县","community":"锂南镇仙安社区以八二五南街213号为中心范围内","full_address":"福建省莆田市仙游县锂南镇仙安社区以八二五南街213号为中心范围内","info":""}},{"type":"Feature","geometry":{"type":"Point","coordinates":[118.717065,25.345618]},"properties":{"province":"福建省","city":"莆田市","county":"仙游县","community":"锂南镇西埔社区温泉东路2250号锦行车行以前门为中心左、右、后侧各500米范围","full_address":"福建省莆田市仙游县锂南镇西埔社区温泉东路2250号锦行车行以前门为中心左、右、后侧各500米范围","info":""}},{"type":"Feature","geometry":{"type":"Point","coordinates":[118.753857,25.20552]},"properties":{"province":"福建省","city":"莆田市","county":"仙游县","community":"园庄中学","full_address":"福建省莆田市仙游县园庄中学","info":""}},{"type":"Feature","geometry":{"type":"Point","coordinates":[118.868928,25.220904]},"properties":{"province":"福建省","city":"泉州市","county":"泉港区","community":"界山镇东丘村","full_address":"福建省泉州市泉港区界山镇东丘村","info":""}},{"type":"Feature","geometry":{"type":"Point","coordinates":[118.875616,25.231947]},"properties":{"province":"福建省","city":"泉州市","county":"泉港区","community":"界山镇鸠林村","full_address":"福建省泉州市泉港区界山镇鸠林村","info":""}},{"type":"Feature","geometry":{"type":"Point","coordinates":[118.868945,25.22185]},"properties":{"province":"福建省","city":"泉州市","county":"泉港区","community":"界山村顶府自然村","full_address":"福建省泉州市泉港区界山村顶府自然村","info":""}}]}