{"type":"FeatureCollection","features":[{"type":"Feature","geometry":{"type":"Point","coordinates":[116.489859,31.77987]},"properties":{"province":"安徽省","city":"六安市","county":"裕安区","community":"恒大御景湾小区3期","full_address":"安徽省六安市裕安区恒大御景湾小区3期","info":""}},{"type":"Feature","geometry":{"type":"Point","coordinates":[113.224579,23.079956]},"properties":{"province":"广东省","city":"广州市","county":"荔湾区","community":"东漖街","full_address":"广东省广州市荔湾区东漖街","info":""}},{"type":"Feature","geometry":{"type":"Point","coordinates":[113.646467,23.628199]},"properties":{"province":"广东省","city":"广州市","county":"从化区","community":"冲口街","full_address":"广东省广州市从化区冲口街","info":""}},{"type":"Feature","geometry":{"type":"Point","coordinates":[113.300795,23.045302]},"properties":{"province":"广东省","city":"广州市","county":"番禺区","community":"洛浦街锦绣半岛社区锦绣东区(16栋、17栋、18栋","full_address":"广东省广州市番禺区洛浦街锦绣半岛社区锦绣东区(16栋、17栋、18栋","info":""}},{"type":"Feature","geometry":{"type":"Point","coordinates":[113.295847,23.066436]},"properties":{"province":"广东省","city":"广州市","county":"海珠区","community":"瑞宝街南洲名苑棠阁(A栋、B栋、C栋)","full_address":"广东省广州市海珠区瑞宝街南洲名苑棠阁(A栋、B栋、C栋)","info":""}},{"type":"Feature","geometry":{"type":"Point","coordinates":[113.208204,23.043249]},"properties":{"province":"广东省","city":"佛山市","county":"南海区","community":"桂城街道华福御水岸小区","full_address":"广东省佛山市南海区桂城街道华福御水岸小区","info":""}},{"type":"Feature","geometry":{"type":"Point","coordinates":[113.140426,23.004596]},"properties":{"province":"广东省","city":"佛山市","county":"禅城区","community":"石湾镇街道绿茵鸣苑小区","full_address":"广东省佛山市禅城区石湾镇街道绿茵鸣苑小区","info":""}}]}