{"type":"FeatureCollection","features":[{"type":"Feature","geometry":{"type":"Point","coordinates":[126.709994,45.757076]},"properties":{"province":"黑龙江省","city":"哈尔滨市","county":"南岗区","community":"信恒现代城小区馨园 A 栋","full_address":"黑龙江省哈尔滨市南岗区信恒现代城小区馨园 A 栋","info":""}},{"type":"Feature","geometry":{"type":"Point","coordinates":[126.499208,45.80772]},"properties":{"province":"黑龙江省","city":"哈尔滨市","county":"松北区","community":"万达秀园小区","full_address":"黑龙江省哈尔滨市松北区万达秀园小区","info":""}},{"type":"Feature","geometry":{"type":"Point","coordinates":[126.570181,45.881327]},"properties":{"province":"黑龙江省","city":"哈尔滨市","county":"松北区","community":"地恒托斯卡纳小区4期","full_address":"黑龙江省哈尔滨市松北区地恒托斯卡纳小区4期","info":""}},{"type":"Feature","geometry":{"type":"Point","coordinates":[126.761747,45.748136]},"properties":{"province":"黑龙江省","city":"哈尔滨市","county":"香坊区","community":"东鸿艺境小区 ( 一、二、三、四期 ","full_address":"黑龙江省哈尔滨市香坊区东鸿艺境小区 ( 一、二、三、四期 ","info":""}},{"type":"Feature","geometry":{"type":"Point","coordinates":[126.637829,45.72576]},"properties":{"province":"黑龙江省","city":"哈尔滨市","county":"香坊区","community":"文政街道和兴路 65 号院","full_address":"黑龙江省哈尔滨市香坊区文政街道和兴路 65 号院","info":""}},{"type":"Feature","geometry":{"type":"Point","coordinates":[126.984381,45.540617]},"properties":{"province":"黑龙江省","city":"哈尔滨市","county":"阿城区","community":"金都街道金源世家小区","full_address":"黑龙江省哈尔滨市阿城区金都街道金源世家小区","info":""}},{"type":"Feature","geometry":{"type":"Point","coordinates":[127.089784,46.394604]},"properties":{"province":"黑龙江省","city":"哈尔滨市","county":"巴彦县","community":"巴彦镇中兴家园小区","full_address":"黑龙江省哈尔滨市巴彦县巴彦镇中兴家园小区","info":""}},{"type":"Feature","geometry":{"type":"Point","coordinates":[127.396889,46.086343]},"properties":{"province":"黑龙江省","city":"哈尔滨市","county":"巴彦县","community":"巴彦镇盛隆国际小区","full_address":"黑龙江省哈尔滨市巴彦县巴彦镇盛隆国际小区","info":""}},{"type":"Feature","geometry":{"type":"Point","coordinates":[127.402299,46.088943]},"properties":{"province":"黑龙江省","city":"哈尔滨市","county":"巴彦县","community":"巴彦镇金源嘉园小区","full_address":"黑龙江省哈尔滨市巴彦县巴彦镇金源嘉园小区","info":""}},{"type":"Feature","geometry":{"type":"Point","coordinates":[127.401018,46.089781]},"properties":{"province":"黑龙江省","city":"哈尔滨市","county":"巴彦县","community":"巴彦镇悦和新城小区","full_address":"黑龙江省哈尔滨市巴彦县巴彦镇悦和新城小区","info":""}},{"type":"Feature","geometry":{"type":"Point","coordinates":[127.116803,46.443601]},"properties":{"province":"黑龙江省","city":"哈尔滨市","county":"巴彦县","community":"兴隆镇阳光名苑小区","full_address":"黑龙江省哈尔滨市巴彦县兴隆镇阳光名苑小区","info":""}},{"type":"Feature","geometry":{"type":"Point","coordinates":[127.389537,46.079186]},"properties":{"province":"黑龙江省","city":"哈尔滨市","county":"巴彦县","community":"巴彦镇水韵新城小区","full_address":"黑龙江省哈尔滨市巴彦县巴彦镇水韵新城小区","info":""}},{"type":"Feature","geometry":{"type":"Point","coordinates":[127.391261,46.081963]},"properties":{"province":"黑龙江省","city":"哈尔滨市","county":"巴彦县","community":"巴彦镇公园丽景小区","full_address":"黑龙江省哈尔滨市巴彦县巴彦镇公园丽景小区","info":""}},{"type":"Feature","geometry":{"type":"Point","coordinates":[128.032156,45.945673]},"properties":{"province":"黑龙江省","city":"哈尔滨市","county":"木兰县","community":"木兰镇香江水岸小区","full_address":"黑龙江省哈尔滨市木兰县木兰镇香江水岸小区","info":""}}]}