{"type":"FeatureCollection","features":[{"type":"Feature","geometry":{"type":"Point","coordinates":[126.629056,45.735509]},"properties":{"province":"黑龙江省","city":"哈尔滨市","county":"南岗区","community":"爱达88小区","full_address":"黑龙江省哈尔滨市南岗区爱达88小区","info":""}},{"type":"Feature","geometry":{"type":"Point","coordinates":[127.004006,46.632862]},"properties":{"province":"黑龙江省","city":"绥化市","county":"北林区","community":"鑫港湾小区","full_address":"黑龙江省绥化市北林区鑫港湾小区","info":""}},{"type":"Feature","geometry":{"type":"Point","coordinates":[118.084854,24.453777]},"properties":{"province":"福建省","city":"厦门市","county":"思明区","community":"中华街道仁安社区部分区域","full_address":"福建省厦门市思明区中华街道仁安社区部分区域","info":""}},{"type":"Feature","geometry":{"type":"Point","coordinates":[118.092826,24.466017]},"properties":{"province":"福建省","city":"厦门市","county":"思明区","community":"开元街道后江社区福满家园小区","full_address":"福建省厦门市思明区开元街道后江社区福满家园小区","info":""}},{"type":"Feature","geometry":{"type":"Point","coordinates":[118.035114,24.463929]},"properties":{"province":"福建省","city":"厦门市","county":"海沧区","community":"嵩屿街道水云湾小区","full_address":"福建省厦门市海沧区嵩屿街道水云湾小区","info":""}},{"type":"Feature","geometry":{"type":"Point","coordinates":[118.14104,24.652395]},"properties":{"province":"福建省","city":"厦门市","county":"同安区","community":"西柯镇官田洋一里","full_address":"福建省厦门市同安区西柯镇官田洋一里","info":""}},{"type":"Feature","geometry":{"type":"Point","coordinates":[118.158251,24.729729]},"properties":{"province":"福建省","city":"厦门市","county":"同安区","community":"大同街道碧岳村","full_address":"福建省厦门市同安区大同街道碧岳村","info":""}},{"type":"Feature","geometry":{"type":"Point","coordinates":[118.135169,24.736728]},"properties":{"province":"福建省","city":"厦门市","county":"同安区","community":"大同街道古庄顶布房里","full_address":"福建省厦门市同安区大同街道古庄顶布房里","info":""}},{"type":"Feature","geometry":{"type":"Point","coordinates":[118.1302,24.721877]},"properties":{"province":"福建省","city":"厦门市","county":"同安区","community":"祥平街道凤岗社区","full_address":"福建省厦门市同安区祥平街道凤岗社区","info":""}},{"type":"Feature","geometry":{"type":"Point","coordinates":[118.148906,24.711399]},"properties":{"province":"福建省","city":"厦门市","county":"同安区","community":"祥平街道阳翟社区","full_address":"福建省厦门市同安区祥平街道阳翟社区","info":""}},{"type":"Feature","geometry":{"type":"Point","coordinates":[118.141233,24.693888]},"properties":{"province":"福建省","city":"厦门市","county":"同安区","community":"祥平街道西湖社区山坪里","full_address":"福建省厦门市同安区祥平街道西湖社区山坪里","info":""}},{"type":"Feature","geometry":{"type":"Point","coordinates":[118.197291,24.741532]},"properties":{"province":"福建省","city":"厦门市","county":"同安区","community":"五显镇布塘村美安里","full_address":"福建省厦门市同安区五显镇布塘村美安里","info":""}},{"type":"Feature","geometry":{"type":"Point","coordinates":[118.13824,24.493209]},"properties":{"province":"福建省","city":"厦门市","county":"湖里区","community":"江头街道吕岭社区彩虹花园小区","full_address":"福建省厦门市湖里区江头街道吕岭社区彩虹花园小区","info":""}},{"type":"Feature","geometry":{"type":"Point","coordinates":[119.103275,25.317963]},"properties":{"province":"福建省","city":"莆田市","county":"秀屿区","community":"芴石镇芴石西路以东，北埔路以西，兴秀路以南，大营路以北的区域内","full_address":"福建省莆田市秀屿区芴石镇芴石西路以东，北埔路以西，兴秀路以南，大营路以北的区域内","info":""}},{"type":"Feature","geometry":{"type":"Point","coordinates":[119.09456,25.31532]},"properties":{"province":"福建省","city":"莆田市","county":"秀屿区","community":"以芴石镇阳光幼儿园为中心，南至大众路，北至70米外无名路，西至荔港大道，东至160米外无名路范围内","full_address":"福建省莆田市秀屿区以芴石镇阳光幼儿园为中心，南至大众路，北至70米外无名路，西至荔港大道，东至160米外无名路范围内","info":""}},{"type":"Feature","geometry":{"type":"Point","coordinates":[119.09456,25.31532]},"properties":{"province":"福建省","city":"莆田市","county":"秀屿区","community":"芴石镇荔港大道以东，秀郊路以西，东圳水渠以南区域内","full_address":"福建省莆田市秀屿区芴石镇荔港大道以东，秀郊路以西，东圳水渠以南区域内","info":""}},{"type":"Feature","geometry":{"type":"Point","coordinates":[119.108527,25.319478]},"properties":{"province":"福建省","city":"莆田市","county":"秀屿区","community":"芴石镇荣府一品小区","full_address":"福建省莆田市秀屿区芴石镇荣府一品小区","info":""}},{"type":"Feature","geometry":{"type":"Point","coordinates":[118.839657,25.319664]},"properties":{"province":"福建省","city":"莆田市","county":"仙游县","community":"郊尾镇后沈村","full_address":"福建省莆田市仙游县郊尾镇后沈村","info":""}},{"type":"Feature","geometry":{"type":"Point","coordinates":[118.790951,25.322929]},"properties":{"province":"福建省","city":"莆田市","county":"仙游县","community":"郊尾镇宝坑村","full_address":"福建省莆田市仙游县郊尾镇宝坑村","info":""}},{"type":"Feature","geometry":{"type":"Point","coordinates":[118.762333,25.330094]},"properties":{"province":"福建省","city":"莆田市","county":"仙游县","community":"赖店镇象岭村","full_address":"福建省莆田市仙游县赖店镇象岭村","info":""}},{"type":"Feature","geometry":{"type":"Point","coordinates":[118.758959,25.209447]},"properties":{"province":"福建省","city":"莆田市","county":"仙游县","community":"园庄镇大埔村","full_address":"福建省莆田市仙游县园庄镇大埔村","info":""}},{"type":"Feature","geometry":{"type":"Point","coordinates":[118.74164,25.33284]},"properties":{"province":"福建省","city":"莆田市","county":"仙游县","community":"赖店镇锦田村顶厝自然村","full_address":"福建省莆田市仙游县赖店镇锦田村顶厝自然村","info":""}},{"type":"Feature","geometry":{"type":"Point","coordinates":[118.701399,25.33685]},"properties":{"province":"福建省","city":"莆田市","county":"仙游县","community":"锂南镇横塘村富力院士廷8栋","full_address":"福建省莆田市仙游县锂南镇横塘村富力院士廷8栋","info":""}},{"type":"Feature","geometry":{"type":"Point","coordinates":[118.695938,25.349209]},"properties":{"province":"福建省","city":"莆田市","county":"仙游县","community":"锂南镇仙安社区以八二五南街213号为中心范围内","full_address":"福建省莆田市仙游县锂南镇仙安社区以八二五南街213号为中心范围内","info":""}},{"type":"Feature","geometry":{"type":"Point","coordinates":[118.717065,25.345618]},"properties":{"province":"福建省","city":"莆田市","county":"仙游县","community":"锂南镇西埔社区温泉东路2250号锦行车行以前门为中心左、右、后侧各500米范围","full_address":"福建省莆田市仙游县锂南镇西埔社区温泉东路2250号锦行车行以前门为中心左、右、后侧各500米范围","info":""}},{"type":"Feature","geometry":{"type":"Point","coordinates":[118.753857,25.20552]},"properties":{"province":"福建省","city":"莆田市","county":"仙游县","community":"园庄中学","full_address":"福建省莆田市仙游县园庄中学","info":""}},{"type":"Feature","geometry":{"type":"Point","coordinates":[118.581085,25.409067]},"properties":{"province":"福建省","city":"莆田市","county":"仙游县","community":"度尾镇仙竹村","full_address":"福建省莆田市仙游县度尾镇仙竹村","info":""}},{"type":"Feature","geometry":{"type":"Point","coordinates":[118.741302,25.206323]},"properties":{"province":"福建省","city":"莆田市","county":"仙游县","community":"园庄镇枫林村","full_address":"福建省莆田市仙游县园庄镇枫林村","info":""}},{"type":"Feature","geometry":{"type":"Point","coordinates":[118.649918,25.33808]},"properties":{"province":"福建省","city":"莆田市","county":"仙游县","community":"园庄镇园庄社区","full_address":"福建省莆田市仙游县园庄镇园庄社区","info":""}},{"type":"Feature","geometry":{"type":"Point","coordinates":[118.868928,25.220904]},"properties":{"province":"福建省","city":"泉州市","county":"泉港区","community":"界山镇东丘村","full_address":"福建省泉州市泉港区界山镇东丘村","info":""}},{"type":"Feature","geometry":{"type":"Point","coordinates":[118.875616,25.231947]},"properties":{"province":"福建省","city":"泉州市","county":"泉港区","community":"界山镇鸠林村","full_address":"福建省泉州市泉港区界山镇鸠林村","info":""}},{"type":"Feature","geometry":{"type":"Point","coordinates":[118.868945,25.22185]},"properties":{"province":"福建省","city":"泉州市","county":"泉港区","community":"界山村顶府自然村","full_address":"福建省泉州市泉港区界山村顶府自然村","info":""}},{"type":"Feature","geometry":{"type":"Point","coordinates":[117.789863,24.940771]},"properties":{"province":"福建省","city":"泉州市","county":"安溪县","community":"龙涓乡长新村","full_address":"福建省泉州市安溪县龙涓乡长新村","info":""}},{"type":"Feature","geometry":{"type":"Point","coordinates":[118.579998,24.8307]},"properties":{"province":"福建省","city":"泉州市","county":"晋江市","community":"陈埭镇苏厝村和平路145-149号、213号、230-232号","full_address":"福建省泉州市晋江市陈埭镇苏厝村和平路145-149号、213号、230-232号","info":""}},{"type":"Feature","geometry":{"type":"Point","coordinates":[117.877836,24.51673]},"properties":{"province":"福建省","city":"漳州市","county":"龙海区","community":"台商投资区福龙社区","full_address":"福建省漳州市龙海区台商投资区福龙社区","info":""}}]}