{"type":"FeatureCollection","features":[{"type":"Feature","geometry":{"type":"Point","coordinates":[114.847075,38.021567]},"properties":{"province":"河北省","city":"石家庄市","county":"藁城区","community":"","full_address":"河北省石家庄市藁城区","info":""}},{"type":"Feature","geometry":{"type":"Point","coordinates":[114.684014,38.343296]},"properties":{"province":"河北省","city":"石家庄市","county":"新乐市","community":"","full_address":"河北省石家庄市新乐市","info":""}},{"type":"Feature","geometry":{"type":"Point","coordinates":[115.408748,37.359264]},"properties":{"province":"河北省","city":"邢台市","county":"南宫市","community":"","full_address":"河北省邢台市南宫市","info":""}},{"type":"Feature","geometry":{"type":"Point","coordinates":[126.486076,46.832719]},"properties":{"province":"黑龙江省","city":"绥化市","county":"望奎县","community":"","full_address":"黑龙江省绥化市望奎县","info":""}},{"type":"Feature","geometry":{"type":"Point","coordinates":[126.571178,45.919878]},"properties":{"province":"黑龙江省","city":"哈尔滨市","county":"呼兰区","community":"利民开发区裕田街道","full_address":"黑龙江省哈尔滨市呼兰区利民开发区裕田街道","info":""}},{"type":"Feature","geometry":{"type":"Point","coordinates":[125.955102,41.728498]},"properties":{"province":"吉林省","city":"通化市","county":"东昌区","community":"","full_address":"吉林省通化市东昌区","info":""}},{"type":"Feature","geometry":{"type":"Point","coordinates":[116.320785,39.677811]},"properties":{"province":"北京市","city":"市辖区","county":"大兴区","community":"天宫院街道融汇社区","full_address":"北京市市辖区大兴区天宫院街道融汇社区","info":""}}]}