{"type":"FeatureCollection","features":[{"type":"Feature","geometry":{"type":"Point","coordinates":[116.474395,39.932269]},"properties":{"province":"北京市","city":"朝阳区","county":"六里屯街道","community":"六里屯北里6号、7号、12-16号楼及底商","full_address":"北京市朝阳区六里屯街道六里屯北里6号、7号、12-16号楼及底商","info":""}},{"type":"Feature","geometry":{"type":"Point","coordinates":[116.620589,40.035273]},"properties":{"province":"北京市","city":"顺义区","county":"李桥镇","community":"李天路27号丰荣大厦","full_address":"北京市顺义区李桥镇李天路27号丰荣大厦","info":""}},{"type":"Feature","geometry":{"type":"Point","coordinates":[117.248631,39.125914]},"properties":{"province":"天津市","city":"天津市","county":"河东区","community":"上杭路街道来安里小区除高风险区之外的其他楼","full_address":"天津市天津市河东区上杭路街道来安里小区除高风险区之外的其他楼","info":""}},{"type":"Feature","geometry":{"type":"Point","coordinates":[117.268133,39.066292]},"properties":{"province":"天津市","city":"天津市","county":"河西区","community":"陈塘庄街昆仑里除高风险区之外的其他楼门","full_address":"天津市天津市河西区陈塘庄街昆仑里除高风险区之外的其他楼门","info":""}},{"type":"Feature","geometry":{"type":"Point","coordinates":[117.25928,39.079127]},"properties":{"province":"天津市","city":"天津市","county":"河西区","community":"陈塘庄街世芳园除高风险区之外的其他楼门","full_address":"天津市天津市河西区陈塘庄街世芳园除高风险区之外的其他楼门","info":""}},{"type":"Feature","geometry":{"type":"Point","coordinates":[117.258981,39.054473]},"properties":{"province":"天津市","city":"天津市","county":"河西区","community":"东海街华江里除高风险区之外的其他楼门","full_address":"天津市天津市河西区东海街华江里除高风险区之外的其他楼门","info":""}},{"type":"Feature","geometry":{"type":"Point","coordinates":[117.143122,39.125208]},"properties":{"province":"天津市","city":"天津市","county":"南开区","community":"嘉陵道街罗江西里（除4、5、6号楼外）","full_address":"天津市天津市南开区嘉陵道街罗江西里（除4、5、6号楼外）","info":""}},{"type":"Feature","geometry":{"type":"Point","coordinates":[117.156637,39.132737]},"properties":{"province":"天津市","city":"天津市","county":"南开区","community":"长虹街武乡里1、2、3号楼","full_address":"天津市天津市南开区长虹街武乡里1、2、3号楼","info":""}},{"type":"Feature","geometry":{"type":"Point","coordinates":[117.11328,39.130985]},"properties":{"province":"天津市","city":"天津市","county":"西青区","community":"中北镇中铁十八局宿舍1号楼","full_address":"天津市天津市西青区中北镇中铁十八局宿舍1号楼","info":""}},{"type":"Feature","geometry":{"type":"Point","coordinates":[117.272628,39.045138]},"properties":{"province":"天津市","city":"天津市","county":"津南区","community":"双林街泓沪园除5号楼、6号楼、7号楼、8号楼以外区域","full_address":"天津市天津市津南区双林街泓沪园除5号楼、6号楼、7号楼、8号楼以外区域","info":""}},{"type":"Feature","geometry":{"type":"Point","coordinates":[117.659324,39.052082]},"properties":{"province":"天津市","city":"天津市","county":"滨海新区","community":"新北街道首创国际小区36-44号楼","full_address":"天津市天津市滨海新区新北街道首创国际小区36-44号楼","info":""}},{"type":"Feature","geometry":{"type":"Point","coordinates":[124.309649,39.984767]},"properties":{"province":"辽宁省","city":"丹东市","county":"振兴区","community":"浪头镇文斌村群平路3001号-3007号","full_address":"辽宁省丹东市振兴区浪头镇文斌村群平路3001号-3007号","info":""}},{"type":"Feature","geometry":{"type":"Point","coordinates":[126.5295,44.823069]},"properties":{"province":"吉林省","city":"长春市","county":"榆树市","community":"繁荣安居","full_address":"吉林省长春市榆树市繁荣安居","info":""}},{"type":"Feature","geometry":{"type":"Point","coordinates":[121.468143,31.248294]},"properties":{"province":"上海市","city":"上海市","county":"静安区","community":"芷江西路街道新马路258弄","full_address":"上海市上海市静安区芷江西路街道新马路258弄","info":""}},{"type":"Feature","geometry":{"type":"Point","coordinates":[121.450748,31.309338]},"properties":{"province":"上海市","city":"上海市","county":"静安区","community":"彭浦新村街道彭三小区二期","full_address":"上海市上海市静安区彭浦新村街道彭三小区二期","info":""}},{"type":"Feature","geometry":{"type":"Point","coordinates":[121.439725,31.324922]},"properties":{"province":"上海市","city":"上海市","county":"静安区","community":"彭浦新村街道共康四村第二居民区南区","full_address":"上海市上海市静安区彭浦新村街道共康四村第二居民区南区","info":""}},{"type":"Feature","geometry":{"type":"Point","coordinates":[121.414749,31.256393]},"properties":{"province":"上海市","city":"上海市","county":"普陀区","community":"石泉路街道礼泉路140号甲","full_address":"上海市上海市普陀区石泉路街道礼泉路140号甲","info":""}},{"type":"Feature","geometry":{"type":"Point","coordinates":[121.425529,31.2395]},"properties":{"province":"上海市","city":"上海市","county":"普陀区","community":"长寿路街道东新路115弄武宁一村","full_address":"上海市上海市普陀区长寿路街道东新路115弄武宁一村","info":""}},{"type":"Feature","geometry":{"type":"Point","coordinates":[121.3856,31.286431]},"properties":{"province":"上海市","city":"上海市","county":"普陀区","community":"桃浦镇古浪路518弄396-402号安祁古浪新苑","full_address":"上海市上海市普陀区桃浦镇古浪路518弄396-402号安祁古浪新苑","info":""}},{"type":"Feature","geometry":{"type":"Point","coordinates":[121.474461,31.313071]},"properties":{"province":"上海市","city":"上海市","county":"虹口区","community":"江湾镇街道虹湾路86弄(14-16号)","full_address":"上海市上海市虹口区江湾镇街道虹湾路86弄(14-16号)","info":""}},{"type":"Feature","geometry":{"type":"Point","coordinates":[121.514711,31.255577]},"properties":{"province":"上海市","city":"上海市","county":"虹口区","community":"江湾镇街道逸仙路446号、448号","full_address":"上海市上海市虹口区江湾镇街道逸仙路446号、448号","info":""}},{"type":"Feature","geometry":{"type":"Point","coordinates":[121.480044,31.279559]},"properties":{"province":"上海市","city":"上海市","county":"虹口区","community":"广中路街道广秀路66号（配电所）","full_address":"上海市上海市虹口区广中路街道广秀路66号（配电所）","info":""}},{"type":"Feature","geometry":{"type":"Point","coordinates":[121.524898,31.28513]},"properties":{"province":"上海市","city":"上海市","county":"杨浦区","community":"控江路街道控江四村（第一居委）","full_address":"上海市上海市杨浦区控江路街道控江四村（第一居委）","info":""}},{"type":"Feature","geometry":{"type":"Point","coordinates":[121.521925,31.280328]},"properties":{"province":"上海市","city":"上海市","county":"杨浦区","community":"控江路街道延吉西路81弄1、2、5号","full_address":"上海市上海市杨浦区控江路街道延吉西路81弄1、2、5号","info":""}},{"type":"Feature","geometry":{"type":"Point","coordinates":[121.539625,31.328877]},"properties":{"province":"上海市","city":"上海市","county":"杨浦区","community":"殷行街道殷行路296弄小区","full_address":"上海市上海市杨浦区殷行街道殷行路296弄小区","info":""}},{"type":"Feature","geometry":{"type":"Point","coordinates":[121.506131,31.305702]},"properties":{"province":"上海市","city":"上海市","county":"杨浦区","community":"五角场街道政立路580弄（国定一居委管辖部分）","full_address":"上海市上海市杨浦区五角场街道政立路580弄（国定一居委管辖部分）","info":""}},{"type":"Feature","geometry":{"type":"Point","coordinates":[121.539378,31.258329]},"properties":{"province":"上海市","city":"上海市","county":"杨浦区","community":"大桥街道渭南路43-47号","full_address":"上海市上海市杨浦区大桥街道渭南路43-47号","info":""}},{"type":"Feature","geometry":{"type":"Point","coordinates":[121.492738,31.309728]},"properties":{"province":"上海市","city":"上海市","county":"杨浦区","community":"五角场街道三门路358弄","full_address":"上海市上海市杨浦区五角场街道三门路358弄","info":""}},{"type":"Feature","geometry":{"type":"Point","coordinates":[121.524639,31.280769]},"properties":{"province":"上海市","city":"上海市","county":"杨浦区","community":"控江路街道黄兴小区","full_address":"上海市上海市杨浦区控江路街道黄兴小区","info":""}},{"type":"Feature","geometry":{"type":"Point","coordinates":[121.550725,31.26846]},"properties":{"province":"上海市","city":"上海市","county":"杨浦区","community":"定海路街道隆昌路66号","full_address":"上海市上海市杨浦区定海路街道隆昌路66号","info":""}},{"type":"Feature","geometry":{"type":"Point","coordinates":[121.537646,31.255766]},"properties":{"province":"上海市","city":"上海市","county":"杨浦区","community":"大桥街道的眉州路以东、杭州路以南、渭南路以西、杨树浦路以北区域","full_address":"上海市上海市杨浦区大桥街道的眉州路以东、杭州路以南、渭南路以西、杨树浦路以北区域","info":""}},{"type":"Feature","geometry":{"type":"Point","coordinates":[121.551305,31.278506]},"properties":{"province":"上海市","city":"上海市","county":"杨浦区","community":"定海路街道爱国路301弄","full_address":"上海市上海市杨浦区定海路街道爱国路301弄","info":""}},{"type":"Feature","geometry":{"type":"Point","coordinates":[121.537646,31.255766]},"properties":{"province":"上海市","city":"上海市","county":"杨浦区","community":"定海路街道的宁武路以东、平凉路以南、贵阳路以西、杨树浦路以北区域","full_address":"上海市上海市杨浦区定海路街道的宁武路以东、平凉路以南、贵阳路以西、杨树浦路以北区域","info":""}},{"type":"Feature","geometry":{"type":"Point","coordinates":[121.502083,31.307966]},"properties":{"province":"上海市","city":"上海市","county":"杨浦区","community":"五角场街道的逸仙路以东、三门路以南、国权北路以西、政立路以北区域","full_address":"上海市上海市杨浦区五角场街道的逸仙路以东、三门路以南、国权北路以西、政立路以北区域","info":""}},{"type":"Feature","geometry":{"type":"Point","coordinates":[121.5078,31.316111]},"properties":{"province":"上海市","city":"上海市","county":"杨浦区","community":"新江湾城街道的淞沪路以东、殷高东路以南、江湾城路以西、民府路以北区域","full_address":"上海市上海市杨浦区新江湾城街道的淞沪路以东、殷高东路以南、江湾城路以西、民府路以北区域","info":""}},{"type":"Feature","geometry":{"type":"Point","coordinates":[121.494502,31.317118]},"properties":{"province":"上海市","city":"上海市","county":"宝山区","community":"高境镇国权北路290弄","full_address":"上海市上海市宝山区高境镇国权北路290弄","info":""}},{"type":"Feature","geometry":{"type":"Point","coordinates":[121.488842,31.349091]},"properties":{"province":"上海市","city":"上海市","county":"宝山区","community":"高境镇三门路555弄煤气公司自管房","full_address":"上海市上海市宝山区高境镇三门路555弄煤气公司自管房","info":""}},{"type":"Feature","geometry":{"type":"Point","coordinates":[121.33847,31.385902]},"properties":{"province":"上海市","city":"上海市","county":"宝山区","community":"罗店镇美平路745弄美罗家园宝欣苑二村","full_address":"上海市上海市宝山区罗店镇美平路745弄美罗家园宝欣苑二村","info":""}},{"type":"Feature","geometry":{"type":"Point","coordinates":[121.470084,31.334804]},"properties":{"province":"上海市","city":"上海市","county":"宝山区","community":"淞南镇通南路368弄86号","full_address":"上海市上海市宝山区淞南镇通南路368弄86号","info":""}},{"type":"Feature","geometry":{"type":"Point","coordinates":[121.425548,31.386923]},"properties":{"province":"上海市","city":"上海市","county":"宝山区","community":"杨行镇蕰川路2226号苏鑫仓库","full_address":"上海市上海市宝山区杨行镇蕰川路2226号苏鑫仓库","info":""}},{"type":"Feature","geometry":{"type":"Point","coordinates":[121.447326,31.320281]},"properties":{"province":"上海市","city":"上海市","county":"宝山区","community":"高境镇共和新路4719弄惠民公寓","full_address":"上海市上海市宝山区高境镇共和新路4719弄惠民公寓","info":""}},{"type":"Feature","geometry":{"type":"Point","coordinates":[121.450621,31.317995]},"properties":{"province":"上海市","city":"上海市","county":"宝山区","community":"高境镇共和新路4703弄（51号-82号、88号-97号、101号-107号）","full_address":"上海市上海市宝山区高境镇共和新路4703弄（51号-82号、88号-97号、101号-107号）","info":""}},{"type":"Feature","geometry":{"type":"Point","coordinates":[121.499156,31.401491]},"properties":{"province":"上海市","city":"上海市","county":"宝山区","community":"友谊路街道宝杨路250号宝杨市场","full_address":"上海市上海市宝山区友谊路街道宝杨路250号宝杨市场","info":""}},{"type":"Feature","geometry":{"type":"Point","coordinates":[121.481603,31.4041]},"properties":{"province":"上海市","city":"上海市","county":"宝山区","community":"友谊路街道密山路101号宝山市场","full_address":"上海市上海市宝山区友谊路街道密山路101号宝山市场","info":""}},{"type":"Feature","geometry":{"type":"Point","coordinates":[121.447326,31.320281]},"properties":{"province":"上海市","city":"上海市","county":"宝山区","community":"高境镇共和新路4719弄（除惠民公寓）","full_address":"上海市上海市宝山区高境镇共和新路4719弄（除惠民公寓）","info":""}},{"type":"Feature","geometry":{"type":"Point","coordinates":[121.40908,31.36314]},"properties":{"province":"上海市","city":"上海市","county":"宝山区","community":"顾村镇宝安公路859号","full_address":"上海市上海市宝山区顾村镇宝安公路859号","info":""}},{"type":"Feature","geometry":{"type":"Point","coordinates":[121.391,31.33987]},"properties":{"province":"上海市","city":"上海市","county":"宝山区","community":"顾村镇白杨村赵家宅1号-32号、37号-42号","full_address":"上海市上海市宝山区顾村镇白杨村赵家宅1号-32号、37号-42号","info":""}},{"type":"Feature","geometry":{"type":"Point","coordinates":[121.471977,31.323758]},"properties":{"province":"上海市","city":"上海市","county":"宝山区","community":"高境镇高境路477弄一期B区","full_address":"上海市上海市宝山区高境镇高境路477弄一期B区","info":""}},{"type":"Feature","geometry":{"type":"Point","coordinates":[121.438351,31.373029]},"properties":{"province":"上海市","city":"上海市","county":"宝山区","community":"杨行镇杨桃路185弄杨泰苑","full_address":"上海市上海市宝山区杨行镇杨桃路185弄杨泰苑","info":""}},{"type":"Feature","geometry":{"type":"Point","coordinates":[121.461522,31.342461]},"properties":{"province":"上海市","city":"上海市","county":"宝山区","community":"淞南镇江杨南路2058号","full_address":"上海市上海市宝山区淞南镇江杨南路2058号","info":""}},{"type":"Feature","geometry":{"type":"Point","coordinates":[121.439815,31.348929]},"properties":{"province":"上海市","city":"上海市","county":"宝山区","community":"杨行镇联谊路190号","full_address":"上海市上海市宝山区杨行镇联谊路190号","info":""}},{"type":"Feature","geometry":{"type":"Point","coordinates":[121.346214,31.41707]},"properties":{"province":"上海市","city":"上海市","county":"宝山区","community":"罗店镇赵巷街96弄2-15号","full_address":"上海市上海市宝山区罗店镇赵巷街96弄2-15号","info":""}},{"type":"Feature","geometry":{"type":"Point","coordinates":[121.488842,31.349091]},"properties":{"province":"上海市","city":"上海市","county":"宝山区","community":"高境镇三门路555弄（除煤气公司自管房）","full_address":"上海市上海市宝山区高境镇三门路555弄（除煤气公司自管房）","info":""}},{"type":"Feature","geometry":{"type":"Point","coordinates":[121.487598,31.315631]},"properties":{"province":"上海市","city":"上海市","county":"宝山区","community":"高境镇逸仙路1321弄","full_address":"上海市上海市宝山区高境镇逸仙路1321弄","info":""}},{"type":"Feature","geometry":{"type":"Point","coordinates":[121.34678,31.329889]},"properties":{"province":"上海市","city":"上海市","county":"宝山区","community":"顾村镇陈家行村花家桥34号、35号、38号、42号","full_address":"上海市上海市宝山区顾村镇陈家行村花家桥34号、35号、38号、42号","info":""}},{"type":"Feature","geometry":{"type":"Point","coordinates":[121.410947,31.389055]},"properties":{"province":"上海市","city":"上海市","county":"宝山区","community":"杨行镇北宗村严江巷","full_address":"上海市上海市宝山区杨行镇北宗村严江巷","info":""}},{"type":"Feature","geometry":{"type":"Point","coordinates":[121.424253,31.387366]},"properties":{"province":"上海市","city":"上海市","county":"宝山区","community":"杨行镇湄浦村华宝五金厂","full_address":"上海市上海市宝山区杨行镇湄浦村华宝五金厂","info":""}},{"type":"Feature","geometry":{"type":"Point","coordinates":[121.450319,31.333449]},"properties":{"province":"上海市","city":"上海市","county":"宝山区","community":"张庙街道长江西路1568号通河二村4号","full_address":"上海市上海市宝山区张庙街道长江西路1568号通河二村4号","info":""}},{"type":"Feature","geometry":{"type":"Point","coordinates":[121.506474,31.320698]},"properties":{"province":"上海市","city":"上海市","county":"宝山区","community":"高境镇的逸仙路以东、殷高路以南、国权北路以西、三门路以北区域","full_address":"上海市上海市宝山区高境镇的逸仙路以东、殷高路以南、国权北路以西、三门路以北区域","info":""}},{"type":"Feature","geometry":{"type":"Point","coordinates":[121.391803,31.359822]},"properties":{"province":"上海市","city":"上海市","county":"宝山区","community":"顾村镇苏家浜路435弄（宝顾佳苑小区）","full_address":"上海市上海市宝山区顾村镇苏家浜路435弄（宝顾佳苑小区）","info":""}},{"type":"Feature","geometry":{"type":"Point","coordinates":[121.419676,31.384264]},"properties":{"province":"上海市","city":"上海市","county":"宝山区","community":"杨行镇湄浦村南周宅","full_address":"上海市上海市宝山区杨行镇湄浦村南周宅","info":""}},{"type":"Feature","geometry":{"type":"Point","coordinates":[121.45644,31.392017]},"properties":{"province":"上海市","city":"上海市","county":"宝山区","community":"杨行镇友谊路1528弄1-16号楼，友谊路1538弄1-31号楼，友谊路1558弄1-35号楼，友谊路1568弄1-47号楼","full_address":"上海市上海市宝山区杨行镇友谊路1528弄1-16号楼，友谊路1538弄1-31号楼，友谊路1558弄1-35号楼，友谊路1568弄1-47号楼","info":""}},{"type":"Feature","geometry":{"type":"Point","coordinates":[121.425695,31.415525]},"properties":{"province":"上海市","city":"上海市","county":"宝山区","community":"月浦镇月浦八村","full_address":"上海市上海市宝山区月浦镇月浦八村","info":""}},{"type":"Feature","geometry":{"type":"Point","coordinates":[121.149872,31.30476]},"properties":{"province":"上海市","city":"上海市","county":"嘉定区","community":"安亭镇新源路1025弄澳丽映象嘉园小区","full_address":"上海市上海市嘉定区安亭镇新源路1025弄澳丽映象嘉园小区","info":""}},{"type":"Feature","geometry":{"type":"Point","coordinates":[121.2994,31.47127]},"properties":{"province":"上海市","city":"上海市","county":"嘉定区","community":"华亭镇联三村高桥金家村民组","full_address":"上海市上海市嘉定区华亭镇联三村高桥金家村民组","info":""}},{"type":"Feature","geometry":{"type":"Point","coordinates":[121.309867,31.481054]},"properties":{"province":"上海市","city":"上海市","county":"嘉定区","community":"华亭镇霜竹公路104号翰澎科技有限公司","full_address":"上海市上海市嘉定区华亭镇霜竹公路104号翰澎科技有限公司","info":""}},{"type":"Feature","geometry":{"type":"Point","coordinates":[121.5647,31.21776]},"properties":{"province":"上海市","city":"上海市","county":"浦东新区","community":"花木街道花木路1883弄御翠园","full_address":"上海市上海市浦东新区花木街道花木路1883弄御翠园","info":""}},{"type":"Feature","geometry":{"type":"Point","coordinates":[121.690152,31.17225]},"properties":{"province":"上海市","city":"上海市","county":"浦东新区","community":"川沙新镇心圆西苑小区","full_address":"上海市上海市浦东新区川沙新镇心圆西苑小区","info":""}},{"type":"Feature","geometry":{"type":"Point","coordinates":[121.592784,31.278712]},"properties":{"province":"上海市","city":"上海市","county":"浦东新区","community":"浦兴路街道东陆新村五街坊","full_address":"上海市上海市浦东新区浦兴路街道东陆新村五街坊","info":""}},{"type":"Feature","geometry":{"type":"Point","coordinates":[117.332222,32.922334]},"properties":{"province":"安徽省","city":"蚌埠市","county":"禹会区","community":"张公山街道张公山五村（含附属商铺）","full_address":"安徽省蚌埠市禹会区张公山街道张公山五村（含附属商铺）","info":""}},{"type":"Feature","geometry":{"type":"Point","coordinates":[117.33344,32.925416]},"properties":{"province":"安徽省","city":"蚌埠市","county":"禹会区","community":"张公山街道张公山三村（含附属商铺）","full_address":"安徽省蚌埠市禹会区张公山街道张公山三村（含附属商铺）","info":""}},{"type":"Feature","geometry":{"type":"Point","coordinates":[117.334106,32.92078]},"properties":{"province":"安徽省","city":"蚌埠市","county":"禹会区","community":"张公山街道原机械工业第一设计研究院蚌埠居住区","full_address":"安徽省蚌埠市禹会区张公山街道原机械工业第一设计研究院蚌埠居住区","info":""}},{"type":"Feature","geometry":{"type":"Point","coordinates":[117.334567,32.921167]},"properties":{"province":"安徽省","city":"蚌埠市","county":"禹会区","community":"张公山街道张公山商城（含固定商铺）","full_address":"安徽省蚌埠市禹会区张公山街道张公山商城（含固定商铺）","info":""}},{"type":"Feature","geometry":{"type":"Point","coordinates":[117.331148,32.938491]},"properties":{"province":"安徽省","city":"蚌埠市","county":"禹会区","community":"大庆街道宋滩新村小区","full_address":"安徽省蚌埠市禹会区大庆街道宋滩新村小区","info":""}},{"type":"Feature","geometry":{"type":"Point","coordinates":[117.199504,32.954819]},"properties":{"province":"安徽省","city":"蚌埠市","county":"怀远县","community":"荆山镇卞和社区淮风苑小区（含附属门面）","full_address":"安徽省蚌埠市怀远县荆山镇卞和社区淮风苑小区（含附属门面）","info":""}},{"type":"Feature","geometry":{"type":"Point","coordinates":[117.210355,32.974708]},"properties":{"province":"安徽省","city":"蚌埠市","county":"怀远县","community":"榴城镇禹都华庭东区","full_address":"安徽省蚌埠市怀远县榴城镇禹都华庭东区","info":""}},{"type":"Feature","geometry":{"type":"Point","coordinates":[117.196374,32.983295]},"properties":{"province":"安徽省","city":"蚌埠市","county":"怀远县","community":"榴城镇榴城社区","full_address":"安徽省蚌埠市怀远县榴城镇榴城社区","info":""}},{"type":"Feature","geometry":{"type":"Point","coordinates":[117.196374,32.983295]},"properties":{"province":"安徽省","city":"蚌埠市","county":"怀远县","community":"榴城镇双墩社区","full_address":"安徽省蚌埠市怀远县榴城镇双墩社区","info":""}},{"type":"Feature","geometry":{"type":"Point","coordinates":[117.2209,32.971193]},"properties":{"province":"安徽省","city":"蚌埠市","county":"怀远县","community":"榴城镇新河社区","full_address":"安徽省蚌埠市怀远县榴城镇新河社区","info":""}},{"type":"Feature","geometry":{"type":"Point","coordinates":[117.167677,32.957405]},"properties":{"province":"安徽省","city":"蚌埠市","county":"怀远县","community":"荆山镇梅郢社区华地紫园小区","full_address":"安徽省蚌埠市怀远县荆山镇梅郢社区华地紫园小区","info":""}},{"type":"Feature","geometry":{"type":"Point","coordinates":[117.166595,32.963165]},"properties":{"province":"安徽省","city":"蚌埠市","county":"怀远县","community":"荆山镇梅郢社区嘉富新城小区","full_address":"安徽省蚌埠市怀远县荆山镇梅郢社区嘉富新城小区","info":""}},{"type":"Feature","geometry":{"type":"Point","coordinates":[117.201433,32.957496]},"properties":{"province":"安徽省","city":"蚌埠市","county":"怀远县","community":"荆山镇望月社区城关医院附近门面（区域范围西至新民路、北至禹王路、南至健康路、东至东大街单行道）","full_address":"安徽省蚌埠市怀远县荆山镇望月社区城关医院附近门面（区域范围西至新民路、北至禹王路、南至健康路、东至东大街单行道）","info":""}},{"type":"Feature","geometry":{"type":"Point","coordinates":[117.25686,32.970137]},"properties":{"province":"安徽省","city":"蚌埠市","county":"怀远县","community":"经开区怀远工业园区台丽包装厂","full_address":"安徽省蚌埠市怀远县经开区怀远工业园区台丽包装厂","info":""}},{"type":"Feature","geometry":{"type":"Point","coordinates":[117.211561,32.976662]},"properties":{"province":"安徽省","city":"蚌埠市","county":"怀远县","community":"榴城镇双墩社区书香门第小区","full_address":"安徽省蚌埠市怀远县榴城镇双墩社区书香门第小区","info":""}},{"type":"Feature","geometry":{"type":"Point","coordinates":[117.216117,32.964542]},"properties":{"province":"安徽省","city":"蚌埠市","county":"怀远县","community":"榴城镇引凤社区禹都雅苑小区","full_address":"安徽省蚌埠市怀远县榴城镇引凤社区禹都雅苑小区","info":""}},{"type":"Feature","geometry":{"type":"Point","coordinates":[117.232468,32.981504]},"properties":{"province":"安徽省","city":"蚌埠市","county":"怀远县","community":"榴城镇五岔社区","full_address":"安徽省蚌埠市怀远县榴城镇五岔社区","info":""}},{"type":"Feature","geometry":{"type":"Point","coordinates":[117.120504,33.16387]},"properties":{"province":"安徽省","city":"蚌埠市","county":"怀远县","community":"包集镇南严村","full_address":"安徽省蚌埠市怀远县包集镇南严村","info":""}},{"type":"Feature","geometry":{"type":"Point","coordinates":[116.77022,33.083486]},"properties":{"province":"安徽省","city":"蚌埠市","county":"怀远县","community":"徐圩乡钞湖村","full_address":"安徽省蚌埠市怀远县徐圩乡钞湖村","info":""}},{"type":"Feature","geometry":{"type":"Point","coordinates":[117.029124,32.81765]},"properties":{"province":"安徽省","city":"蚌埠市","county":"怀远县","community":"常坟镇邹庙村","full_address":"安徽省蚌埠市怀远县常坟镇邹庙村","info":""}},{"type":"Feature","geometry":{"type":"Point","coordinates":[117.135505,33.099723]},"properties":{"province":"安徽省","city":"蚌埠市","county":"怀远县","community":"古城镇水海村","full_address":"安徽省蚌埠市怀远县古城镇水海村","info":""}},{"type":"Feature","geometry":{"type":"Point","coordinates":[117.194848,32.96766]},"properties":{"province":"安徽省","city":"蚌埠市","county":"怀远县","community":"榴城镇新怀社区","full_address":"安徽省蚌埠市怀远县榴城镇新怀社区","info":""}},{"type":"Feature","geometry":{"type":"Point","coordinates":[117.194609,32.99387]},"properties":{"province":"安徽省","city":"蚌埠市","county":"怀远县","community":"榴城镇泰山社区","full_address":"安徽省蚌埠市怀远县榴城镇泰山社区","info":""}},{"type":"Feature","geometry":{"type":"Point","coordinates":[117.144623,33.084117]},"properties":{"province":"安徽省","city":"蚌埠市","county":"怀远县","community":"古城镇古城村","full_address":"安徽省蚌埠市怀远县古城镇古城村","info":""}},{"type":"Feature","geometry":{"type":"Point","coordinates":[117.180975,32.961504]},"properties":{"province":"安徽省","city":"蚌埠市","county":"怀远县","community":"荆山镇圣泉社区荆山西苑小区","full_address":"安徽省蚌埠市怀远县荆山镇圣泉社区荆山西苑小区","info":""}},{"type":"Feature","geometry":{"type":"Point","coordinates":[117.200892,32.951379]},"properties":{"province":"安徽省","city":"蚌埠市","county":"怀远县","community":"榴城镇望淮社区望淮小区","full_address":"安徽省蚌埠市怀远县榴城镇望淮社区望淮小区","info":""}},{"type":"Feature","geometry":{"type":"Point","coordinates":[117.214622,32.980296]},"properties":{"province":"安徽省","city":"蚌埠市","county":"怀远县","community":"榴城镇双墩社区翰林世家","full_address":"安徽省蚌埠市怀远县榴城镇双墩社区翰林世家","info":""}},{"type":"Feature","geometry":{"type":"Point","coordinates":[117.120504,33.16387]},"properties":{"province":"安徽省","city":"蚌埠市","county":"怀远县","community":"包集镇双河村","full_address":"安徽省蚌埠市怀远县包集镇双河村","info":""}},{"type":"Feature","geometry":{"type":"Point","coordinates":[117.120504,33.16387]},"properties":{"province":"安徽省","city":"蚌埠市","county":"怀远县","community":"包集镇火庙村","full_address":"安徽省蚌埠市怀远县包集镇火庙村","info":""}},{"type":"Feature","geometry":{"type":"Point","coordinates":[117.164704,33.045156]},"properties":{"province":"安徽省","city":"蚌埠市","county":"怀远县","community":"古城镇路岗村","full_address":"安徽省蚌埠市怀远县古城镇路岗村","info":""}},{"type":"Feature","geometry":{"type":"Point","coordinates":[117.173313,32.985822]},"properties":{"province":"安徽省","city":"蚌埠市","county":"怀远县","community":"荆山镇建强社区","full_address":"安徽省蚌埠市怀远县荆山镇建强社区","info":""}},{"type":"Feature","geometry":{"type":"Point","coordinates":[117.096765,32.988018]},"properties":{"province":"安徽省","city":"蚌埠市","county":"怀远县","community":"荆山镇沈郢村","full_address":"安徽省蚌埠市怀远县荆山镇沈郢村","info":""}},{"type":"Feature","geometry":{"type":"Point","coordinates":[117.208417,32.968209]},"properties":{"province":"安徽省","city":"蚌埠市","county":"怀远县","community":"榴城镇望淮社区铭居小区","full_address":"安徽省蚌埠市怀远县榴城镇望淮社区铭居小区","info":""}},{"type":"Feature","geometry":{"type":"Point","coordinates":[116.992925,33.63267]},"properties":{"province":"安徽省","city":"宿州市","county":"埇桥区","community":"东关街道东昌路以东、胜利路以南、京沪铁路以西、汴河路以北合围区域（铁路社区除外）","full_address":"安徽省宿州市埇桥区东关街道东昌路以东、胜利路以南、京沪铁路以西、汴河路以北合围区域（铁路社区除外）","info":""}},{"type":"Feature","geometry":{"type":"Point","coordinates":[117.062538,33.595903]},"properties":{"province":"安徽省","city":"宿州市","county":"埇桥区","community":"（京沪铁路以东、汴河东路以北、沱河路以西以南）合围区域（上述高风险区及中煤矿建总医院除外）","full_address":"安徽省宿州市埇桥区（京沪铁路以东、汴河东路以北、沱河路以西以南）合围区域（上述高风险区及中煤矿建总医院除外）","info":""}},{"type":"Feature","geometry":{"type":"Point","coordinates":[116.968537,33.641087]},"properties":{"province":"安徽省","city":"宿州市","county":"埇桥区","community":"西关街道和园社区元一新天地小区","full_address":"安徽省宿州市埇桥区西关街道和园社区元一新天地小区","info":""}},{"type":"Feature","geometry":{"type":"Point","coordinates":[0,0]},"properties":{"province":"安徽省","city":"宿州市","county":"埇桥区","community":"淮海中路以东、环城北路以南、环城东路以西、胜利东路以北合围区域（区域内高风险区除外）","full_address":"安徽省宿州市埇桥区淮海中路以东、环城北路以南、环城东路以西、胜利东路以北合围区域（区域内高风险区除外）","info":""}},{"type":"Feature","geometry":{"type":"Point","coordinates":[116.976391,33.65014]},"properties":{"province":"安徽省","city":"宿州市","county":"埇桥区","community":"人民路、宿州大道、西昌北路、明月路合围区域（区域内高风险区除外）","full_address":"安徽省宿州市埇桥区人民路、宿州大道、西昌北路、明月路合围区域（区域内高风险区除外）","info":""}},{"type":"Feature","geometry":{"type":"Point","coordinates":[116.9701,33.640009]},"properties":{"province":"安徽省","city":"宿州市","county":"埇桥区","community":"人民路、周庄路、三八沟巷、胜利西路合围区域（区域内高风险区除外）","full_address":"安徽省宿州市埇桥区人民路、周庄路、三八沟巷、胜利西路合围区域（区域内高风险区除外）","info":""}},{"type":"Feature","geometry":{"type":"Point","coordinates":[117.062538,33.595903]},"properties":{"province":"安徽省","city":"宿州市","county":"埇桥区","community":"宿怀北路、胜利东路、环城河北至沱河路合围区域（区域内高风险区除外）","full_address":"安徽省宿州市埇桥区宿怀北路、胜利东路、环城河北至沱河路合围区域（区域内高风险区除外）","info":""}},{"type":"Feature","geometry":{"type":"Point","coordinates":[0,0]},"properties":{"province":"安徽省","city":"宿州市","county":"埇桥区","community":"宿怀北路、汴河中路、淮河中路、沱河路合围区域（区域内高风险区除外）","full_address":"安徽省宿州市埇桥区宿怀北路、汴河中路、淮河中路、沱河路合围区域（区域内高风险区除外）","info":""}},{"type":"Feature","geometry":{"type":"Point","coordinates":[117.01612,33.638793]},"properties":{"province":"安徽省","city":"宿州市","county":"埇桥区","community":"人民中路、银河二路、银河一路、西昌北路、沱河路合围区域（区域内高风险区和市中医院除外）","full_address":"安徽省宿州市埇桥区人民中路、银河二路、银河一路、西昌北路、沱河路合围区域（区域内高风险区和市中医院除外）","info":""}},{"type":"Feature","geometry":{"type":"Point","coordinates":[116.182093,33.4961]},"properties":{"province":"安徽省","city":"亳州市","county":"涡阳县","community":"星园街道潘寨社区","full_address":"安徽省亳州市涡阳县星园街道潘寨社区","info":""}},{"type":"Feature","geometry":{"type":"Point","coordinates":[116.257845,33.462429]},"properties":{"province":"安徽省","city":"亳州市","county":"涡阳县","community":"公吉寺镇马寨行政村","full_address":"安徽省亳州市涡阳县公吉寺镇马寨行政村","info":""}},{"type":"Feature","geometry":{"type":"Point","coordinates":[116.055502,33.516969]},"properties":{"province":"安徽省","city":"亳州市","county":"涡阳县","community":"花沟镇花沟社区","full_address":"安徽省亳州市涡阳县花沟镇花沟社区","info":""}},{"type":"Feature","geometry":{"type":"Point","coordinates":[116.125339,33.49395]},"properties":{"province":"安徽省","city":"亳州市","county":"涡阳县","community":"花沟镇孙小桥行政村","full_address":"安徽省亳州市涡阳县花沟镇孙小桥行政村","info":""}},{"type":"Feature","geometry":{"type":"Point","coordinates":[116.197463,33.511323]},"properties":{"province":"安徽省","city":"亳州市","county":"涡阳县","community":"城关街道孙楼社区","full_address":"安徽省亳州市涡阳县城关街道孙楼社区","info":""}},{"type":"Feature","geometry":{"type":"Point","coordinates":[116.240384,33.482773]},"properties":{"province":"安徽省","city":"亳州市","county":"涡阳县","community":"城关街道新安社区阳光医院","full_address":"安徽省亳州市涡阳县城关街道新安社区阳光医院","info":""}},{"type":"Feature","geometry":{"type":"Point","coordinates":[116.215198,33.495995]},"properties":{"province":"安徽省","city":"亳州市","county":"涡阳县","community":"星园街道福宁社区好邻居炒鸡店（雪枫路与龙山路交口向北50米路西）","full_address":"安徽省亳州市涡阳县星园街道福宁社区好邻居炒鸡店（雪枫路与龙山路交口向北50米路西）","info":""}},{"type":"Feature","geometry":{"type":"Point","coordinates":[116.219362,33.508333]},"properties":{"province":"安徽省","city":"亳州市","county":"涡阳县","community":"城关街道团结社区","full_address":"安徽省亳州市涡阳县城关街道团结社区","info":""}},{"type":"Feature","geometry":{"type":"Point","coordinates":[116.120666,33.362246]},"properties":{"province":"安徽省","city":"亳州市","county":"利辛县","community":"纪王场乡三和社区","full_address":"安徽省亳州市利辛县纪王场乡三和社区","info":""}},{"type":"Feature","geometry":{"type":"Point","coordinates":[116.111031,33.321405]},"properties":{"province":"安徽省","city":"亳州市","county":"利辛县","community":"纪王场乡纪大寨村","full_address":"安徽省亳州市利辛县纪王场乡纪大寨村","info":""}},{"type":"Feature","geometry":{"type":"Point","coordinates":[116.166665,33.185396]},"properties":{"province":"安徽省","city":"亳州市","county":"利辛县","community":"西潘楼镇桥西村","full_address":"安徽省亳州市利辛县西潘楼镇桥西村","info":""}},{"type":"Feature","geometry":{"type":"Point","coordinates":[116.258062,33.257592]},"properties":{"province":"安徽省","city":"亳州市","county":"利辛县","community":"城北镇陆桃园村","full_address":"安徽省亳州市利辛县城北镇陆桃园村","info":""}},{"type":"Feature","geometry":{"type":"Point","coordinates":[116.214082,33.136363]},"properties":{"province":"安徽省","city":"亳州市","county":"利辛县","community":"城关镇新河社区大张庄","full_address":"安徽省亳州市利辛县城关镇新河社区大张庄","info":""}},{"type":"Feature","geometry":{"type":"Point","coordinates":[116.22087,33.135162]},"properties":{"province":"安徽省","city":"亳州市","county":"利辛县","community":"城关镇宝璋医院对面一品香包子铺","full_address":"安徽省亳州市利辛县城关镇宝璋医院对面一品香包子铺","info":""}},{"type":"Feature","geometry":{"type":"Point","coordinates":[116.234662,33.204608]},"properties":{"province":"安徽省","city":"亳州市","county":"利辛县","community":"城北镇陈营村","full_address":"安徽省亳州市利辛县城北镇陈营村","info":""}},{"type":"Feature","geometry":{"type":"Point","coordinates":[115.877653,33.167077]},"properties":{"province":"安徽省","city":"亳州市","county":"利辛县","community":"城北镇街南头老粮站面粉加工店","full_address":"安徽省亳州市利辛县城北镇街南头老粮站面粉加工店","info":""}},{"type":"Feature","geometry":{"type":"Point","coordinates":[116.21252,33.142485]},"properties":{"province":"安徽省","city":"亳州市","county":"利辛县","community":"城北镇街上李萍粮油店","full_address":"安徽省亳州市利辛县城北镇街上李萍粮油店","info":""}},{"type":"Feature","geometry":{"type":"Point","coordinates":[116.100549,33.331045]},"properties":{"province":"安徽省","city":"亳州市","county":"利辛县","community":"纪王场乡纪王场社区审美日化店","full_address":"安徽省亳州市利辛县纪王场乡纪王场社区审美日化店","info":""}},{"type":"Feature","geometry":{"type":"Point","coordinates":[116.206937,33.155989]},"properties":{"province":"安徽省","city":"亳州市","county":"利辛县","community":"城关镇春店社区二队皇家置业小区商住楼南楼","full_address":"安徽省亳州市利辛县城关镇春店社区二队皇家置业小区商住楼南楼","info":""}},{"type":"Feature","geometry":{"type":"Point","coordinates":[116.208909,33.159574]},"properties":{"province":"安徽省","city":"亳州市","county":"利辛县","community":"城关镇金龙商贸港D区（6栋、7栋、8栋、9栋和10栋）","full_address":"安徽省亳州市利辛县城关镇金龙商贸港D区（6栋、7栋、8栋、9栋和10栋）","info":""}},{"type":"Feature","geometry":{"type":"Point","coordinates":[116.30727,33.24606]},"properties":{"province":"安徽省","city":"亳州市","county":"利辛县","community":"望疃镇玉光村","full_address":"安徽省亳州市利辛县望疃镇玉光村","info":""}},{"type":"Feature","geometry":{"type":"Point","coordinates":[116.221263,33.350034]},"properties":{"province":"安徽省","city":"亳州市","county":"利辛县","community":"旧城镇盛新村","full_address":"安徽省亳州市利辛县旧城镇盛新村","info":""}},{"type":"Feature","geometry":{"type":"Point","coordinates":[116.237837,33.236467]},"properties":{"province":"安徽省","city":"亳州市","county":"利辛县","community":"城北镇陆楼村","full_address":"安徽省亳州市利辛县城北镇陆楼村","info":""}},{"type":"Feature","geometry":{"type":"Point","coordinates":[115.88437,28.685501]},"properties":{"province":"江西省","city":"南昌市","county":"东湖区","community":"八一桥街道大士院半步街88号","full_address":"江西省南昌市东湖区八一桥街道大士院半步街88号","info":""}},{"type":"Feature","geometry":{"type":"Point","coordinates":[115.888545,28.676817]},"properties":{"province":"江西省","city":"南昌市","county":"东湖区","community":"百花洲街道胜利路51号、53号","full_address":"江西省南昌市东湖区百花洲街道胜利路51号、53号","info":""}},{"type":"Feature","geometry":{"type":"Point","coordinates":[115.885667,28.678123]},"properties":{"province":"江西省","city":"南昌市","county":"东湖区","community":"民德路以北、民巷以西（含民巷东侧区域）、后墙路以南（含原市人才市场、省歌）以及滕王阁东广场以南、抚河路以东的合围区域","full_address":"江西省南昌市东湖区民德路以北、民巷以西（含民巷东侧区域）、后墙路以南（含原市人才市场、省歌）以及滕王阁东广场以南、抚河路以东的合围区域","info":""}},{"type":"Feature","geometry":{"type":"Point","coordinates":[115.89232,28.665939]},"properties":{"province":"江西省","city":"南昌市","county":"西湖区","community":"南浦街道船山路156号（东西南北中对面）“三毛烧烤大鱼店","full_address":"江西省南昌市西湖区南浦街道船山路156号（东西南北中对面）“三毛烧烤大鱼店","info":""}},{"type":"Feature","geometry":{"type":"Point","coordinates":[115.89263,28.66642]},"properties":{"province":"江西省","city":"南昌市","county":"西湖区","community":"二郎庙社区石头街66号","full_address":"江西省南昌市西湖区二郎庙社区石头街66号","info":""}},{"type":"Feature","geometry":{"type":"Point","coordinates":[115.89524,28.665672]},"properties":{"province":"江西省","city":"南昌市","county":"西湖区","community":"西书院社区西书院街1号3栋3单元","full_address":"江西省南昌市西湖区西书院社区西书院街1号3栋3单元","info":""}},{"type":"Feature","geometry":{"type":"Point","coordinates":[115.89117,28.66621]},"properties":{"province":"江西省","city":"南昌市","county":"西湖区","community":"船山社区惠民门一区5栋旁建筑","full_address":"江西省南昌市西湖区船山社区惠民门一区5栋旁建筑","info":""}},{"type":"Feature","geometry":{"type":"Point","coordinates":[115.89442,28.66568]},"properties":{"province":"江西省","city":"南昌市","county":"西湖区","community":"石头街31号、33号","full_address":"江西省南昌市西湖区石头街31号、33号","info":""}},{"type":"Feature","geometry":{"type":"Point","coordinates":[115.890634,28.668714]},"properties":{"province":"江西省","city":"南昌市","county":"西湖区","community":"船山路以东，象山南路以西，南浦路以南的三角合围区域","full_address":"江西省南昌市西湖区船山路以东，象山南路以西，南浦路以南的三角合围区域","info":""}},{"type":"Feature","geometry":{"type":"Point","coordinates":[115.895866,28.669864]},"properties":{"province":"江西省","city":"南昌市","county":"西湖区","community":"系马桩街道象山南路、孺子路、校厂北路、干家前街合围区域","full_address":"江西省南昌市西湖区系马桩街道象山南路、孺子路、校厂北路、干家前街合围区域","info":""}},{"type":"Feature","geometry":{"type":"Point","coordinates":[115.894718,28.670065]},"properties":{"province":"江西省","city":"南昌市","county":"西湖区","community":"孺子路社区除校厂北4、5、6栋、干家前街155、157号、西湖区人民检察院以外区域","full_address":"江西省南昌市西湖区孺子路社区除校厂北4、5、6栋、干家前街155、157号、西湖区人民检察院以外区域","info":""}},{"type":"Feature","geometry":{"type":"Point","coordinates":[115.899549,28.670502]},"properties":{"province":"江西省","city":"南昌市","county":"西湖区","community":"南海行宫社区（系马桩街独立楼院、财投大厦、南昌市税务局稽查分局除外）","full_address":"江西省南昌市西湖区南海行宫社区（系马桩街独立楼院、财投大厦、南昌市税务局稽查分局除外）","info":""}},{"type":"Feature","geometry":{"type":"Point","coordinates":[115.896692,28.667915]},"properties":{"province":"江西省","city":"南昌市","county":"西湖区","community":"六眼井社区三眼井街以北片区","full_address":"江西省南昌市西湖区六眼井社区三眼井街以北片区","info":""}},{"type":"Feature","geometry":{"type":"Point","coordinates":[115.899549,28.670502]},"properties":{"province":"江西省","city":"南昌市","county":"西湖区","community":"系马桩社区（系马桩街独立楼院除外）","full_address":"江西省南昌市西湖区系马桩社区（系马桩街独立楼院除外）","info":""}},{"type":"Feature","geometry":{"type":"Point","coordinates":[115.899391,28.670003]},"properties":{"province":"江西省","city":"南昌市","county":"西湖区","community":"系马桩街道应天寺社区、松柏巷社区（省委党校及宿舍区、南昌电信除外）","full_address":"江西省南昌市西湖区系马桩街道应天寺社区、松柏巷社区（省委党校及宿舍区、南昌电信除外）","info":""}},{"type":"Feature","geometry":{"type":"Point","coordinates":[115.945391,28.65018]},"properties":{"province":"江西省","city":"南昌市","county":"西湖区","community":"南站街道井冈山大道以东、站前路以南、天佑路以西、解放西路以北的合围区域（不含站南街19号、27号、33号、35号）","full_address":"江西省南昌市西湖区南站街道井冈山大道以东、站前路以南、天佑路以西、解放西路以北的合围区域（不含站南街19号、27号、33号、35号）","info":""}},{"type":"Feature","geometry":{"type":"Point","coordinates":[115.904296,28.646125]},"properties":{"province":"江西省","city":"南昌市","county":"青云谱区","community":"京山街道建祥社区建设路225号3栋","full_address":"江西省南昌市青云谱区京山街道建祥社区建设路225号3栋","info":""}},{"type":"Feature","geometry":{"type":"Point","coordinates":[115.903145,28.645191]},"properties":{"province":"江西省","city":"南昌市","county":"青云谱区","community":"京山街道建祥社区建设路223号1栋、2栋、3栋、4栋、5栋、6栋、7栋、8栋、9栋、12栋、瑞亚实业有限公司","full_address":"江西省南昌市青云谱区京山街道建祥社区建设路223号1栋、2栋、3栋、4栋、5栋、6栋、7栋、8栋、9栋、12栋、瑞亚实业有限公司","info":""}},{"type":"Feature","geometry":{"type":"Point","coordinates":[115.93072,28.6782]},"properties":{"province":"江西省","city":"南昌市","county":"青山湖区","community":"上坊路342号科学院宿舍小区（除3栋外）","full_address":"江西省南昌市青山湖区上坊路342号科学院宿舍小区（除3栋外）","info":""}},{"type":"Feature","geometry":{"type":"Point","coordinates":[115.92864,28.667475]},"properties":{"province":"江西省","city":"南昌市","county":"青山湖区","community":"顺化门社区洪都中大道167号南区宿舍","full_address":"江西省南昌市青山湖区顺化门社区洪都中大道167号南区宿舍","info":""}},{"type":"Feature","geometry":{"type":"Point","coordinates":[115.812,28.680472]},"properties":{"province":"江西省","city":"南昌市","county":"经开区","community":"万科金域传奇小区","full_address":"江西省南昌市经开区万科金域传奇小区","info":""}},{"type":"Feature","geometry":{"type":"Point","coordinates":[115.435744,35.24935]},"properties":{"province":"山东省","city":"菏泽市","county":"牡丹区","community":"西城街道翰林豪庭小区其他楼宇","full_address":"山东省菏泽市牡丹区西城街道翰林豪庭小区其他楼宇","info":""}},{"type":"Feature","geometry":{"type":"Point","coordinates":[115.415167,35.240071]},"properties":{"province":"山东省","city":"菏泽市","county":"牡丹区","community":"西城街道景韵苑小区其他楼宇","full_address":"山东省菏泽市牡丹区西城街道景韵苑小区其他楼宇","info":""}},{"type":"Feature","geometry":{"type":"Point","coordinates":[115.438087,35.249657]},"properties":{"province":"山东省","city":"菏泽市","county":"牡丹区","community":"东方红西街福源名居凯美多店","full_address":"山东省菏泽市牡丹区东方红西街福源名居凯美多店","info":""}},{"type":"Feature","geometry":{"type":"Point","coordinates":[115.455428,35.278462]},"properties":{"province":"山东省","city":"菏泽市","county":"牡丹区","community":"壹号学府瑜伽店","full_address":"山东省菏泽市牡丹区壹号学府瑜伽店","info":""}},{"type":"Feature","geometry":{"type":"Point","coordinates":[115.421592,35.23866]},"properties":{"province":"山东省","city":"菏泽市","county":"牡丹区","community":"金盾花园小区南门东侧按摩店","full_address":"山东省菏泽市牡丹区金盾花园小区南门东侧按摩店","info":""}},{"type":"Feature","geometry":{"type":"Point","coordinates":[115.548743,34.837613]},"properties":{"province":"山东省","city":"菏泽市","county":"曹县","community":"万基小区","full_address":"山东省菏泽市曹县万基小区","info":""}},{"type":"Feature","geometry":{"type":"Point","coordinates":[115.25975,34.857536]},"properties":{"province":"山东省","city":"菏泽市","county":"曹县","community":"楼庄镇马村小马庄","full_address":"山东省菏泽市曹县楼庄镇马村小马庄","info":""}},{"type":"Feature","geometry":{"type":"Point","coordinates":[115.542328,34.825508]},"properties":{"province":"山东省","city":"菏泽市","county":"曹县","community":"V8台球室","full_address":"山东省菏泽市曹县V8台球室","info":""}},{"type":"Feature","geometry":{"type":"Point","coordinates":[115.25804,34.857806]},"properties":{"province":"山东省","city":"菏泽市","county":"曹县","community":"楼庄中心小学旁逍遥镇胡辣汤餐馆","full_address":"山东省菏泽市曹县楼庄中心小学旁逍遥镇胡辣汤餐馆","info":""}},{"type":"Feature","geometry":{"type":"Point","coordinates":[115.542328,34.825508]},"properties":{"province":"山东省","city":"菏泽市","county":"曹县","community":"百年康药店","full_address":"山东省菏泽市曹县百年康药店","info":""}},{"type":"Feature","geometry":{"type":"Point","coordinates":[115.542328,34.825508]},"properties":{"province":"山东省","city":"菏泽市","county":"曹县","community":"冰纯茶饮","full_address":"山东省菏泽市曹县冰纯茶饮","info":""}},{"type":"Feature","geometry":{"type":"Point","coordinates":[115.260581,34.857525]},"properties":{"province":"山东省","city":"菏泽市","county":"曹县","community":"楼庄卫生院旁宏源购物","full_address":"山东省菏泽市曹县楼庄卫生院旁宏源购物","info":""}},{"type":"Feature","geometry":{"type":"Point","coordinates":[115.25975,34.857536]},"properties":{"province":"山东省","city":"菏泽市","county":"曹县","community":"楼庄村两元店","full_address":"山东省菏泽市曹县楼庄村两元店","info":""}},{"type":"Feature","geometry":{"type":"Point","coordinates":[115.258536,34.857334]},"properties":{"province":"山东省","city":"菏泽市","county":"曹县","community":"楼庄镇中心小学旁百分商行","full_address":"山东省菏泽市曹县楼庄镇中心小学旁百分商行","info":""}},{"type":"Feature","geometry":{"type":"Point","coordinates":[115.533436,34.838367]},"properties":{"province":"山东省","city":"菏泽市","county":"曹县","community":"曹城镇中学门卫处","full_address":"山东省菏泽市曹县曹城镇中学门卫处","info":""}},{"type":"Feature","geometry":{"type":"Point","coordinates":[115.632698,34.773786]},"properties":{"province":"山东省","city":"菏泽市","county":"曹县","community":"德信物美超市","full_address":"山东省菏泽市曹县德信物美超市","info":""}},{"type":"Feature","geometry":{"type":"Point","coordinates":[115.557097,34.835054]},"properties":{"province":"山东省","city":"菏泽市","county":"曹县","community":"大唐世纪城小区","full_address":"山东省菏泽市曹县大唐世纪城小区","info":""}},{"type":"Feature","geometry":{"type":"Point","coordinates":[115.272961,34.889495]},"properties":{"province":"山东省","city":"菏泽市","county":"曹县","community":"楼庄北黄口村","full_address":"山东省菏泽市曹县楼庄北黄口村","info":""}},{"type":"Feature","geometry":{"type":"Point","coordinates":[115.549177,34.814019]},"properties":{"province":"山东省","city":"菏泽市","county":"曹县","community":"贵和家园小区","full_address":"山东省菏泽市曹县贵和家园小区","info":""}},{"type":"Feature","geometry":{"type":"Point","coordinates":[115.55014,34.848065]},"properties":{"province":"山东省","city":"菏泽市","county":"曹县","community":"环岛小区","full_address":"山东省菏泽市曹县环岛小区","info":""}},{"type":"Feature","geometry":{"type":"Point","coordinates":[113.645739,34.796568]},"properties":{"province":"河南省","city":"郑州市","county":"金水区","community":"东风路街道办事处同乐花园社区天伦锦城小区","full_address":"河南省郑州市金水区东风路街道办事处同乐花园社区天伦锦城小区","info":""}},{"type":"Feature","geometry":{"type":"Point","coordinates":[114.887152,34.942182]},"properties":{"province":"河南省","city":"开封市","county":"兰考县","community":"考城镇城西村","full_address":"河南省开封市兰考县考城镇城西村","info":""}},{"type":"Feature","geometry":{"type":"Point","coordinates":[115.253626,34.832405]},"properties":{"province":"河南省","city":"开封市","county":"兰考县","community":"许河乡赵楼村","full_address":"河南省开封市兰考县许河乡赵楼村","info":""}},{"type":"Feature","geometry":{"type":"Point","coordinates":[115.037151,34.834426]},"properties":{"province":"河南省","city":"开封市","county":"兰考县","community":"葡萄架乡韩湘坡村","full_address":"河南省开封市兰考县葡萄架乡韩湘坡村","info":""}},{"type":"Feature","geometry":{"type":"Point","coordinates":[113.580446,33.360657]},"properties":{"province":"河南省","city":"平顶山市","county":"舞钢市","community":"枣林镇栗林铺村","full_address":"河南省平顶山市舞钢市枣林镇栗林铺村","info":""}},{"type":"Feature","geometry":{"type":"Point","coordinates":[113.589945,33.371668]},"properties":{"province":"河南省","city":"平顶山市","county":"舞钢市","community":"枣林镇迎宾大道至瑞森鲜易进出口有限公司之间道路两侧沿街商铺、居民区及工厂","full_address":"河南省平顶山市舞钢市枣林镇迎宾大道至瑞森鲜易进出口有限公司之间道路两侧沿街商铺、居民区及工厂","info":""}},{"type":"Feature","geometry":{"type":"Point","coordinates":[113.078395,33.855376]},"properties":{"province":"河南省","city":"平顶山市","county":"舞钢市","community":"枣林镇镇区（枣徐路与迎宾大道交叉口以南至信誉超市以北区域）沿街商铺、居民区","full_address":"河南省平顶山市舞钢市枣林镇镇区（枣徐路与迎宾大道交叉口以南至信誉超市以北区域）沿街商铺、居民区","info":""}},{"type":"Feature","geometry":{"type":"Point","coordinates":[113.541736,33.379188]},"properties":{"province":"河南省","city":"平顶山市","county":"舞钢市","community":"八台镇小唐村","full_address":"河南省平顶山市舞钢市八台镇小唐村","info":""}},{"type":"Feature","geometry":{"type":"Point","coordinates":[114.779064,35.516732]},"properties":{"province":"河南省","city":"安阳市","county":"滑县","community":"八里营镇姚家寨村","full_address":"河南省安阳市滑县八里营镇姚家寨村","info":""}},{"type":"Feature","geometry":{"type":"Point","coordinates":[115.29662,34.799066]},"properties":{"province":"河南省","city":"商丘市","county":"民权县","community":"北关镇镇区","full_address":"河南省商丘市民权县北关镇镇区","info":""}},{"type":"Feature","geometry":{"type":"Point","coordinates":[115.278206,34.848402]},"properties":{"province":"河南省","city":"商丘市","county":"民权县","community":"北关镇官庄村","full_address":"河南省商丘市民权县北关镇官庄村","info":""}},{"type":"Feature","geometry":{"type":"Point","coordinates":[115.323203,34.753274]},"properties":{"province":"河南省","city":"商丘市","county":"民权县","community":"北关镇蔡庄村","full_address":"河南省商丘市民权县北关镇蔡庄村","info":""}},{"type":"Feature","geometry":{"type":"Point","coordinates":[114.729098,32.375106]},"properties":{"province":"河南省","city":"信阳市","county":"息县","community":"淮河办事处大何社区陈大庄东队","full_address":"河南省信阳市息县淮河办事处大何社区陈大庄东队","info":""}},{"type":"Feature","geometry":{"type":"Point","coordinates":[113.327894,32.731456]},"properties":{"province":"河南省","city":"驻马店市","county":"泌阳县","community":"付庄乡范庄村委付庄街","full_address":"河南省驻马店市泌阳县付庄乡范庄村委付庄街","info":""}},{"type":"Feature","geometry":{"type":"Point","coordinates":[113.496165,32.969043]},"properties":{"province":"河南省","city":"驻马店市","county":"泌阳县","community":"付庄乡范庄村委马下庄自然村","full_address":"河南省驻马店市泌阳县付庄乡范庄村委马下庄自然村","info":""}},{"type":"Feature","geometry":{"type":"Point","coordinates":[113.506116,32.974861]},"properties":{"province":"河南省","city":"驻马店市","county":"泌阳县","community":"付庄乡李岗村委李岗自然村","full_address":"河南省驻马店市泌阳县付庄乡李岗村委李岗自然村","info":""}},{"type":"Feature","geometry":{"type":"Point","coordinates":[113.506116,32.974861]},"properties":{"province":"河南省","city":"驻马店市","county":"泌阳县","community":"付庄乡李岗村委土桥自然村","full_address":"河南省驻马店市泌阳县付庄乡李岗村委土桥自然村","info":""}},{"type":"Feature","geometry":{"type":"Point","coordinates":[113.328476,32.732037]},"properties":{"province":"河南省","city":"驻马店市","county":"泌阳县","community":"县城文化路与花园巷南交叉口以南、自该交叉口沿花园巷向南50米处巷西第一条居民出入道口以北、沿巷西第一条居民出入口向西100米处一条南北通道以东、花园巷东侧大门朝西的住户及门面以西的合围区域","full_address":"河南省驻马店市泌阳县县城文化路与花园巷南交叉口以南、自该交叉口沿花园巷向南50米处巷西第一条居民出入道口以北、沿巷西第一条居民出入口向西100米处一条南北通道以东、花园巷东侧大门朝西的住户及门面以西的合围区域","info":""}},{"type":"Feature","geometry":{"type":"Point","coordinates":[114.175252,22.55854]},"properties":{"province":"广东省","city":"深圳市","county":"罗湖区","community":"莲塘街道港莲二村第12栋","full_address":"广东省深圳市罗湖区莲塘街道港莲二村第12栋","info":""}},{"type":"Feature","geometry":{"type":"Point","coordinates":[114.145592,22.575004]},"properties":{"province":"广东省","city":"深圳市","county":"罗湖区","community":"黄贝街道水库社区爱国路4006号宿舍E栋","full_address":"广东省深圳市罗湖区黄贝街道水库社区爱国路4006号宿舍E栋","info":""}},{"type":"Feature","geometry":{"type":"Point","coordinates":[114.105899,22.549918]},"properties":{"province":"广东省","city":"深圳市","county":"罗湖区","community":"桂园街道松园社区锦程国际三栋","full_address":"广东省深圳市罗湖区桂园街道松园社区锦程国际三栋","info":""}},{"type":"Feature","geometry":{"type":"Point","coordinates":[114.106966,22.547644]},"properties":{"province":"广东省","city":"深圳市","county":"罗湖区","community":"桂园街道红宝路38号大院7栋","full_address":"广东省深圳市罗湖区桂园街道红宝路38号大院7栋","info":""}},{"type":"Feature","geometry":{"type":"Point","coordinates":[114.172446,22.562101]},"properties":{"province":"广东省","city":"深圳市","county":"罗湖区","community":"莲塘街道莲塘花园1栋2单元","full_address":"广东省深圳市罗湖区莲塘街道莲塘花园1栋2单元","info":""}},{"type":"Feature","geometry":{"type":"Point","coordinates":[114.16905,22.558465]},"properties":{"province":"广东省","city":"深圳市","county":"罗湖区","community":"莲塘街道鹏兴花园五期","full_address":"广东省深圳市罗湖区莲塘街道鹏兴花园五期","info":""}},{"type":"Feature","geometry":{"type":"Point","coordinates":[114.174326,22.559597]},"properties":{"province":"广东省","city":"深圳市","county":"罗湖区","community":"莲塘街道桐景花园帝景阁","full_address":"广东省深圳市罗湖区莲塘街道桐景花园帝景阁","info":""}},{"type":"Feature","geometry":{"type":"Point","coordinates":[114.167978,22.558902]},"properties":{"province":"广东省","city":"深圳市","county":"罗湖区","community":"莲塘街道鹏莲花园","full_address":"广东省深圳市罗湖区莲塘街道鹏莲花园","info":""}},{"type":"Feature","geometry":{"type":"Point","coordinates":[114.114141,22.564839]},"properties":{"province":"广东省","city":"深圳市","county":"罗湖区","community":"笋岗街道“宝岗路以东、梅园路以南、广深铁路线以西（除笋岗村及桃园路86号综合楼外）、河西一路以北”围合区域（除高风险区外）","full_address":"广东省深圳市罗湖区笋岗街道“宝岗路以东、梅园路以南、广深铁路线以西（除笋岗村及桃园路86号综合楼外）、河西一路以北”围合区域（除高风险区外）","info":""}},{"type":"Feature","geometry":{"type":"Point","coordinates":[114.114142,22.565759]},"properties":{"province":"广东省","city":"深圳市","county":"罗湖区","community":"笋岗街道笋岗村141至163栋、165至167栋、177至181栋","full_address":"广东省深圳市罗湖区笋岗街道笋岗村141至163栋、165至167栋、177至181栋","info":""}},{"type":"Feature","geometry":{"type":"Point","coordinates":[114.111676,22.559997]},"properties":{"province":"广东省","city":"深圳市","county":"罗湖区","community":"笋岗街道粤华楼、桃园路100号","full_address":"广东省深圳市罗湖区笋岗街道粤华楼、桃园路100号","info":""}},{"type":"Feature","geometry":{"type":"Point","coordinates":[114.11186,22.56721]},"properties":{"province":"广东省","city":"深圳市","county":"罗湖区","community":"笋岗街道“梅园新村1至8栋、裕华大厦、裕华单身公寓、裕华宿舍楼、银山楼C座”围合区域","full_address":"广东省深圳市罗湖区笋岗街道“梅园新村1至8栋、裕华大厦、裕华单身公寓、裕华宿舍楼、银山楼C座”围合区域","info":""}},{"type":"Feature","geometry":{"type":"Point","coordinates":[114.085915,22.531252]},"properties":{"province":"广东省","city":"深圳市","county":"福田区","community":"福田街道福田南路34号小区（综合楼、生活区篮球场除外）","full_address":"广东省深圳市福田区福田街道福田南路34号小区（综合楼、生活区篮球场除外）","info":""}},{"type":"Feature","geometry":{"type":"Point","coordinates":[114.060899,22.510482]},"properties":{"province":"广东省","city":"深圳市","county":"福田区","community":"福保街道福保社区丽港湾丽湾阁","full_address":"广东省深圳市福田区福保街道福保社区丽港湾丽湾阁","info":""}},{"type":"Feature","geometry":{"type":"Point","coordinates":[114.060171,22.509937]},"properties":{"province":"广东省","city":"深圳市","county":"福田区","community":"福保街道福保社区宝瑞轩福宏阁3单元","full_address":"广东省深圳市福田区福保街道福保社区宝瑞轩福宏阁3单元","info":""}},{"type":"Feature","geometry":{"type":"Point","coordinates":[114.061817,22.513617]},"properties":{"province":"广东省","city":"深圳市","county":"福田区","community":"福保街道的圆梦园（高风险区除外），菩提路118号宿舍B单元、C单元","full_address":"广东省深圳市福田区福保街道的圆梦园（高风险区除外），菩提路118号宿舍B单元、C单元","info":""}},{"type":"Feature","geometry":{"type":"Point","coordinates":[114.053071,22.508343]},"properties":{"province":"广东省","city":"深圳市","county":"福田区","community":"福保街道福源花园一期、二期（高风险区除外）","full_address":"广东省深圳市福田区福保街道福源花园一期、二期（高风险区除外）","info":""}},{"type":"Feature","geometry":{"type":"Point","coordinates":[114.059678,22.509425]},"properties":{"province":"广东省","city":"深圳市","county":"福田区","community":"福保街道宝瑞轩（福宏阁3单元除外）、长宝大厦","full_address":"广东省深圳市福田区福保街道宝瑞轩（福宏阁3单元除外）、长宝大厦","info":""}},{"type":"Feature","geometry":{"type":"Point","coordinates":[114.044108,22.55427]},"properties":{"province":"广东省","city":"深圳市","county":"福田区","community":"莲花街道万科金色家园小区（高风险区除外）","full_address":"广东省深圳市福田区莲花街道万科金色家园小区（高风险区除外）","info":""}},{"type":"Feature","geometry":{"type":"Point","coordinates":[114.04175,22.519586]},"properties":{"province":"广东省","city":"深圳市","county":"福田区","community":"沙头街道沙尾社区沙尾东路—五号路—东村一路围合区域（高风险区、电房1除外）","full_address":"广东省深圳市福田区沙头街道沙尾社区沙尾东路—五号路—东村一路围合区域（高风险区、电房1除外）","info":""}},{"type":"Feature","geometry":{"type":"Point","coordinates":[114.091544,22.538228]},"properties":{"province":"广东省","city":"深圳市","county":"福田区","community":"南园街道南园社区统建商住楼甲栋、乙栋、丙栋及全体裙楼","full_address":"广东省深圳市福田区南园街道南园社区统建商住楼甲栋、乙栋、丙栋及全体裙楼","info":""}},{"type":"Feature","geometry":{"type":"Point","coordinates":[114.092888,22.537251]},"properties":{"province":"广东省","city":"深圳市","county":"福田区","community":"南园街道沙埔头村东第40号-44号、第46号-56号、第59号A、第59号B、第60号、第65号-68号、第70号-74号、第76号-78号、第79号A、第79号B、第80号、第82号-86号、第88号-89号","full_address":"广东省深圳市福田区南园街道沙埔头村东第40号-44号、第46号-56号、第59号A、第59号B、第60号、第65号-68号、第70号-74号、第76号-78号、第79号A、第79号B、第80号、第82号-86号、第88号-89号","info":""}},{"type":"Feature","geometry":{"type":"Point","coordinates":[114.05597,22.525379]},"properties":{"province":"广东省","city":"深圳市","county":"福田区","community":"福保街道明月社区天健阳光华苑A座","full_address":"广东省深圳市福田区福保街道明月社区天健阳光华苑A座","info":""}},{"type":"Feature","geometry":{"type":"Point","coordinates":[114.027091,22.525546]},"properties":{"province":"广东省","city":"深圳市","county":"福田区","community":"沙头街道下沙村三坊（高风险区除外）","full_address":"广东省深圳市福田区沙头街道下沙村三坊（高风险区除外）","info":""}},{"type":"Feature","geometry":{"type":"Point","coordinates":[113.951011,22.522271]},"properties":{"province":"广东省","city":"深圳市","county":"南山区","community":"粤海街道岸芷汀兰1栋","full_address":"广东省深圳市南山区粤海街道岸芷汀兰1栋","info":""}},{"type":"Feature","geometry":{"type":"Point","coordinates":[113.955786,22.583881]},"properties":{"province":"广东省","city":"深圳市","county":"南山区","community":"西丽街道九祥岭村西区第13、14A、14B、15、16、17栋，九祥岭村东区第89、90、91、97、98、99栋","full_address":"广东省深圳市南山区西丽街道九祥岭村西区第13、14A、14B、15、16、17栋，九祥岭村东区第89、90、91、97、98、99栋","info":""}},{"type":"Feature","geometry":{"type":"Point","coordinates":[113.956232,22.584516]},"properties":{"province":"广东省","city":"深圳市","county":"南山区","community":"西丽街道九祥岭村（除高风险区外）","full_address":"广东省深圳市南山区西丽街道九祥岭村（除高风险区外）","info":""}},{"type":"Feature","geometry":{"type":"Point","coordinates":[113.956991,22.584526]},"properties":{"province":"广东省","city":"深圳市","county":"南山区","community":"西丽街道九祥岭工业区1栋","full_address":"广东省深圳市南山区西丽街道九祥岭工业区1栋","info":""}},{"type":"Feature","geometry":{"type":"Point","coordinates":[113.957759,22.584511]},"properties":{"province":"广东省","city":"深圳市","county":"南山区","community":"西丽街道九祥岭工业区（除高风险区外）","full_address":"广东省深圳市南山区西丽街道九祥岭工业区（除高风险区外）","info":""}},{"type":"Feature","geometry":{"type":"Point","coordinates":[113.933114,22.52505]},"properties":{"province":"广东省","city":"深圳市","county":"南山区","community":"粤海街道锦隆花园锦晖阁A栋、锦云阁B栋","full_address":"广东省深圳市南山区粤海街道锦隆花园锦晖阁A栋、锦云阁B栋","info":""}},{"type":"Feature","geometry":{"type":"Point","coordinates":[113.969281,22.532188]},"properties":{"province":"广东省","city":"深圳市","county":"南山区","community":"沙河街道白石洲村（除高风险区外）","full_address":"广东省深圳市南山区沙河街道白石洲村（除高风险区外）","info":""}},{"type":"Feature","geometry":{"type":"Point","coordinates":[113.955295,22.559367]},"properties":{"province":"广东省","city":"深圳市","county":"南山区","community":"西丽街道松坪村三期西区","full_address":"广东省深圳市南山区西丽街道松坪村三期西区","info":""}},{"type":"Feature","geometry":{"type":"Point","coordinates":[113.936279,22.541708]},"properties":{"province":"广东省","city":"深圳市","county":"南山区","community":"粤海街道帝景园（除高风险区外）","full_address":"广东省深圳市南山区粤海街道帝景园（除高风险区外）","info":""}},{"type":"Feature","geometry":{"type":"Point","coordinates":[113.945963,22.556271]},"properties":{"province":"广东省","city":"深圳市","county":"南山区","community":"西丽街道科苑新区（除高风险区外）","full_address":"广东省深圳市南山区西丽街道科苑新区（除高风险区外）","info":""}},{"type":"Feature","geometry":{"type":"Point","coordinates":[113.839431,22.609018]},"properties":{"province":"广东省","city":"深圳市","county":"宝安区","community":"航城街道宝安大道-内环路-盛航路-机场外排渠围合区域（除高风险区外）","full_address":"广东省深圳市宝安区航城街道宝安大道-内环路-盛航路-机场外排渠围合区域（除高风险区外）","info":""}},{"type":"Feature","geometry":{"type":"Point","coordinates":[113.877791,22.56072]},"properties":{"province":"广东省","city":"深圳市","county":"宝安区","community":"新安街道海裕社区幸福海岸花园（8栋A、B、C座除外）","full_address":"广东省深圳市宝安区新安街道海裕社区幸福海岸花园（8栋A、B、C座除外）","info":""}},{"type":"Feature","geometry":{"type":"Point","coordinates":[113.834539,22.641435]},"properties":{"province":"广东省","city":"深圳市","county":"宝安区","community":"福永街道兴围社区怡丰酒店","full_address":"广东省深圳市宝安区福永街道兴围社区怡丰酒店","info":""}},{"type":"Feature","geometry":{"type":"Point","coordinates":[113.834871,22.638391]},"properties":{"province":"广东省","city":"深圳市","county":"宝安区","community":"航城街道后瑞社区瑞发路62号及周边24栋（以实际围合为准）","full_address":"广东省深圳市宝安区航城街道后瑞社区瑞发路62号及周边24栋（以实际围合为准）","info":""}},{"type":"Feature","geometry":{"type":"Point","coordinates":[114.112711,22.597267]},"properties":{"province":"广东省","city":"深圳市","county":"龙岗区","community":"布吉街道布吉社区百花一街东一巷至九巷（除高风险区外）","full_address":"广东省深圳市龙岗区布吉街道布吉社区百花一街东一巷至九巷（除高风险区外）","info":""}},{"type":"Feature","geometry":{"type":"Point","coordinates":[114.059401,22.660476]},"properties":{"province":"广东省","city":"深圳市","county":"龙岗区","community":"坂田街道坂田社区黄金山六巷、七巷（除高风险区外）","full_address":"广东省深圳市龙岗区坂田街道坂田社区黄金山六巷、七巷（除高风险区外）","info":""}},{"type":"Feature","geometry":{"type":"Point","coordinates":[114.183304,22.649844]},"properties":{"province":"广东省","city":"深圳市","county":"龙岗区","community":"横岗街道怡锦社区天颂雅苑（除高风险区外）","full_address":"广东省深圳市龙岗区横岗街道怡锦社区天颂雅苑（除高风险区外）","info":""}},{"type":"Feature","geometry":{"type":"Point","coordinates":[114.08095,22.651701]},"properties":{"province":"广东省","city":"深圳市","county":"龙岗区","community":"坂田街道新雪社区帝利花园、簕杜鹃幼儿园、下雪村后山（除高风险区外）","full_address":"广东省深圳市龙岗区坂田街道新雪社区帝利花园、簕杜鹃幼儿园、下雪村后山（除高风险区外）","info":""}},{"type":"Feature","geometry":{"type":"Point","coordinates":[114.06855,22.636686]},"properties":{"province":"广东省","city":"深圳市","county":"龙岗区","community":"坂田街道坂田社区吉华路532号、536号、538号、540号、542号楼栋，上围一巷8号、9号楼栋","full_address":"广东省深圳市龙岗区坂田街道坂田社区吉华路532号、536号、538号、540号、542号楼栋，上围一巷8号、9号楼栋","info":""}},{"type":"Feature","geometry":{"type":"Point","coordinates":[114.060152,22.639511]},"properties":{"province":"广东省","city":"深圳市","county":"龙岗区","community":"坂田街道五和大道以东—黄金山小区一巷以北（除黄金山幼儿园）—黄金山公园以西—坂兴路以南围合区域（除高风险区、山海商业广场、维也纳酒店五和地铁站店外）","full_address":"广东省深圳市龙岗区坂田街道五和大道以东—黄金山小区一巷以北（除黄金山幼儿园）—黄金山公园以西—坂兴路以南围合区域（除高风险区、山海商业广场、维也纳酒店五和地铁站店外）","info":""}},{"type":"Feature","geometry":{"type":"Point","coordinates":[114.395296,22.744061]},"properties":{"province":"广东省","city":"深圳市","county":"坪山区","community":"坑梓街道金沙社区长隆二区（除高风险区外）","full_address":"广东省深圳市坪山区坑梓街道金沙社区长隆二区（除高风险区外）","info":""}},{"type":"Feature","geometry":{"type":"Point","coordinates":[114.415368,22.628079]},"properties":{"province":"广东省","city":"深圳市","county":"大鹏新区","community":"葵涌街道海语山林小区（除高风险区外）","full_address":"广东省深圳市大鹏新区葵涌街道海语山林小区（除高风险区外）","info":""}},{"type":"Feature","geometry":{"type":"Point","coordinates":[113.591079,22.246229]},"properties":{"province":"广东省","city":"珠海市","county":"香洲区","community":"吉大街道九洲大道东1066号龙园8号","full_address":"广东省珠海市香洲区吉大街道九洲大道东1066号龙园8号","info":""}},{"type":"Feature","geometry":{"type":"Point","coordinates":[113.558298,22.22193]},"properties":{"province":"广东省","city":"珠海市","county":"香洲区","community":"拱北街道高沙中街108号","full_address":"广东省珠海市香洲区拱北街道高沙中街108号","info":""}},{"type":"Feature","geometry":{"type":"Point","coordinates":[113.557486,22.223501]},"properties":{"province":"广东省","city":"珠海市","county":"香洲区","community":"拱北街道高沙中街111号","full_address":"广东省珠海市香洲区拱北街道高沙中街111号","info":""}},{"type":"Feature","geometry":{"type":"Point","coordinates":[113.571103,22.252459]},"properties":{"province":"广东省","city":"珠海市","county":"香洲区","community":"吉大街道吉祥山庄1栋","full_address":"广东省珠海市香洲区吉大街道吉祥山庄1栋","info":""}},{"type":"Feature","geometry":{"type":"Point","coordinates":[113.129133,23.03541]},"properties":{"province":"广东省","city":"佛山市","county":"禅城区","community":"祖庙街道佛平路38号","full_address":"广东省佛山市禅城区祖庙街道佛平路38号","info":""}},{"type":"Feature","geometry":{"type":"Point","coordinates":[114.325949,22.806648]},"properties":{"province":"广东省","city":"惠州市","county":"惠阳区","community":"新圩镇牧云溪谷（高风险区除外）","full_address":"广东省惠州市惠阳区新圩镇牧云溪谷（高风险区除外）","info":""}},{"type":"Feature","geometry":{"type":"Point","coordinates":[113.867442,23.135038]},"properties":{"province":"广东省","city":"惠州市","county":"博罗县","community":"石湾镇一品中央小区为中心，北至建设中路、南至湖兴路、西至宏明西路中段、东至明月一路（高风险区除外）","full_address":"广东省惠州市博罗县石湾镇一品中央小区为中心，北至建设中路、南至湖兴路、西至宏明西路中段、东至明月一路（高风险区除外）","info":""}},{"type":"Feature","geometry":{"type":"Point","coordinates":[109.123351,21.468253]},"properties":{"province":"广西壮族自治区","city":"北海市","county":"海城区","community":"北海大道以东，新竹路以南，向海大道以北，银海区与海城区行政界线以西，合围之处","full_address":"广西壮族自治区北海市海城区北海大道以东，新竹路以南，向海大道以北，银海区与海城区行政界线以西，合围之处","info":""}},{"type":"Feature","geometry":{"type":"Point","coordinates":[109.123351,21.468253]},"properties":{"province":"广西壮族自治区","city":"北海市","county":"海城区","community":"向海大道以南，北海大道以西，平阳路以北，排水洪渠以东，合围之处","full_address":"广西壮族自治区北海市海城区向海大道以南，北海大道以西，平阳路以北，排水洪渠以东，合围之处","info":""}},{"type":"Feature","geometry":{"type":"Point","coordinates":[109.214531,21.477151]},"properties":{"province":"广西壮族自治区","city":"北海市","county":"海城区","community":"向海大道以南，海城区与银海区行政界线以西，规划天津路以北，北海大道以东，合围之处","full_address":"广西壮族自治区北海市海城区向海大道以南，海城区与银海区行政界线以西，规划天津路以北，北海大道以东，合围之处","info":""}},{"type":"Feature","geometry":{"type":"Point","coordinates":[109.161849,21.506445]},"properties":{"province":"广西壮族自治区","city":"北海市","county":"海城区","community":"向海大道以南，高德路以西，海岸线以东，高德三街以北，合围之处","full_address":"广西壮族自治区北海市海城区向海大道以南，高德路以西，海岸线以东，高德三街以北，合围之处","info":""}},{"type":"Feature","geometry":{"type":"Point","coordinates":[109.156184,21.493777]},"properties":{"province":"广西壮族自治区","city":"北海市","county":"海城区","community":"南珠大道以西，北部湾路以南，河南路以东，湖海路以北，合围之处","full_address":"广西壮族自治区北海市海城区南珠大道以西，北部湾路以南，河南路以东，湖海路以北，合围之处","info":""}},{"type":"Feature","geometry":{"type":"Point","coordinates":[109.147289,21.480756]},"properties":{"province":"广西壮族自治区","city":"北海市","county":"海城区","community":"南珠大道以西，北海大道以南，西南大道以南，河南路以东，上海路以东，铁路以北，合围之处","full_address":"广西壮族自治区北海市海城区南珠大道以西，北海大道以南，西南大道以南，河南路以东，上海路以东，铁路以北，合围之处","info":""}},{"type":"Feature","geometry":{"type":"Point","coordinates":[109.12753,21.486186]},"properties":{"province":"广西壮族自治区","city":"北海市","county":"海城区","community":"海岸线以南，上海路以东，北部湾路以北，茶亭路以北，德利海北海北边围墙以西，合围之处","full_address":"广西壮族自治区北海市海城区海岸线以南，上海路以东，北部湾路以北，茶亭路以北，德利海北海北边围墙以西，合围之处","info":""}},{"type":"Feature","geometry":{"type":"Point","coordinates":[109.146751,21.483797]},"properties":{"province":"广西壮族自治区","city":"北海市","county":"海城区","community":"广东路以东，海南路以南，深圳路以西，湖海路以北，合围之处","full_address":"广西壮族自治区北海市海城区广东路以东，海南路以南，深圳路以西，湖海路以北，合围之处","info":""}},{"type":"Feature","geometry":{"type":"Point","coordinates":[109.166287,21.473268]},"properties":{"province":"广西壮族自治区","city":"北海市","county":"海城区","community":"广东路以东，西南大道以北，北海大道以南，建材路以西，合围之处","full_address":"广西壮族自治区北海市海城区广东路以东，西南大道以北，北海大道以南，建材路以西，合围之处","info":""}},{"type":"Feature","geometry":{"type":"Point","coordinates":[109.156555,21.478396]},"properties":{"province":"广西壮族自治区","city":"北海市","county":"海城区","community":"四川路以东，重庆路以北，北京路以西，北海大道以南，合围之处","full_address":"广西壮族自治区北海市海城区四川路以东，重庆路以北，北京路以西，北海大道以南，合围之处","info":""}},{"type":"Feature","geometry":{"type":"Point","coordinates":[109.156555,21.478396]},"properties":{"province":"广西壮族自治区","city":"北海市","county":"海城区","community":"云南路以东，西南大道以北，贵州路以西，北海大道以南，合围之处","full_address":"广西壮族自治区北海市海城区云南路以东，西南大道以北，贵州路以西，北海大道以南，合围之处","info":""}},{"type":"Feature","geometry":{"type":"Point","coordinates":[109.090333,21.461762]},"properties":{"province":"广西壮族自治区","city":"北海市","county":"海城区","community":"北海大道（西延线）以东，成都路以南，西南大道以南，西藏路以西，铁路以北，合围之处","full_address":"广西壮族自治区北海市海城区北海大道（西延线）以东，成都路以南，西南大道以南，西藏路以西，铁路以北，合围之处","info":""}},{"type":"Feature","geometry":{"type":"Point","coordinates":[109.095002,21.471475]},"properties":{"province":"广西壮族自治区","city":"北海市","county":"海城区","community":"海角路以南，贵州路以西，北部湾路以北，独树根东路以东，合围之处","full_address":"广西壮族自治区北海市海城区海角路以南，贵州路以西，北部湾路以北，独树根东路以东，合围之处","info":""}},{"type":"Feature","geometry":{"type":"Point","coordinates":[109.100722,21.468873]},"properties":{"province":"广西壮族自治区","city":"北海市","county":"海城区","community":"北海大道以西，昆明路以南，北部湾西路以南，成都路以南，与海景大道合围之处（除新营社区朱屋村）","full_address":"广西壮族自治区北海市海城区北海大道以西，昆明路以南，北部湾西路以南，成都路以南，与海景大道合围之处（除新营社区朱屋村）","info":""}},{"type":"Feature","geometry":{"type":"Point","coordinates":[109.146957,21.488863]},"properties":{"province":"广西壮族自治区","city":"北海市","county":"海城区","community":"高德街道上海中路社区海语城小区（除6栋、11栋、17栋、19栋外）","full_address":"广西壮族自治区北海市海城区高德街道上海中路社区海语城小区（除6栋、11栋、17栋、19栋外）","info":""}},{"type":"Feature","geometry":{"type":"Point","coordinates":[109.119583,21.476333]},"properties":{"province":"广西壮族自治区","city":"北海市","county":"海城区","community":"中街街道公园路社区文明南路二至四巷（除二巷36号、38号、40号、三巷47号、49号、51号外）","full_address":"广西壮族自治区北海市海城区中街街道公园路社区文明南路二至四巷（除二巷36号、38号、40号、三巷47号、49号、51号外）","info":""}},{"type":"Feature","geometry":{"type":"Point","coordinates":[109.112708,21.48041]},"properties":{"province":"广西壮族自治区","city":"北海市","county":"海城区","community":"中街街道幸福里社区担水巷51号","full_address":"广西壮族自治区北海市海城区中街街道幸福里社区担水巷51号","info":""}},{"type":"Feature","geometry":{"type":"Point","coordinates":[109.151031,21.46956]},"properties":{"province":"广西壮族自治区","city":"北海市","county":"海城区","community":"驿马街道驿马村委会上海路园辉新都（除20栋外）","full_address":"广西壮族自治区北海市海城区驿马街道驿马村委会上海路园辉新都（除20栋外）","info":""}},{"type":"Feature","geometry":{"type":"Point","coordinates":[109.107518,21.474292]},"properties":{"province":"广西壮族自治区","city":"北海市","county":"海城区","community":"海角街道北部湾西社区三中东里2栋、4栋","full_address":"广西壮族自治区北海市海城区海角街道北部湾西社区三中东里2栋、4栋","info":""}},{"type":"Feature","geometry":{"type":"Point","coordinates":[109.129399,21.482326]},"properties":{"province":"广西壮族自治区","city":"北海市","county":"海城区","community":"东街街道政法路社区振业小区(除4栋外)","full_address":"广西壮族自治区北海市海城区东街街道政法路社区振业小区(除4栋外)","info":""}},{"type":"Feature","geometry":{"type":"Point","coordinates":[109.120748,21.454508]},"properties":{"province":"广西壮族自治区","city":"北海市","county":"海城区","community":"驿马街道白屋社区格林香海（除华林居5栋、怡海轩2A外）","full_address":"广西壮族自治区北海市海城区驿马街道白屋社区格林香海（除华林居5栋、怡海轩2A外）","info":""}},{"type":"Feature","geometry":{"type":"Point","coordinates":[109.145513,21.494473]},"properties":{"province":"广西壮族自治区","city":"北海市","county":"海城区","community":"高德街道上海北路社区星海湾花园（除帝海阁外）","full_address":"广西壮族自治区北海市海城区高德街道上海北路社区星海湾花园（除帝海阁外）","info":""}},{"type":"Feature","geometry":{"type":"Point","coordinates":[109.096265,21.475582]},"properties":{"province":"广西壮族自治区","city":"北海市","county":"海城区","community":"海角街道独树根西社区云南路碧海新城小区（除1栋外）","full_address":"广西壮族自治区北海市海城区海角街道独树根西社区云南路碧海新城小区（除1栋外）","info":""}},{"type":"Feature","geometry":{"type":"Point","coordinates":[109.123351,21.468253]},"properties":{"province":"广西壮族自治区","city":"北海市","county":"海城区","community":"中街街道塘仔里社区北海大道晏峰建材商城小区（除B栋外）","full_address":"广西壮族自治区北海市海城区中街街道塘仔里社区北海大道晏峰建材商城小区（除B栋外）","info":""}},{"type":"Feature","geometry":{"type":"Point","coordinates":[109.157267,21.496498]},"properties":{"province":"广西壮族自治区","city":"北海市","county":"海城区","community":"高德街道高农村委会新业花园（除4栋外）","full_address":"广西壮族自治区北海市海城区高德街道高农村委会新业花园（除4栋外）","info":""}},{"type":"Feature","geometry":{"type":"Point","coordinates":[109.130448,21.460987]},"properties":{"province":"广西壮族自治区","city":"北海市","county":"海城区","community":"驿马街道西塘社区源丰路29号大成公寓（除B栋外）","full_address":"广西壮族自治区北海市海城区驿马街道西塘社区源丰路29号大成公寓（除B栋外）","info":""}},{"type":"Feature","geometry":{"type":"Point","coordinates":[109.153203,21.418734]},"properties":{"province":"广西壮族自治区","city":"北海市","county":"银海区","community":"银滩镇北背岭回建区银新西二路21-28号、39-46号、57-63号","full_address":"广西壮族自治区北海市银海区银滩镇北背岭回建区银新西二路21-28号、39-46号、57-63号","info":""}},{"type":"Feature","geometry":{"type":"Point","coordinates":[109.198486,21.441105]},"properties":{"province":"广西壮族自治区","city":"北海市","county":"银海区","community":"银滩镇龙潭村委10队24号西面40米住宅楼周边约1000平方米","full_address":"广西壮族自治区北海市银海区银滩镇龙潭村委10队24号西面40米住宅楼周边约1000平方米","info":""}},{"type":"Feature","geometry":{"type":"Point","coordinates":[109.138122,21.448701]},"properties":{"province":"广西壮族自治区","city":"北海市","county":"银海区","community":"银滩镇和兴村委细垌村能远花园","full_address":"广西壮族自治区北海市银海区银滩镇和兴村委细垌村能远花园","info":""}},{"type":"Feature","geometry":{"type":"Point","coordinates":[109.126193,21.424733]},"properties":{"province":"广西壮族自治区","city":"北海市","county":"银海区","community":"侨港镇东区1-6栋","full_address":"广西壮族自治区北海市银海区侨港镇东区1-6栋","info":""}},{"type":"Feature","geometry":{"type":"Point","coordinates":[109.140259,21.443051]},"properties":{"province":"广西壮族自治区","city":"北海市","county":"银海区","community":"银滩镇新世纪大道以南、广东路以东、湘潭路以西、江苏路以北合围区（乾坤国际城、镒建世纪城）","full_address":"广西壮族自治区北海市银海区银滩镇新世纪大道以南、广东路以东、湘潭路以西、江苏路以北合围区（乾坤国际城、镒建世纪城）","info":""}},{"type":"Feature","geometry":{"type":"Point","coordinates":[109.555339,21.60135]},"properties":{"province":"广西壮族自治区","city":"北海市","county":"铁山港区","community":"赤江华侨陶器厂宿舍区","full_address":"广西壮族自治区北海市铁山港区赤江华侨陶器厂宿舍区","info":""}},{"type":"Feature","geometry":{"type":"Point","coordinates":[109.531243,21.504903]},"properties":{"province":"广西壮族自治区","city":"北海市","county":"铁山港区","community":"兴港镇彬定村委新村坡村","full_address":"广西壮族自治区北海市铁山港区兴港镇彬定村委新村坡村","info":""}},{"type":"Feature","geometry":{"type":"Point","coordinates":[109.161566,21.591607]},"properties":{"province":"广西壮族自治区","city":"北海市","county":"合浦县","community":"廉州镇马安村遂南南队","full_address":"广西壮族自治区北海市合浦县廉州镇马安村遂南南队","info":""}},{"type":"Feature","geometry":{"type":"Point","coordinates":[110.324279,19.698294]},"properties":{"province":"海南省","city":"省直辖县级行政单位","county":"定安县","community":"定城镇文体路24号百盛精品超市及其所在楼栋","full_address":"海南省省直辖县级行政单位定安县定城镇文体路24号百盛精品超市及其所在楼栋","info":""}},{"type":"Feature","geometry":{"type":"Point","coordinates":[110.371815,19.676858]},"properties":{"province":"海南省","city":"省直辖县级行政单位","county":"定安县","community":"定城镇定仙路54号仙沟卫生院","full_address":"海南省省直辖县级行政单位定安县定城镇定仙路54号仙沟卫生院","info":""}},{"type":"Feature","geometry":{"type":"Point","coordinates":[106.241983,29.257594]},"properties":{"province":"重庆市","city":"重庆市","county":"江津区","community":"德感街道御江山浔院小区","full_address":"重庆市重庆市江津区德感街道御江山浔院小区","info":""}},{"type":"Feature","geometry":{"type":"Point","coordinates":[106.271952,29.412988]},"properties":{"province":"重庆市","city":"重庆市","county":"江津区","community":"双福街道全域（除高风险区外）","full_address":"重庆市重庆市江津区双福街道全域（除高风险区外）","info":""}},{"type":"Feature","geometry":{"type":"Point","coordinates":[106.932317,28.961628]},"properties":{"province":"重庆市","city":"重庆市","county":"万盛经开区","community":"芙蓉丽苑2、3单元","full_address":"重庆市重庆市万盛经开区芙蓉丽苑2、3单元","info":""}},{"type":"Feature","geometry":{"type":"Point","coordinates":[106.929373,28.948869]},"properties":{"province":"重庆市","city":"重庆市","county":"万盛经开区","community":"煤苑小区9栋2单元","full_address":"重庆市重庆市万盛经开区煤苑小区9栋2单元","info":""}},{"type":"Feature","geometry":{"type":"Point","coordinates":[106.929373,28.948869]},"properties":{"province":"重庆市","city":"重庆市","county":"万盛经开区","community":"芙蓉丽苑小区外芙蓉副食店","full_address":"重庆市重庆市万盛经开区芙蓉丽苑小区外芙蓉副食店","info":""}},{"type":"Feature","geometry":{"type":"Point","coordinates":[106.929373,28.948869]},"properties":{"province":"重庆市","city":"重庆市","county":"万盛经开区","community":"南天门小商店","full_address":"重庆市重庆市万盛经开区南天门小商店","info":""}},{"type":"Feature","geometry":{"type":"Point","coordinates":[106.929373,28.948869]},"properties":{"province":"重庆市","city":"重庆市","county":"万盛经开区","community":"万盛桃子加油站超市","full_address":"重庆市重庆市万盛经开区万盛桃子加油站超市","info":""}},{"type":"Feature","geometry":{"type":"Point","coordinates":[104.093341,30.636752]},"properties":{"province":"四川省","city":"成都市","county":"锦江区","community":"牛市口街道南府锦1栋（莲桂西路170号）","full_address":"四川省成都市锦江区牛市口街道南府锦1栋（莲桂西路170号）","info":""}},{"type":"Feature","geometry":{"type":"Point","coordinates":[104.082434,30.65157]},"properties":{"province":"四川省","city":"成都市","county":"锦江区","community":"锦官驿街道南糠市街48号大院2栋，包括楼栋底层商户","full_address":"四川省成都市锦江区锦官驿街道南糠市街48号大院2栋，包括楼栋底层商户","info":""}},{"type":"Feature","geometry":{"type":"Point","coordinates":[104.073407,30.649947]},"properties":{"province":"四川省","city":"成都市","county":"锦江区","community":"督院街道锦兴路前卫街12号昆仑华庭","full_address":"四川省成都市锦江区督院街道锦兴路前卫街12号昆仑华庭","info":""}},{"type":"Feature","geometry":{"type":"Point","coordinates":[104.103625,30.644821]},"properties":{"province":"四川省","city":"成都市","county":"锦江区","community":"牛市口街道大田坎街162号蜀都花园除22栋以外的其他区域（含底商）","full_address":"四川省成都市锦江区牛市口街道大田坎街162号蜀都花园除22栋以外的其他区域（含底商）","info":""}},{"type":"Feature","geometry":{"type":"Point","coordinates":[104.103302,30.637629]},"properties":{"province":"四川省","city":"成都市","county":"锦江区","community":"牛市口街道海椒市东街43号东方桂苑1—6栋（含底商）","full_address":"四川省成都市锦江区牛市口街道海椒市东街43号东方桂苑1—6栋（含底商）","info":""}},{"type":"Feature","geometry":{"type":"Point","coordinates":[104.094152,30.640888]},"properties":{"province":"四川省","city":"成都市","county":"锦江区","community":"牛市口街道宏济新路488号晶蓝半岛A区1、2栋，包括楼栋底层商户","full_address":"四川省成都市锦江区牛市口街道宏济新路488号晶蓝半岛A区1、2栋，包括楼栋底层商户","info":""}},{"type":"Feature","geometry":{"type":"Point","coordinates":[104.021213,30.655452]},"properties":{"province":"四川省","city":"成都市","county":"青羊区","community":"光华街道怡馨花园5栋（二环路西一段89号）","full_address":"四川省成都市青羊区光华街道怡馨花园5栋（二环路西一段89号）","info":""}},{"type":"Feature","geometry":{"type":"Point","coordinates":[104.047417,30.662667]},"properties":{"province":"四川省","city":"成都市","county":"青羊区","community":"草堂街道十二桥路14号附1号、16号附2号4-9栋","full_address":"四川省成都市青羊区草堂街道十二桥路14号附1号、16号附2号4-9栋","info":""}},{"type":"Feature","geometry":{"type":"Point","coordinates":[104.022931,30.680616]},"properties":{"province":"四川省","city":"成都市","county":"青羊区","community":"府南街道双清巷18号清水绿苑1、2栋","full_address":"四川省成都市青羊区府南街道双清巷18号清水绿苑1、2栋","info":""}},{"type":"Feature","geometry":{"type":"Point","coordinates":[104.022834,30.678022]},"properties":{"province":"四川省","city":"成都市","county":"青羊区","community":"府南街道清溪南街20号院10栋（清溪南街20号）","full_address":"四川省成都市青羊区府南街道清溪南街20号院10栋（清溪南街20号）","info":""}},{"type":"Feature","geometry":{"type":"Point","coordinates":[104.082247,30.669703]},"properties":{"province":"四川省","city":"成都市","county":"青羊区","community":"草市街道东通顺街26号院3栋（东通顺街26号）","full_address":"四川省成都市青羊区草市街道东通顺街26号院3栋（东通顺街26号）","info":""}},{"type":"Feature","geometry":{"type":"Point","coordinates":[103.97016,30.677091]},"properties":{"province":"四川省","city":"成都市","county":"青羊区","community":"黄田坝街道清江美庐1-6、8-10栋（万花一路301号）","full_address":"四川省成都市青羊区黄田坝街道清江美庐1-6、8-10栋（万花一路301号）","info":""}},{"type":"Feature","geometry":{"type":"Point","coordinates":[104.031754,30.700094]},"properties":{"province":"四川省","city":"成都市","county":"金牛区","community":"营门口街道首开龙湖紫宸小区（一期）3栋（花照壁西顺街198号）","full_address":"四川省成都市金牛区营门口街道首开龙湖紫宸小区（一期）3栋（花照壁西顺街198号）","info":""}},{"type":"Feature","geometry":{"type":"Point","coordinates":[104.118168,30.7751]},"properties":{"province":"四川省","city":"成都市","county":"金牛区","community":"天回镇街道“金华寺西路——毗河——马觉寺路——金华寺南路——天宝路西北段——金芙蓉大道一段辅路——金华寺西路”合围区域中，除去高风险区域的其他区域","full_address":"四川省成都市金牛区天回镇街道“金华寺西路——毗河——马觉寺路——金华寺南路——天宝路西北段——金芙蓉大道一段辅路——金华寺西路”合围区域中，除去高风险区域的其他区域","info":""}},{"type":"Feature","geometry":{"type":"Point","coordinates":[104.087382,30.683714]},"properties":{"province":"四川省","city":"成都市","county":"金牛区","community":"驷马桥街道府青路1段36号大院除38栋外，其余楼栋划为中风险区","full_address":"四川省成都市金牛区驷马桥街道府青路1段36号大院除38栋外，其余楼栋划为中风险区","info":""}},{"type":"Feature","geometry":{"type":"Point","coordinates":[104.087216,30.675557]},"properties":{"province":"四川省","city":"成都市","county":"金牛区","community":"驷马桥街道马鞍东路19号蜀涛苑一栋、二栋","full_address":"四川省成都市金牛区驷马桥街道马鞍东路19号蜀涛苑一栋、二栋","info":""}},{"type":"Feature","geometry":{"type":"Point","coordinates":[104.116833,30.763275]},"properties":{"province":"四川省","city":"成都市","county":"金牛区","community":"天回镇街道明月村五组除高风险区以外的区域","full_address":"四川省成都市金牛区天回镇街道明月村五组除高风险区以外的区域","info":""}},{"type":"Feature","geometry":{"type":"Point","coordinates":[104.089241,30.638268]},"properties":{"province":"四川省","city":"成都市","county":"武侯区","community":"望江路街道中海格林威治城 2 栋、熙美本色医疗美容(望江路1号)","full_address":"四川省成都市武侯区望江路街道中海格林威治城 2 栋、熙美本色医疗美容(望江路1号)","info":""}},{"type":"Feature","geometry":{"type":"Point","coordinates":[104.044666,30.638378]},"properties":{"province":"四川省","city":"成都市","county":"武侯区","community":"浆洗街街道一环路南四段28号小区1栋","full_address":"四川省成都市武侯区浆洗街街道一环路南四段28号小区1栋","info":""}},{"type":"Feature","geometry":{"type":"Point","coordinates":[104.082266,30.642196]},"properties":{"province":"四川省","city":"成都市","county":"武侯区","community":"望江路街道江天路1号院1-2栋","full_address":"四川省成都市武侯区望江路街道江天路1号院1-2栋","info":""}},{"type":"Feature","geometry":{"type":"Point","coordinates":[104.059844,30.630172]},"properties":{"province":"四川省","city":"成都市","county":"武侯区","community":"玉林街道玉林北街70号1-2栋","full_address":"四川省成都市武侯区玉林街道玉林北街70号1-2栋","info":""}},{"type":"Feature","geometry":{"type":"Point","coordinates":[104.078236,30.642304]},"properties":{"province":"四川省","city":"成都市","county":"武侯区","community":"望江路街道锦宏骏苑北区1-3栋（龙江路19号）","full_address":"四川省成都市武侯区望江路街道锦宏骏苑北区1-3栋（龙江路19号）","info":""}},{"type":"Feature","geometry":{"type":"Point","coordinates":[104.16826,30.698508]},"properties":{"province":"四川省","city":"成都市","county":"成华区","community":"金科天籁城2栋（成都市成华区龙港路36号），包括楼栋底层商户","full_address":"四川省成都市成华区金科天籁城2栋（成都市成华区龙港路36号），包括楼栋底层商户","info":""}},{"type":"Feature","geometry":{"type":"Point","coordinates":[104.115333,30.662868]},"properties":{"province":"四川省","city":"成都市","county":"成华区","community":"海棠名居5栋、6栋、7栋、8栋(成都市杉板桥路52号) ,包括楼栋底层商户","full_address":"四川省成都市成华区海棠名居5栋、6栋、7栋、8栋(成都市杉板桥路52号) ,包括楼栋底层商户","info":""}},{"type":"Feature","geometry":{"type":"Point","coordinates":[104.118717,30.679191]},"properties":{"province":"四川省","city":"成都市","county":"成华区","community":"府青路街道关家苑1栋（二仙桥桃竹路关家小区），包括楼栋底层商户","full_address":"四川省成都市成华区府青路街道关家苑1栋（二仙桥桃竹路关家小区），包括楼栋底层商户","info":""}},{"type":"Feature","geometry":{"type":"Point","coordinates":[104.181507,30.695736]},"properties":{"province":"四川省","city":"成都市","county":"成华区","community":"龙潭街道水乡嘉苑1-3栋、5-15栋（华裕路9号），包括楼栋底层商户","full_address":"四川省成都市成华区龙潭街道水乡嘉苑1-3栋、5-15栋（华裕路9号），包括楼栋底层商户","info":""}},{"type":"Feature","geometry":{"type":"Point","coordinates":[104.181858,30.694966]},"properties":{"province":"四川省","city":"成都市","county":"成华区","community":"龙潭工业园区安置房5期1-8栋、10栋（华裕路26号），包括楼栋底层商户","full_address":"四川省成都市成华区龙潭工业园区安置房5期1-8栋、10栋（华裕路26号），包括楼栋底层商户","info":""}},{"type":"Feature","geometry":{"type":"Point","coordinates":[104.123008,30.654221]},"properties":{"province":"四川省","city":"成都市","county":"成华区","community":"万年场街道联合四组1-15栋、17栋、19-21栋","full_address":"四川省成都市成华区万年场街道联合四组1-15栋、17栋、19-21栋","info":""}},{"type":"Feature","geometry":{"type":"Point","coordinates":[104.11049,30.725632]},"properties":{"province":"四川省","city":"成都市","county":"成华区","community":"熊猫大道壹号院1栋、7栋、12栋、13栋、17栋、18栋、21-25栋，社区党群服务中心（熊猫大道11号）","full_address":"四川省成都市成华区熊猫大道壹号院1栋、7栋、12栋、13栋、17栋、18栋、21-25栋，社区党群服务中心（熊猫大道11号）","info":""}},{"type":"Feature","geometry":{"type":"Point","coordinates":[104.113416,30.67579]},"properties":{"province":"四川省","city":"成都市","county":"成华区","community":"跳蹬河街道新禧苑1-5栋、8-10栋（建设北路三段10号），包括楼栋底层商户","full_address":"四川省成都市成华区跳蹬河街道新禧苑1-5栋、8-10栋（建设北路三段10号），包括楼栋底层商户","info":""}},{"type":"Feature","geometry":{"type":"Point","coordinates":[104.124,30.671546]},"properties":{"province":"四川省","city":"成都市","county":"成华区","community":"跳蹬河街道红枫岭1期2栋、3栋、4栋、5栋（建设南路98号），包括楼栋底层商户","full_address":"四川省成都市成华区跳蹬河街道红枫岭1期2栋、3栋、4栋、5栋（建设南路98号），包括楼栋底层商户","info":""}},{"type":"Feature","geometry":{"type":"Point","coordinates":[104.101533,30.679358]},"properties":{"province":"四川省","city":"成都市","county":"成华区","community":"猛追湾街道建设北路二段5号附1号1-3栋、30-34栋、36栋，包括楼栋底层商户","full_address":"四川省成都市成华区猛追湾街道建设北路二段5号附1号1-3栋、30-34栋、36栋，包括楼栋底层商户","info":""}},{"type":"Feature","geometry":{"type":"Point","coordinates":[104.156841,30.702919]},"properties":{"province":"四川省","city":"成都市","county":"成华区","community":"龙潭街道平祥雅居1栋、2栋、4栋（龙瑞一路1号）","full_address":"四川省成都市成华区龙潭街道平祥雅居1栋、2栋、4栋（龙瑞一路1号）","info":""}},{"type":"Feature","geometry":{"type":"Point","coordinates":[104.117597,30.680763]},"properties":{"province":"四川省","city":"成都市","county":"成华区","community":"府青路街道祥和苑1-5栋、7-8栋(文德路231号)","full_address":"四川省成都市成华区府青路街道祥和苑1-5栋、7-8栋(文德路231号)","info":""}},{"type":"Feature","geometry":{"type":"Point","coordinates":[104.110349,30.674895]},"properties":{"province":"四川省","city":"成都市","county":"成华区","community":"跳蹬河街道龙湖三千城1期1-2栋、4-5栋","full_address":"四川省成都市成华区跳蹬河街道龙湖三千城1期1-2栋、4-5栋","info":""}},{"type":"Feature","geometry":{"type":"Point","coordinates":[104.160595,30.674292]},"properties":{"province":"四川省","city":"成都市","county":"成华区","community":"龙潭街道丛树家园2-9栋，包括楼栋底层商户","full_address":"四川省成都市成华区龙潭街道丛树家园2-9栋，包括楼栋底层商户","info":""}},{"type":"Feature","geometry":{"type":"Point","coordinates":[104.157282,30.617553]},"properties":{"province":"四川省","city":"成都市","county":"龙泉驿区","community":"桃花源别墅27区11栋和12栋（龙泉驿区东洪路416号217栋和东洪路416号218栋)","full_address":"四川省成都市龙泉驿区桃花源别墅27区11栋和12栋（龙泉驿区东洪路416号217栋和东洪路416号218栋)","info":""}},{"type":"Feature","geometry":{"type":"Point","coordinates":[104.311147,30.618263]},"properties":{"province":"四川省","city":"成都市","county":"龙泉驿区","community":"同安街道丽阳路208号丽阳社区D区14栋和15栋（含底商）","full_address":"四川省成都市龙泉驿区同安街道丽阳路208号丽阳社区D区14栋和15栋（含底商）","info":""}},{"type":"Feature","geometry":{"type":"Point","coordinates":[104.272035,30.666583]},"properties":{"province":"四川省","city":"成都市","county":"龙泉驿区","community":"洪安镇长伍村二组石院坝","full_address":"四川省成都市龙泉驿区洪安镇长伍村二组石院坝","info":""}},{"type":"Feature","geometry":{"type":"Point","coordinates":[104.274632,30.556507]},"properties":{"province":"四川省","city":"成都市","county":"龙泉驿区","community":"东安街道吾悦华府2栋、3栋、4栋、5栋、6栋、8栋、9栋、10栋（含底商）","full_address":"四川省成都市龙泉驿区东安街道吾悦华府2栋、3栋、4栋、5栋、6栋、8栋、9栋、10栋（含底商）","info":""}},{"type":"Feature","geometry":{"type":"Point","coordinates":[104.249444,30.643198]},"properties":{"province":"四川省","city":"成都市","county":"龙泉驿区","community":"西河街道黄泥堰路577号馨竹苑1栋、2栋、3栋、4栋、6栋、7栋和8栋（含底商）","full_address":"四川省成都市龙泉驿区西河街道黄泥堰路577号馨竹苑1栋、2栋、3栋、4栋、6栋、7栋和8栋（含底商）","info":""}},{"type":"Feature","geometry":{"type":"Point","coordinates":[104.271161,30.570099]},"properties":{"province":"四川省","city":"成都市","county":"龙泉驿区","community":"龙泉街道文豪世苑1栋和3栋（含底商）","full_address":"四川省成都市龙泉驿区龙泉街道文豪世苑1栋和3栋（含底商）","info":""}},{"type":"Feature","geometry":{"type":"Point","coordinates":[104.170397,30.569057]},"properties":{"province":"四川省","city":"成都市","county":"龙泉驿区","community":"大面街道车城西五路99号金茂悦龙山小区1栋、2栋、3栋、4栋、5栋、6栋、7栋、8栋、10栋、11栋、12栋和13栋（含底商）","full_address":"四川省成都市龙泉驿区大面街道车城西五路99号金茂悦龙山小区1栋、2栋、3栋、4栋、5栋、6栋、7栋、8栋、10栋、11栋、12栋和13栋（含底商）","info":""}},{"type":"Feature","geometry":{"type":"Point","coordinates":[104.185866,30.661458]},"properties":{"province":"四川省","city":"成都市","county":"龙泉驿区","community":"十陵街道来龙村江华路306号楼（含底商）","full_address":"四川省成都市龙泉驿区十陵街道来龙村江华路306号楼（含底商）","info":""}},{"type":"Feature","geometry":{"type":"Point","coordinates":[104.244919,30.534204]},"properties":{"province":"四川省","city":"成都市","county":"龙泉驿区","community":"柏合街道黎明社区鲸龙路926号黎明小区1栋、3- 24 栋（含底商）","full_address":"四川省成都市龙泉驿区柏合街道黎明社区鲸龙路926号黎明小区1栋、3- 24 栋（含底商）","info":""}},{"type":"Feature","geometry":{"type":"Point","coordinates":[104.259538,30.574599]},"properties":{"province":"四川省","city":"成都市","county":"龙泉驿区","community":"龙泉街道双龙路488号怡和新城E1区除8栋以外的其他区域和E4区28栋（含底商）","full_address":"四川省成都市龙泉驿区龙泉街道双龙路488号怡和新城E1区除8栋以外的其他区域和E4区28栋（含底商）","info":""}},{"type":"Feature","geometry":{"type":"Point","coordinates":[104.193334,30.566071]},"properties":{"province":"四川省","city":"成都市","county":"龙泉驿区","community":"大面街道龙城大道816号中国电建云立方小区1-8、10-11、13-16栋（含底商）","full_address":"四川省成都市龙泉驿区大面街道龙城大道816号中国电建云立方小区1-8、10-11、13-16栋（含底商）","info":""}},{"type":"Feature","geometry":{"type":"Point","coordinates":[104.279192,30.569024]},"properties":{"province":"四川省","city":"成都市","county":"龙泉驿区","community":"龙泉街道文景街218号名景花园除2栋以外的其他区域（含底商）","full_address":"四川省成都市龙泉驿区龙泉街道文景街218号名景花园除2栋以外的其他区域（含底商）","info":""}},{"type":"Feature","geometry":{"type":"Point","coordinates":[104.166639,30.620622]},"properties":{"province":"四川省","city":"成都市","county":"龙泉驿区","community":"大面街道蒲草路1688号五星嘉园小区除2栋以外的其他区域（含底商）","full_address":"四川省成都市龙泉驿区大面街道蒲草路1688号五星嘉园小区除2栋以外的其他区域（含底商）","info":""}},{"type":"Feature","geometry":{"type":"Point","coordinates":[104.253037,30.537578]},"properties":{"province":"四川省","city":"成都市","county":"龙泉驿区","community":"柏合街道鲸龙路777号东山领地1-3栋、5-6栋、8栋、东山领地一期旁长远二组自建点（含底商）","full_address":"四川省成都市龙泉驿区柏合街道鲸龙路777号东山领地1-3栋、5-6栋、8栋、东山领地一期旁长远二组自建点（含底商）","info":""}},{"type":"Feature","geometry":{"type":"Point","coordinates":[104.229408,30.536992]},"properties":{"province":"四川省","city":"成都市","county":"龙泉驿区","community":"经开区南二路35号成都天屹生物科技有限公司、龙泉驿区经开区南二路33号成都市龙泉密封脂厂、龙泉驿区经开区南二路31号香港艾乐集团成都工业园、龙泉驿区经开区南二路25号中国电建、龙泉驿区经开区南二路19号成都市龙泉黎明非标制造有限公司、龙泉驿区柏合街道车城东五路133号四川万汇票证印务有限公司、龙泉驿区柏合街道车城东五路333号四川海岸电子开发有限公司、龙泉驿区柏合街道车城东五路145号成都新亿诺电器有限公司、龙泉驿区柏合街道车城东五路143号成都润信实业有限公司","full_address":"四川省成都市龙泉驿区经开区南二路35号成都天屹生物科技有限公司、龙泉驿区经开区南二路33号成都市龙泉密封脂厂、龙泉驿区经开区南二路31号香港艾乐集团成都工业园、龙泉驿区经开区南二路25号中国电建、龙泉驿区经开区南二路19号成都市龙泉黎明非标制造有限公司、龙泉驿区柏合街道车城东五路133号四川万汇票证印务有限公司、龙泉驿区柏合街道车城东五路333号四川海岸电子开发有限公司、龙泉驿区柏合街道车城东五路145号成都新亿诺电器有限公司、龙泉驿区柏合街道车城东五路143号成都润信实业有限公司","info":""}},{"type":"Feature","geometry":{"type":"Point","coordinates":[104.262197,30.572626]},"properties":{"province":"四川省","city":"成都市","county":"龙泉驿区","community":"龙泉街道双龙路388号怡和新城F2区9-12栋、14-15栋（含底商)","full_address":"四川省成都市龙泉驿区龙泉街道双龙路388号怡和新城F2区9-12栋、14-15栋（含底商)","info":""}},{"type":"Feature","geometry":{"type":"Point","coordinates":[104.27325,30.570628]},"properties":{"province":"四川省","city":"成都市","county":"龙泉驿区","community":"龙泉街道龙都南路756号金色逸景小区1-3栋（含底商)和5-9栋","full_address":"四川省成都市龙泉驿区龙泉街道龙都南路756号金色逸景小区1-3栋（含底商)和5-9栋","info":""}},{"type":"Feature","geometry":{"type":"Point","coordinates":[104.235509,30.571564]},"properties":{"province":"四川省","city":"成都市","county":"龙泉驿区","community":"驿都城二期7栋，包括楼栋底层商户（龙泉驿区大连北路199号）","full_address":"四川省成都市龙泉驿区驿都城二期7栋，包括楼栋底层商户（龙泉驿区大连北路199号）","info":""}},{"type":"Feature","geometry":{"type":"Point","coordinates":[104.267355,30.548974]},"properties":{"province":"四川省","city":"成都市","county":"龙泉驿区","community":"龙泉街道星光东路400号格兰玺城1栋、3-7栋","full_address":"四川省成都市龙泉驿区龙泉街道星光东路400号格兰玺城1栋、3-7栋","info":""}},{"type":"Feature","geometry":{"type":"Point","coordinates":[104.248111,30.569995]},"properties":{"province":"四川省","city":"成都市","county":"龙泉驿区","community":"龙泉街道怡和新居1期1-16栋、18栋","full_address":"四川省成都市龙泉驿区龙泉街道怡和新居1期1-16栋、18栋","info":""}},{"type":"Feature","geometry":{"type":"Point","coordinates":[104.260632,30.563797]},"properties":{"province":"四川省","city":"成都市","county":"龙泉驿区","community":"龙泉街道北泉路41号鑫园小区2栋","full_address":"四川省成都市龙泉驿区龙泉街道北泉路41号鑫园小区2栋","info":""}},{"type":"Feature","geometry":{"type":"Point","coordinates":[104.26174,30.566513]},"properties":{"province":"四川省","city":"成都市","county":"龙泉驿区","community":"龙泉街道卧龙街46号瑞丰苑1栋、3-6栋","full_address":"四川省成都市龙泉驿区龙泉街道卧龙街46号瑞丰苑1栋、3-6栋","info":""}},{"type":"Feature","geometry":{"type":"Point","coordinates":[104.069235,30.77298]},"properties":{"province":"四川省","city":"成都市","county":"新都区","community":"敬城路501号圣采泊尚17栋、18栋","full_address":"四川省成都市新都区敬城路501号圣采泊尚17栋、18栋","info":""}},{"type":"Feature","geometry":{"type":"Point","coordinates":[104.089461,30.755348]},"properties":{"province":"四川省","city":"成都市","county":"新都区","community":"甫家一路东段718号钰邸华府除2栋外的其他楼栋（含底层商铺）","full_address":"四川省成都市新都区甫家一路东段718号钰邸华府除2栋外的其他楼栋（含底层商铺）","info":""}},{"type":"Feature","geometry":{"type":"Point","coordinates":[104.120795,30.767796]},"properties":{"province":"四川省","city":"成都市","county":"新都区","community":"蓉都大道天河路天府江南A区除13栋（含底层商铺）外的其他楼栋（含底层商铺）","full_address":"四川省成都市新都区蓉都大道天河路天府江南A区除13栋（含底层商铺）外的其他楼栋（含底层商铺）","info":""}},{"type":"Feature","geometry":{"type":"Point","coordinates":[104.122805,30.76791]},"properties":{"province":"四川省","city":"成都市","county":"新都区","community":"蓉都大道天河路天府江南除B区2栋（含底层商铺）外的其他楼栋（含底层商铺）、天海商业广场","full_address":"四川省成都市新都区蓉都大道天河路天府江南除B区2栋（含底层商铺）外的其他楼栋（含底层商铺）、天海商业广场","info":""}},{"type":"Feature","geometry":{"type":"Point","coordinates":[104.120653,30.767592]},"properties":{"province":"四川省","city":"成都市","county":"新都区","community":"蓉都大道天河路天府江南C区18栋（含底层商铺）外的其他楼栋（含底层商铺）、吉利安大厦及周边商铺","full_address":"四川省成都市新都区蓉都大道天河路天府江南C区18栋（含底层商铺）外的其他楼栋（含底层商铺）、吉利安大厦及周边商铺","info":""}},{"type":"Feature","geometry":{"type":"Point","coordinates":[104.171743,30.78188]},"properties":{"province":"四川省","city":"成都市","county":"新都区","community":"育英路与绕城大道南一段交汇处东侧润扬▪观澜鹭岛一期除7栋外的其他楼栋（含底层商铺）","full_address":"四川省成都市新都区育英路与绕城大道南一段交汇处东侧润扬▪观澜鹭岛一期除7栋外的其他楼栋（含底层商铺）","info":""}},{"type":"Feature","geometry":{"type":"Point","coordinates":[104.059072,30.57311]},"properties":{"province":"四川省","city":"成都市","county":"高新区","community":"石羊街道南苑B区6栋（高新区锦城大道825号）","full_address":"四川省成都市高新区石羊街道南苑B区6栋（高新区锦城大道825号）","info":""}},{"type":"Feature","geometry":{"type":"Point","coordinates":[103.880462,30.59681]},"properties":{"province":"四川省","city":"成都市","county":"高新区","community":"桂溪街道复地金融岛小区1-4、6-18栋（高新区环岛路1200号）","full_address":"四川省成都市高新区桂溪街道复地金融岛小区1-4、6-18栋（高新区环岛路1200号）","info":""}},{"type":"Feature","geometry":{"type":"Point","coordinates":[103.372863,29.90489]},"properties":{"province":"四川省","city":"眉山市","county":"洪雅县","community":"七里坪镇度假区D区除17、20栋以外的其他楼栋，E1区除12栋以外的其他楼栋，F2区除南区1、5栋以外的其他楼栋，云庭酒店、康栖合院养生度假酒店，F3区除16、18、32栋以外的其他楼栋，F4区除25、35栋以外的其他楼栋，F5区除13栋以外的其他楼栋","full_address":"四川省眉山市洪雅县七里坪镇度假区D区除17、20栋以外的其他楼栋，E1区除12栋以外的其他楼栋，F2区除南区1、5栋以外的其他楼栋，云庭酒店、康栖合院养生度假酒店，F3区除16、18、32栋以外的其他楼栋，F4区除25、35栋以外的其他楼栋，F5区除13栋以外的其他楼栋","info":""}},{"type":"Feature","geometry":{"type":"Point","coordinates":[103.833548,36.036222]},"properties":{"province":"甘肃省","city":"兰州市","county":"城关区","community":"五泉街道和平新村19号火电公司家属院","full_address":"甘肃省兰州市城关区五泉街道和平新村19号火电公司家属院","info":""}},{"type":"Feature","geometry":{"type":"Point","coordinates":[103.831882,36.068211]},"properties":{"province":"甘肃省","city":"兰州市","county":"城关区","community":"草场街街道3512西大院63号楼","full_address":"甘肃省兰州市城关区草场街街道3512西大院63号楼","info":""}},{"type":"Feature","geometry":{"type":"Point","coordinates":[103.826183,36.039374]},"properties":{"province":"甘肃省","city":"兰州市","county":"城关区","community":"五泉街道五泉南路117号","full_address":"甘肃省兰州市城关区五泉街道五泉南路117号","info":""}},{"type":"Feature","geometry":{"type":"Point","coordinates":[103.877534,36.042784]},"properties":{"province":"甘肃省","city":"兰州市","county":"城关区","community":"嘉峪关路街道东瓯世贸广场","full_address":"甘肃省兰州市城关区嘉峪关路街道东瓯世贸广场","info":""}},{"type":"Feature","geometry":{"type":"Point","coordinates":[103.830717,36.077142]},"properties":{"province":"甘肃省","city":"兰州市","county":"城关区","community":"草场街街道香榭丽花园东南区","full_address":"甘肃省兰州市城关区草场街街道香榭丽花园东南区","info":""}},{"type":"Feature","geometry":{"type":"Point","coordinates":[103.881281,36.037774]},"properties":{"province":"甘肃省","city":"兰州市","county":"城关区","community":"嘉峪关路街道东岗家园","full_address":"甘肃省兰州市城关区嘉峪关路街道东岗家园","info":""}},{"type":"Feature","geometry":{"type":"Point","coordinates":[103.829484,36.043167]},"properties":{"province":"甘肃省","city":"兰州市","county":"城关区","community":"五泉街道安澜小区","full_address":"甘肃省兰州市城关区五泉街道安澜小区","info":""}},{"type":"Feature","geometry":{"type":"Point","coordinates":[103.83126,36.044423]},"properties":{"province":"甘肃省","city":"兰州市","county":"城关区","community":"五泉街道大公大厦","full_address":"甘肃省兰州市城关区五泉街道大公大厦","info":""}},{"type":"Feature","geometry":{"type":"Point","coordinates":[103.865384,36.048049]},"properties":{"province":"甘肃省","city":"兰州市","county":"城关区","community":"渭源路街道广电小区","full_address":"甘肃省兰州市城关区渭源路街道广电小区","info":""}},{"type":"Feature","geometry":{"type":"Point","coordinates":[103.885659,36.048142]},"properties":{"province":"甘肃省","city":"兰州市","county":"城关区","community":"拱星墩街道段家滩路宝影花园","full_address":"甘肃省兰州市城关区拱星墩街道段家滩路宝影花园","info":""}},{"type":"Feature","geometry":{"type":"Point","coordinates":[103.906131,36.039172]},"properties":{"province":"甘肃省","city":"兰州市","county":"城关区","community":"拱星墩街道林规院家属院","full_address":"甘肃省兰州市城关区拱星墩街道林规院家属院","info":""}},{"type":"Feature","geometry":{"type":"Point","coordinates":[103.823901,36.043471]},"properties":{"province":"甘肃省","city":"兰州市","county":"城关区","community":"五泉街道祁连山家属院5号楼","full_address":"甘肃省兰州市城关区五泉街道祁连山家属院5号楼","info":""}},{"type":"Feature","geometry":{"type":"Point","coordinates":[103.824557,36.05886]},"properties":{"province":"甘肃省","city":"兰州市","county":"城关区","community":"张掖路街道中广大厦怡园","full_address":"甘肃省兰州市城关区张掖路街道中广大厦怡园","info":""}},{"type":"Feature","geometry":{"type":"Point","coordinates":[103.82244,36.086461]},"properties":{"province":"甘肃省","city":"兰州市","county":"城关区","community":"草场街街道恒大绿洲二号院（6号、9号楼以外）片区","full_address":"甘肃省兰州市城关区草场街街道恒大绿洲二号院（6号、9号楼以外）片区","info":""}},{"type":"Feature","geometry":{"type":"Point","coordinates":[103.828148,36.070729]},"properties":{"province":"甘肃省","city":"兰州市","county":"城关区","community":"草场街街道天诚丽舍（1号楼以外）片区","full_address":"甘肃省兰州市城关区草场街街道天诚丽舍（1号楼以外）片区","info":""}},{"type":"Feature","geometry":{"type":"Point","coordinates":[103.926541,36.044175]},"properties":{"province":"甘肃省","city":"兰州市","county":"城关区","community":"东岗街道东岗世纪新村D区（4-3栋以外）片区","full_address":"甘肃省兰州市城关区东岗街道东岗世纪新村D区（4-3栋以外）片区","info":""}},{"type":"Feature","geometry":{"type":"Point","coordinates":[103.823901,36.043471]},"properties":{"province":"甘肃省","city":"兰州市","county":"城关区","community":"五泉街道祁连山家属院（5号楼以外）片区","full_address":"甘肃省兰州市城关区五泉街道祁连山家属院（5号楼以外）片区","info":""}},{"type":"Feature","geometry":{"type":"Point","coordinates":[103.824086,36.045144]},"properties":{"province":"甘肃省","city":"兰州市","county":"城关区","community":"五泉街道中山林54号1、3、4单元","full_address":"甘肃省兰州市城关区五泉街道中山林54号1、3、4单元","info":""}},{"type":"Feature","geometry":{"type":"Point","coordinates":[103.868222,36.06074]},"properties":{"province":"甘肃省","city":"兰州市","county":"城关区","community":"雁南街道雁南路区委家属院（2122号9号楼以外）片区","full_address":"甘肃省兰州市城关区雁南街道雁南路区委家属院（2122号9号楼以外）片区","info":""}},{"type":"Feature","geometry":{"type":"Point","coordinates":[103.830663,36.071701]},"properties":{"province":"甘肃省","city":"兰州市","county":"城关区","community":"草场街街道白土巷","full_address":"甘肃省兰州市城关区草场街街道白土巷","info":""}},{"type":"Feature","geometry":{"type":"Point","coordinates":[103.917464,36.040556]},"properties":{"province":"甘肃省","city":"兰州市","county":"城关区","community":"草场街街道富星小院","full_address":"甘肃省兰州市城关区草场街街道富星小院","info":""}},{"type":"Feature","geometry":{"type":"Point","coordinates":[103.835724,36.089004]},"properties":{"province":"甘肃省","city":"兰州市","county":"城关区","community":"草场街街道恒大绿洲一号院","full_address":"甘肃省兰州市城关区草场街街道恒大绿洲一号院","info":""}},{"type":"Feature","geometry":{"type":"Point","coordinates":[103.823941,36.039832]},"properties":{"province":"甘肃省","city":"兰州市","county":"城关区","community":"五泉街道五泉南路润翠园","full_address":"甘肃省兰州市城关区五泉街道五泉南路润翠园","info":""}},{"type":"Feature","geometry":{"type":"Point","coordinates":[103.834693,36.07167]},"properties":{"province":"甘肃省","city":"兰州市","county":"城关区","community":"草场街街道惠陇小区","full_address":"甘肃省兰州市城关区草场街街道惠陇小区","info":""}},{"type":"Feature","geometry":{"type":"Point","coordinates":[103.829526,36.071073]},"properties":{"province":"甘肃省","city":"兰州市","county":"城关区","community":"草场街街道铝制品厂家属院","full_address":"甘肃省兰州市城关区草场街街道铝制品厂家属院","info":""}},{"type":"Feature","geometry":{"type":"Point","coordinates":[103.851693,36.076568]},"properties":{"province":"甘肃省","city":"兰州市","county":"城关区","community":"草场衔街道盐场路惠客家楼上区域","full_address":"甘肃省兰州市城关区草场衔街道盐场路惠客家楼上区域","info":""}},{"type":"Feature","geometry":{"type":"Point","coordinates":[103.880938,36.040784]},"properties":{"province":"甘肃省","city":"兰州市","county":"城关区","community":"嘉峪关路街道东瓯逸景","full_address":"甘肃省兰州市城关区嘉峪关路街道东瓯逸景","info":""}},{"type":"Feature","geometry":{"type":"Point","coordinates":[103.866065,36.04219]},"properties":{"province":"甘肃省","city":"兰州市","county":"城关区","community":"嘉峪关路街道嘉峪关西路198号临街小区","full_address":"甘肃省兰州市城关区嘉峪关路街道嘉峪关西路198号临街小区","info":""}},{"type":"Feature","geometry":{"type":"Point","coordinates":[103.785071,36.07805]},"properties":{"province":"甘肃省","city":"兰州市","county":"城关区","community":"靖远路街道兰雅星河湾","full_address":"甘肃省兰州市城关区靖远路街道兰雅星河湾","info":""}},{"type":"Feature","geometry":{"type":"Point","coordinates":[103.905528,36.071148]},"properties":{"province":"甘肃省","city":"兰州市","county":"城关区","community":"青白石街道小达子坪车管所","full_address":"甘肃省兰州市城关区青白石街道小达子坪车管所","info":""}},{"type":"Feature","geometry":{"type":"Point","coordinates":[103.86593,36.04995]},"properties":{"province":"甘肃省","city":"兰州市","county":"城关区","community":"渭源路街道科技街航天和美","full_address":"甘肃省兰州市城关区渭源路街道科技街航天和美","info":""}},{"type":"Feature","geometry":{"type":"Point","coordinates":[103.81949,36.047408]},"properties":{"province":"甘肃省","city":"兰州市","county":"城关区","community":"五泉街道甘肃日报社家属院","full_address":"甘肃省兰州市城关区五泉街道甘肃日报社家属院","info":""}},{"type":"Feature","geometry":{"type":"Point","coordinates":[103.830786,36.041707]},"properties":{"province":"甘肃省","city":"兰州市","county":"城关区","community":"五泉街道闵家桥172号小区","full_address":"甘肃省兰州市城关区五泉街道闵家桥172号小区","info":""}},{"type":"Feature","geometry":{"type":"Point","coordinates":[103.837997,36.09005]},"properties":{"province":"甘肃省","city":"兰州市","county":"城关区","community":"盐场路街道大沙坪左家湾66号自建房片区","full_address":"甘肃省兰州市城关区盐场路街道大沙坪左家湾66号自建房片区","info":""}},{"type":"Feature","geometry":{"type":"Point","coordinates":[103.879838,36.06831]},"properties":{"province":"甘肃省","city":"兰州市","county":"城关区","community":"雁北街道雁滩家园B区","full_address":"甘肃省兰州市城关区雁北街道雁滩家园B区","info":""}},{"type":"Feature","geometry":{"type":"Point","coordinates":[103.880297,36.068392]},"properties":{"province":"甘肃省","city":"兰州市","county":"城关区","community":"雁北街道雁滩家园D区","full_address":"甘肃省兰州市城关区雁北街道雁滩家园D区","info":""}},{"type":"Feature","geometry":{"type":"Point","coordinates":[103.884174,36.056224]},"properties":{"province":"甘肃省","city":"兰州市","county":"城关区","community":"雁南街道天庆大道星河苑","full_address":"甘肃省兰州市城关区雁南街道天庆大道星河苑","info":""}},{"type":"Feature","geometry":{"type":"Point","coordinates":[103.886971,36.059519]},"properties":{"province":"甘肃省","city":"兰州市","county":"城关区","community":"雁园街道雁滩绿苑小区","full_address":"甘肃省兰州市城关区雁园街道雁滩绿苑小区","info":""}},{"type":"Feature","geometry":{"type":"Point","coordinates":[103.909125,36.063164]},"properties":{"province":"甘肃省","city":"兰州市","county":"城关区","community":"雁园街道中广宜景湾尚城","full_address":"甘肃省兰州市城关区雁园街道中广宜景湾尚城","info":""}},{"type":"Feature","geometry":{"type":"Point","coordinates":[103.838006,36.081268]},"properties":{"province":"甘肃省","city":"兰州市","county":"城关区","community":"草场街街道大砂坪怡苑小区","full_address":"甘肃省兰州市城关区草场街街道大砂坪怡苑小区","info":""}},{"type":"Feature","geometry":{"type":"Point","coordinates":[103.898746,36.040975]},"properties":{"province":"甘肃省","city":"兰州市","county":"城关区","community":"拱星墩街道东岗东路7437工厂菜市场","full_address":"甘肃省兰州市城关区拱星墩街道东岗东路7437工厂菜市场","info":""}},{"type":"Feature","geometry":{"type":"Point","coordinates":[103.906131,36.039172]},"properties":{"province":"甘肃省","city":"兰州市","county":"城关区","community":"拱星墩街道飞天大院","full_address":"甘肃省兰州市城关区拱星墩街道飞天大院","info":""}},{"type":"Feature","geometry":{"type":"Point","coordinates":[103.872239,36.052658]},"properties":{"province":"甘肃省","city":"兰州市","county":"城关区","community":"拱星墩街道豪爽宾馆","full_address":"甘肃省兰州市城关区拱星墩街道豪爽宾馆","info":""}},{"type":"Feature","geometry":{"type":"Point","coordinates":[103.905712,36.039948]},"properties":{"province":"甘肃省","city":"兰州市","county":"城关区","community":"拱星墩街道深沟子自建房片区（深沟子134-168号）","full_address":"甘肃省兰州市城关区拱星墩街道深沟子自建房片区（深沟子134-168号）","info":""}},{"type":"Feature","geometry":{"type":"Point","coordinates":[103.878559,36.044647]},"properties":{"province":"甘肃省","city":"兰州市","county":"城关区","community":"拱星墩街道新源大厦","full_address":"甘肃省兰州市城关区拱星墩街道新源大厦","info":""}},{"type":"Feature","geometry":{"type":"Point","coordinates":[103.872383,36.039883]},"properties":{"province":"甘肃省","city":"兰州市","county":"城关区","community":"嘉峪关路街道城市学院东校区","full_address":"甘肃省兰州市城关区嘉峪关路街道城市学院东校区","info":""}},{"type":"Feature","geometry":{"type":"Point","coordinates":[103.872162,36.038233]},"properties":{"province":"甘肃省","city":"兰州市","county":"城关区","community":"嘉峪关路街道民航家属院","full_address":"甘肃省兰州市城关区嘉峪关路街道民航家属院","info":""}},{"type":"Feature","geometry":{"type":"Point","coordinates":[103.89717,36.037997]},"properties":{"province":"甘肃省","city":"兰州市","county":"城关区","community":"焦家湾街道焦煤厂自建房片区（1-43号)","full_address":"甘肃省兰州市城关区焦家湾街道焦煤厂自建房片区（1-43号)","info":""}},{"type":"Feature","geometry":{"type":"Point","coordinates":[103.828533,36.068585]},"properties":{"province":"甘肃省","city":"兰州市","county":"城关区","community":"靖远路街道靖远路小区","full_address":"甘肃省兰州市城关区靖远路街道靖远路小区","info":""}},{"type":"Feature","geometry":{"type":"Point","coordinates":[103.899409,36.084294]},"properties":{"province":"甘肃省","city":"兰州市","county":"城关区","community":"青白石街道银河国际二期","full_address":"甘肃省兰州市城关区青白石街道银河国际二期","info":""}},{"type":"Feature","geometry":{"type":"Point","coordinates":[103.870284,36.062729]},"properties":{"province":"甘肃省","city":"兰州市","county":"城关区","community":"雁北街道银雁家园","full_address":"甘肃省兰州市城关区雁北街道银雁家园","info":""}},{"type":"Feature","geometry":{"type":"Point","coordinates":[103.869214,36.05824]},"properties":{"province":"甘肃省","city":"兰州市","county":"城关区","community":"雁南街道雁西路永诚宾馆","full_address":"甘肃省兰州市城关区雁南街道雁西路永诚宾馆","info":""}},{"type":"Feature","geometry":{"type":"Point","coordinates":[103.83173,36.07602]},"properties":{"province":"甘肃省","city":"兰州市","county":"城关区","community":"草场街街道大沙坪自建房片区(1-153号)","full_address":"甘肃省兰州市城关区草场街街道大沙坪自建房片区(1-153号)","info":""}},{"type":"Feature","geometry":{"type":"Point","coordinates":[103.836776,36.07025]},"properties":{"province":"甘肃省","city":"兰州市","county":"城关区","community":"草场街街道电器厂家属院","full_address":"甘肃省兰州市城关区草场街街道电器厂家属院","info":""}},{"type":"Feature","geometry":{"type":"Point","coordinates":[103.890508,36.045934]},"properties":{"province":"甘肃省","city":"兰州市","county":"城关区","community":"拱星墩街道财经大学家属院","full_address":"甘肃省兰州市城关区拱星墩街道财经大学家属院","info":""}},{"type":"Feature","geometry":{"type":"Point","coordinates":[103.845931,36.060445]},"properties":{"province":"甘肃省","city":"兰州市","county":"城关区","community":"广武门街道大教梁15号片区","full_address":"甘肃省兰州市城关区广武门街道大教梁15号片区","info":""}},{"type":"Feature","geometry":{"type":"Point","coordinates":[103.877709,36.051031]},"properties":{"province":"甘肃省","city":"兰州市","county":"城关区","community":"雁南街道金盛宾馆","full_address":"甘肃省兰州市城关区雁南街道金盛宾馆","info":""}},{"type":"Feature","geometry":{"type":"Point","coordinates":[103.776572,36.075822]},"properties":{"province":"甘肃省","city":"兰州市","county":"城关区","community":"白银路街道柏道路食品厂家属院","full_address":"甘肃省兰州市城关区白银路街道柏道路食品厂家属院","info":""}},{"type":"Feature","geometry":{"type":"Point","coordinates":[103.817601,36.049279]},"properties":{"province":"甘肃省","city":"兰州市","county":"城关区","community":"白银路街道第一新村自建房片区38-88号（双号）","full_address":"甘肃省兰州市城关区白银路街道第一新村自建房片区38-88号（双号）","info":""}},{"type":"Feature","geometry":{"type":"Point","coordinates":[103.835921,36.032984]},"properties":{"province":"甘肃省","city":"兰州市","county":"城关区","community":"白银路街道市建一公司家属院","full_address":"甘肃省兰州市城关区白银路街道市建一公司家属院","info":""}},{"type":"Feature","geometry":{"type":"Point","coordinates":[103.837366,36.077197]},"properties":{"province":"甘肃省","city":"兰州市","county":"城关区","community":"草场街街道砂坪村自建房片区(193-203号、207-258号)","full_address":"甘肃省兰州市城关区草场街街道砂坪村自建房片区(193-203号、207-258号)","info":""}},{"type":"Feature","geometry":{"type":"Point","coordinates":[103.880861,36.050051]},"properties":{"province":"甘肃省","city":"兰州市","county":"城关区","community":"拱星墩街道荣城家园","full_address":"甘肃省兰州市城关区拱星墩街道荣城家园","info":""}},{"type":"Feature","geometry":{"type":"Point","coordinates":[103.833701,36.08532]},"properties":{"province":"甘肃省","city":"兰州市","county":"城关区","community":"草场街街道五一馨苑","full_address":"甘肃省兰州市城关区草场街街道五一馨苑","info":""}},{"type":"Feature","geometry":{"type":"Point","coordinates":[103.770865,36.072802]},"properties":{"province":"甘肃省","city":"兰州市","county":"城关区","community":"雁北街道738-750（双号）家属院","full_address":"甘肃省兰州市城关区雁北街道738-750（双号）家属院","info":""}},