{"type":"FeatureCollection","features":[{"type":"Feature","geometry":{"type":"Point","coordinates":[108.965902,34.225632]},"properties":{"province":"陕西省","city":"西安市","county":"雁塔区","community":"大雁塔街道","full_address":"陕西省西安市雁塔区大雁塔街道","info":""}},{"type":"Feature","geometry":{"type":"Point","coordinates":[109.01825,34.230691]},"properties":{"province":"陕西省","city":"西安市","county":"雁塔区","community":"等驾坡街道","full_address":"陕西省西安市雁塔区等驾坡街道","info":""}},{"type":"Feature","geometry":{"type":"Point","coordinates":[108.920463,34.221531]},"properties":{"province":"陕西省","city":"西安市","county":"雁塔区","community":"电子城街道","full_address":"陕西省西安市雁塔区电子城街道","info":""}},{"type":"Feature","geometry":{"type":"Point","coordinates":[108.927741,34.185934]},"properties":{"province":"陕西省","city":"西安市","county":"雁塔区","community":"杜城街道","full_address":"陕西省西安市雁塔区杜城街道","info":""}},{"type":"Feature","geometry":{"type":"Point","coordinates":[108.926998,34.230598]},"properties":{"province":"陕西省","city":"西安市","county":"雁塔区","community":"小寨路街道（不含长安大学社区）","full_address":"陕西省西安市雁塔区小寨路街道（不含长安大学社区）","info":""}},{"type":"Feature","geometry":{"type":"Point","coordinates":[108.842269,34.21312]},"properties":{"province":"陕西省","city":"西安市","county":"雁塔区","community":"漳浒寨街道","full_address":"陕西省西安市雁塔区漳浒寨街道","info":""}},{"type":"Feature","geometry":{"type":"Point","coordinates":[108.965486,34.254914]},"properties":{"province":"陕西省","city":"西安市","county":"碑林区","community":"柏树林街道","full_address":"陕西省西安市碑林区柏树林街道","info":""}},{"type":"Feature","geometry":{"type":"Point","coordinates":[108.969575,34.245966]},"properties":{"province":"陕西省","city":"西安市","county":"碑林区","community":"太乙路街道","full_address":"陕西省西安市碑林区太乙路街道","info":""}},{"type":"Feature","geometry":{"type":"Point","coordinates":[108.947364,34.238509]},"properties":{"province":"陕西省","city":"西安市","county":"碑林区","community":"长安路街道","full_address":"陕西省西安市碑林区长安路街道","info":""}},{"type":"Feature","geometry":{"type":"Point","coordinates":[109.117756,34.304467]},"properties":{"province":"陕西省","city":"西安市","county":"灞桥区","community":"洪庆街道","full_address":"陕西省西安市灞桥区洪庆街道","info":""}},{"type":"Feature","geometry":{"type":"Point","coordinates":[109.063447,34.287901]},"properties":{"province":"陕西省","city":"西安市","county":"灞桥区","community":"席王街道","full_address":"陕西省西安市灞桥区席王街道","info":""}},{"type":"Feature","geometry":{"type":"Point","coordinates":[108.958216,34.2617]},"properties":{"province":"陕西省","city":"西安市","county":"新城区","community":"西一路街道","full_address":"陕西省西安市新城区西一路街道","info":""}},{"type":"Feature","geometry":{"type":"Point","coordinates":[108.869257,34.159957]},"properties":{"province":"陕西省","city":"西安市","county":"长安区","community":"郭杜街道","full_address":"陕西省西安市长安区郭杜街道","info":""}},{"type":"Feature","geometry":{"type":"Point","coordinates":[108.934632,34.158892]},"properties":{"province":"陕西省","city":"西安市","county":"长安区","community":"韦曲街道","full_address":"陕西省西安市长安区韦曲街道","info":""}},{"type":"Feature","geometry":{"type":"Point","coordinates":[108.860762,34.2332]},"properties":{"province":"陕西省","city":"西安市","county":"雁塔区","community":"高新区鱼化寨街道","full_address":"陕西省西安市雁塔区高新区鱼化寨街道","info":""}},{"type":"Feature","geometry":{"type":"Point","coordinates":[108.873871,34.207554]},"properties":{"province":"陕西省","city":"西安市","county":"雁塔区","community":"丈八街道","full_address":"陕西省西安市雁塔区丈八街道","info":""}},{"type":"Feature","geometry":{"type":"Point","coordinates":[108.787148,34.083111]},"properties":{"province":"陕西省","city":"西安市","county":"长安区","community":"五星街道","full_address":"陕西省西安市长安区五星街道","info":""}},{"type":"Feature","geometry":{"type":"Point","coordinates":[108.790006,34.157158]},"properties":{"province":"陕西省","city":"西安市","county":"长安区","community":"细柳街道","full_address":"陕西省西安市长安区细柳街道","info":""}},{"type":"Feature","geometry":{"type":"Point","coordinates":[108.81236,34.302455]},"properties":{"province":"陕西省","city":"西安市","county":"未央区","community":"西咸新区沣东新城三桥街道","full_address":"陕西省西安市未央区西咸新区沣东新城三桥街道","info":""}},{"type":"Feature","geometry":{"type":"Point","coordinates":[108.953075,34.271492]},"properties":{"province":"陕西省","city":"西安市","county":"新城区","community":"上林街道","full_address":"陕西省西安市新城区上林街道","info":""}},{"type":"Feature","geometry":{"type":"Point","coordinates":[108.789099,34.258264]},"properties":{"province":"陕西省","city":"西安市","county":"长安区","community":"王寺街道","full_address":"陕西省西安市长安区王寺街道","info":""}},{"type":"Feature","geometry":{"type":"Point","coordinates":[108.887502,34.22302]},"properties":{"province":"陕西省","city":"西安市","county":"西咸新区","community":"秦汉新城渭城街道","full_address":"陕西省西安市西咸新区秦汉新城渭城街道","info":""}},{"type":"Feature","geometry":{"type":"Point","coordinates":[108.81236,34.302455]},"properties":{"province":"陕西省","city":"西安市","county":"未央区","community":"沣东新城斗门街道","full_address":"陕西省西安市未央区沣东新城斗门街道","info":""}},{"type":"Feature","geometry":{"type":"Point","coordinates":[121.814299,29.929308]},"properties":{"province":"浙江省","city":"宁波市","county":"北仑区","community":"新碶街道沿海村","full_address":"浙江省宁波市北仑区新碶街道沿海村","info":""}},{"type":"Feature","geometry":{"type":"Point","coordinates":[121.800114,29.930366]},"properties":{"province":"浙江省","city":"宁波市","county":"北仑区","community":"申洲公司三部厂区及宿舍区","full_address":"浙江省宁波市北仑区申洲公司三部厂区及宿舍区","info":""}},{"type":"Feature","geometry":{"type":"Point","coordinates":[120.027124,28.85328]},"properties":{"province":"浙江省","city":"金华市","county":"永康市","community":"石柱镇前锦村下陈自然村","full_address":"浙江省金华市永康市石柱镇前锦村下陈自然村","info":""}},{"type":"Feature","geometry":{"type":"Point","coordinates":[119.95563,28.924292]},"properties":{"province":"浙江省","city":"金华市","county":"永康市","community":"增杰衡器厂","full_address":"浙江省金华市永康市增杰衡器厂","info":""}},{"type":"Feature","geometry":{"type":"Point","coordinates":[112.164717,34.725604]},"properties":{"province":"河南省","city":"洛阳市","county":"新安县","community":"正村镇正村社区","full_address":"河南省洛阳市新安县正村镇正村社区","info":""}},{"type":"Feature","geometry":{"type":"Point","coordinates":[112.077907,33.981768]},"properties":{"province":"河南省","city":"洛阳市","county":"嵩县","community":"西沟村","full_address":"河南省洛阳市嵩县西沟村","info":""}},{"type":"Feature","geometry":{"type":"Point","coordinates":[113.385396,34.142435]},"properties":{"province":"河南省","city":"许昌市","county":"禹州市","community":"全域（火龙镇刘沟村、郭楼村，夏都街道办事处，梁北镇，颍川街道塔湾街安泰煤业公司家属院、回族小学北5街、开元小区、尹庄、禹王大道113号，钧台街道四季花城（西院）&韩城街道焦寨社区&张得镇寨外村除外）","full_address":"河南省许昌市禹州市全域（火龙镇刘沟村、郭楼村，夏都街道办事处，梁北镇，颍川街道塔湾街安泰煤业公司家属院、回族小学北5街、开元小区、尹庄、禹王大道113号，钧台街道四季花城（西院）&韩城街道焦寨社区&张得镇寨外村除外）","info":""}},{"type":"Feature","geometry":{"type":"Point","coordinates":[113.611843,34.740275]},"properties":{"province":"河南省","city":"郑州市","county":"中原区","community":"绿东村办事处电缆社区69号院","full_address":"河南省郑州市中原区绿东村办事处电缆社区69号院","info":""}},{"type":"Feature","geometry":{"type":"Point","coordinates":[113.601573,34.745272]},"properties":{"province":"河南省","city":"郑州市","county":"中原区","community":"中原西路街道万达社区中原万达小区东院","full_address":"河南省郑州市中原区中原西路街道万达社区中原万达小区东院","info":""}},{"type":"Feature","geometry":{"type":"Point","coordinates":[113.595875,34.734821]},"properties":{"province":"河南省","city":"郑州市","county":"中原区","community":"绿东村街道陇西社区陇海西路306号院（康桥上城品小区）","full_address":"河南省郑州市中原区绿东村街道陇西社区陇海西路306号院（康桥上城品小区）","info":""}},{"type":"Feature","geometry":{"type":"Point","coordinates":[113.58325,34.743237]},"properties":{"province":"河南省","city":"郑州市","county":"中原区","community":"中原西路街道绿都社区绿都城南区14号楼","full_address":"河南省郑州市中原区中原西路街道绿都社区绿都城南区14号楼","info":""}},{"type":"Feature","geometry":{"type":"Point","coordinates":[113.622288,34.762085]},"properties":{"province":"河南省","city":"郑州市","county":"中原区","community":"棉纺路街道盛润锦绣城社区盛润锦绣城小区东院1号楼","full_address":"河南省郑州市中原区棉纺路街道盛润锦绣城社区盛润锦绣城小区东院1号楼","info":""}},{"type":"Feature","geometry":{"type":"Point","coordinates":[113.65622,34.731693]},"properties":{"province":"河南省","city":"郑州市","county":"二七区","community":"建中街办事处永安社区保全街28号院","full_address":"河南省郑州市二七区建中街办事处永安社区保全街28号院","info":""}},{"type":"Feature","geometry":{"type":"Point","coordinates":[113.628072,34.682763]},"properties":{"province":"河南省","city":"郑州市","county":"二七区","community":"嵩山路街道玉晖园社区玉晖园小区","full_address":"河南省郑州市二七区嵩山路街道玉晖园社区玉晖园小区","info":""}},{"type":"Feature","geometry":{"type":"Point","coordinates":[113.644818,34.745524]},"properties":{"province":"河南省","city":"郑州市","county":"二七区","community":"大学路街道金桥社区中苑名都小区","full_address":"河南省郑州市二七区大学路街道金桥社区中苑名都小区","info":""}},{"type":"Feature","geometry":{"type":"Point","coordinates":[113.665819,34.737785]},"properties":{"province":"河南省","city":"郑州市","county":"二七区","community":"一马路街道陇海大院社区陇海东路188号院","full_address":"河南省郑州市二七区一马路街道陇海大院社区陇海东路188号院","info":""}},{"type":"Feature","geometry":{"type":"Point","coordinates":[113.636867,34.735225]},"properties":{"province":"河南省","city":"郑州市","county":"二七区","community":"淮河路街道陇海社区富田陇海花园","full_address":"河南省郑州市二七区淮河路街道陇海社区富田陇海花园","info":""}},{"type":"Feature","geometry":{"type":"Point","coordinates":[113.640034,34.739488]},"properties":{"province":"河南省","city":"郑州市","county":"二七区","community":"大学路街道桃源社区桃源路45号院","full_address":"河南省郑州市二七区大学路街道桃源社区桃源路45号院","info":""}},{"type":"Feature","geometry":{"type":"Point","coordinates":[113.642535,34.740543]},"properties":{"province":"河南省","city":"郑州市","county":"二七区","community":"桃源路25号院翰林世家","full_address":"河南省郑州市二七区桃源路25号院翰林世家","info":""}},{"type":"Feature","geometry":{"type":"Point","coordinates":[113.543629,34.823196]},"properties":{"province":"河南省","city":"郑州市","county":"中原区","community":"高新区石佛办事处育林社区五龙新城香榭园小区","full_address":"河南省郑州市中原区高新区石佛办事处育林社区五龙新城香榭园小区","info":""}},{"type":"Feature","geometry":{"type":"Point","coordinates":[114.357082,36.090468]},"properties":{"province":"河南省","city":"安阳市","county":"文峰区","community":"","full_address":"河南省安阳市文峰区","info":""}},{"type":"Feature","geometry":{"type":"Point","coordinates":[114.535236,35.534826]},"properties":{"province":"河南省","city":"安阳市","county":"滑县","community":"锦和街道锦和书苑人才公寓","full_address":"河南省安阳市滑县锦和街道锦和书苑人才公寓","info":""}},{"type":"Feature","geometry":{"type":"Point","coordinates":[114.544657,35.535123]},"properties":{"province":"河南省","city":"安阳市","county":"滑县","community":"锦和街道岸尚公馆东区四号楼","full_address":"河南省安阳市滑县锦和街道岸尚公馆东区四号楼","info":""}},{"type":"Feature","geometry":{"type":"Point","coordinates":[114.742067,35.819443]},"properties":{"province":"河南省","city":"安阳市","county":"内黄县","community":"六村乡袁六村","full_address":"河南省安阳市内黄县六村乡袁六村","info":""}},{"type":"Feature","geometry":{"type":"Point","coordinates":[114.357763,35.924515]},"properties":{"province":"河南省","city":"安阳市","county":"汤阴县","community":"（汤阴县育才中学&古贤镇除外）","full_address":"河南省安阳市汤阴县（汤阴县育才中学&古贤镇除外）","info":""}},{"type":"Feature","geometry":{"type":"Point","coordinates":[114.108091,22.605162]},"properties":{"province":"广东省","city":"深圳市","county":"龙岗区","community":"布吉街道布吉社区壹村东心岭八巷55号楼栋","full_address":"广东省深圳市龙岗区布吉街道布吉社区壹村东心岭八巷55号楼栋","info":""}},{"type":"Feature","geometry":{"type":"Point","coordinates":[114.112691,22.608198]},"properties":{"province":"广东省","city":"深圳市","county":"龙岗区","community":"吉华街道水径社区西环路2号富辰公寓","full_address":"广东省深圳市龙岗区吉华街道水径社区西环路2号富辰公寓","info":""}},{"type":"Feature","geometry":{"type":"Point","coordinates":[114.110486,22.584765]},"properties":{"province":"广东省","city":"深圳市","county":"罗湖区","community":"清水河街道鹤围村58栋","full_address":"广东省深圳市罗湖区清水河街道鹤围村58栋","info":""}},{"type":"Feature","geometry":{"type":"Point","coordinates":[114.110342,22.584782]},"properties":{"province":"广东省","city":"深圳市","county":"罗湖区","community":"清水河街道鹤围村64栋","full_address":"广东省深圳市罗湖区清水河街道鹤围村64栋","info":""}},{"type":"Feature","geometry":{"type":"Point","coordinates":[117.351557,39.029502]},"properties":{"province":"天津市","city":"市辖区","county":"津南区","community":"辛庄镇鑫昱花园","full_address":"天津市市辖区津南区辛庄镇鑫昱花园","info":""}},{"type":"Feature","geometry":{"type":"Point","coordinates":[117.327864,39.03205]},"properties":{"province":"天津市","city":"天津市","county":"津南区","community":"义佳花园","full_address":"天津市天津市津南区义佳花园","info":""}},{"type":"Feature","geometry":{"type":"Point","coordinates":[117.401621,38.978393]},"properties":{"province":"天津市","city":"天津市","county":"津南区","community":"咸水沽镇龙湖紫宸","full_address":"天津市天津市津南区咸水沽镇龙湖紫宸","info":""}},{"type":"Feature","geometry":{"type":"Point","coordinates":[117.387478,38.983522]},"properties":{"province":"天津市","city":"天津市","county":"津南区","community":"众惠里","full_address":"天津市天津市津南区众惠里","info":""}},{"type":"Feature","geometry":{"type":"Point","coordinates":[117.059995,39.382024]},"properties":{"province":"天津市","city":"天津市","county":"武清区","community":"同泽园","full_address":"天津市天津市武清区同泽园","info":""}},{"type":"Feature","geometry":{"type":"Point","coordinates":[121.44414,31.22346]},"properties":{"province":"上海市","city":"市辖区","county":"静安区","community":"静安寺街道愚园路228号","full_address":"上海市市辖区静安区静安寺街道愚园路228号","info":""}}]}