{"type":"FeatureCollection","features":[{"type":"Feature","geometry":{"type":"Point","coordinates":[127.528786,50.232166]},"properties":{"province":"黑龙江省","city":"黑河市","county":"爱辉区","community":"喇嘛台社区荣耀世纪小区4号楼","full_address":"黑龙江省黑河市爱辉区喇嘛台社区荣耀世纪小区4号楼","info":""}},{"type":"Feature","geometry":{"type":"Point","coordinates":[127.530319,50.240168]},"properties":{"province":"黑龙江省","city":"黑河市","county":"爱辉区","community":"武庙屯社区警官名苑小区B栋","full_address":"黑龙江省黑河市爱辉区武庙屯社区警官名苑小区B栋","info":""}},{"type":"Feature","geometry":{"type":"Point","coordinates":[127.476396,50.253352]},"properties":{"province":"黑龙江省","city":"黑河市","county":"爱辉区","community":"向阳社区水岸阳光小区9号楼","full_address":"黑龙江省黑河市爱辉区向阳社区水岸阳光小区9号楼","info":""}},{"type":"Feature","geometry":{"type":"Point","coordinates":[127.497957,50.252053]},"properties":{"province":"黑龙江省","city":"黑河市","county":"爱辉区","community":"鹿源春社区金达之家小区中房49号楼","full_address":"黑龙江省黑河市爱辉区鹿源春社区金达之家小区中房49号楼","info":""}},{"type":"Feature","geometry":{"type":"Point","coordinates":[127.529177,50.232449]},"properties":{"province":"黑龙江省","city":"黑河市","county":"爱辉区","community":"武庙屯社区之路佳苑小区4号楼","full_address":"黑龙江省黑河市爱辉区武庙屯社区之路佳苑小区4号楼","info":""}},{"type":"Feature","geometry":{"type":"Point","coordinates":[114.119252,22.547019]},"properties":{"province":"广东省","city":"深圳市","county":"罗湖区","community":"东门街道新园路明华广场1至6楼（含6A与M层）商业区","full_address":"广东省深圳市罗湖区东门街道新园路明华广场1至6楼（含6A与M层）商业区","info":""}},{"type":"Feature","geometry":{"type":"Point","coordinates":[114.083756,22.625502]},"properties":{"province":"广东省","city":"深圳市","county":"龙岗区","community":"坂田街道马安堂社区侨联东10巷1号顺兴楼","full_address":"广东省深圳市龙岗区坂田街道马安堂社区侨联东10巷1号顺兴楼","info":""}},{"type":"Feature","geometry":{"type":"Point","coordinates":[114.082577,22.624199]},"properties":{"province":"广东省","city":"深圳市","county":"龙岗区","community":"中兴路高时石材B区A钢构厂房","full_address":"广东省深圳市龙岗区中兴路高时石材B区A钢构厂房","info":""}},{"type":"Feature","geometry":{"type":"Point","coordinates":[106.615374,23.32345]},"properties":{"province":"广西壮族自治区","city":"百色市","county":"德保县","community":"维也纳国际酒店（德保腾飞广场店）","full_address":"广西壮族自治区百色市德保县维也纳国际酒店（德保腾飞广场店）","info":""}},{"type":"Feature","geometry":{"type":"Point","coordinates":[106.491013,23.292151]},"properties":{"province":"广西壮族自治区","city":"百色市","county":"德保县","community":"都安乡福记村山金屯","full_address":"广西壮族自治区百色市德保县都安乡福记村山金屯","info":""}},{"type":"Feature","geometry":{"type":"Point","coordinates":[106.471022,23.335014]},"properties":{"province":"广西壮族自治区","city":"百色市","county":"德保县","community":"都安乡坡那村多麦屯","full_address":"广西壮族自治区百色市德保县都安乡坡那村多麦屯","info":""}},{"type":"Feature","geometry":{"type":"Point","coordinates":[106.61648,23.32016]},"properties":{"province":"广西壮族自治区","city":"百色市","county":"德保县","community":"城关镇隆盛社区盛象名都小区","full_address":"广西壮族自治区百色市德保县城关镇隆盛社区盛象名都小区","info":""}},{"type":"Feature","geometry":{"type":"Point","coordinates":[106.620404,23.320632]},"properties":{"province":"广西壮族自治区","city":"百色市","county":"德保县","community":"城关镇隆盛社区东蒙荣盛二巷25号","full_address":"广西壮族自治区百色市德保县城关镇隆盛社区东蒙荣盛二巷25号","info":""}},{"type":"Feature","geometry":{"type":"Point","coordinates":[106.606615,23.32394]},"properties":{"province":"广西壮族自治区","city":"百色市","county":"德保县","community":"莲城社区德立山庄","full_address":"广西壮族自治区百色市德保县莲城社区德立山庄","info":""}},{"type":"Feature","geometry":{"type":"Point","coordinates":[106.38482,23.526014]},"properties":{"province":"广西壮族自治区","city":"百色市","county":"德保县","community":"东凌镇登限村念洞屯","full_address":"广西壮族自治区百色市德保县东凌镇登限村念洞屯","info":""}},{"type":"Feature","geometry":{"type":"Point","coordinates":[106.331328,23.477938]},"properties":{"province":"广西壮族自治区","city":"百色市","county":"德保县","community":"敬德镇陇正村多果屯","full_address":"广西壮族自治区百色市德保县敬德镇陇正村多果屯","info":""}},{"type":"Feature","geometry":{"type":"Point","coordinates":[106.428484,23.270124]},"properties":{"province":"广西壮族自治区","city":"百色市","county":"靖西市","community":"武平镇大道街大定屯","full_address":"广西壮族自治区百色市靖西市武平镇大道街大定屯","info":""}},{"type":"Feature","geometry":{"type":"Point","coordinates":[106.396655,23.29751]},"properties":{"province":"广西壮族自治区","city":"百色市","county":"靖西市","community":"弄贴村新村屯","full_address":"广西壮族自治区百色市靖西市弄贴村新村屯","info":""}},{"type":"Feature","geometry":{"type":"Point","coordinates":[120.344907,40.319465]},"properties":{"province":"辽宁省","city":"葫芦岛市","county":"绥中县","community":"绥中镇工人社区盛华园二期","full_address":"辽宁省葫芦岛市绥中县绥中镇工人社区盛华园二期","info":""}},{"type":"Feature","geometry":{"type":"Point","coordinates":[120.632712,30.90228]},"properties":{"province":"江苏省","city":"苏州市","county":"吴江区","community":"盛泽镇绿洲华庭小区41栋","full_address":"江苏省苏州市吴江区盛泽镇绿洲华庭小区41栋","info":""}},{"type":"Feature","geometry":{"type":"Point","coordinates":[120.647442,31.130924]},"properties":{"province":"江苏省","city":"苏州市","county":"吴江区","community":"长安花园21幢","full_address":"江苏省苏州市吴江区长安花园21幢","info":""}},{"type":"Feature","geometry":{"type":"Point","coordinates":[120.662061,31.126891]},"properties":{"province":"江苏省","city":"苏州市","county":"吴江区","community":"长安路2358号吴江科技创业园","full_address":"江苏省苏州市吴江区长安路2358号吴江科技创业园","info":""}},{"type":"Feature","geometry":{"type":"Point","coordinates":[120.660911,31.126684]},"properties":{"province":"江苏省","city":"苏州市","county":"吴江区","community":"江陵街道城南花苑2167幢","full_address":"江苏省苏州市吴江区江陵街道城南花苑2167幢","info":""}},{"type":"Feature","geometry":{"type":"Point","coordinates":[120.671437,31.073208]},"properties":{"province":"江苏省","city":"苏州市","county":"吴江区","community":"八坼街道邮电街23号2幢","full_address":"江苏省苏州市吴江区八坼街道邮电街23号2幢","info":""}},{"type":"Feature","geometry":{"type":"Point","coordinates":[120.682938,31.268953]},"properties":{"province":"江苏省","city":"苏州市","county":"吴中区","community":"郭巷街道独墅湖西金悦花园一期19幢","full_address":"江苏省苏州市吴中区郭巷街道独墅湖西金悦花园一期19幢","info":""}},{"type":"Feature","geometry":{"type":"Point","coordinates":[120.53875,31.2645]},"properties":{"province":"江苏省","city":"苏州市","county":"吴中区","community":"木渎镇沈巷村47～69号","full_address":"江苏省苏州市吴中区木渎镇沈巷村47～69号","info":""}},{"type":"Feature","geometry":{"type":"Point","coordinates":[120.604779,31.244523]},"properties":{"province":"江苏省","city":"苏州市","county":"吴中区","community":"世茂石湖湾花园二期273幢","full_address":"江苏省苏州市吴中区世茂石湖湾花园二期273幢","info":""}},{"type":"Feature","geometry":{"type":"Point","coordinates":[120.609011,31.2245]},"properties":{"province":"江苏省","city":"苏州市","county":"吴中区","community":"水岸清华97幢","full_address":"江苏省苏州市吴中区水岸清华97幢","info":""}},{"type":"Feature","geometry":{"type":"Point","coordinates":[120.773603,31.220586]},"properties":{"province":"江苏省","city":"苏州市","county":"吴中区","community":"甪直镇长巨村下扒浜马娄里172号","full_address":"江苏省苏州市吴中区甪直镇长巨村下扒浜马娄里172号","info":""}},{"type":"Feature","geometry":{"type":"Point","coordinates":[120.619536,31.274762]},"properties":{"province":"江苏省","city":"苏州市","county":"吴中区","community":"龙西新村（箭阙苑）40幢","full_address":"江苏省苏州市吴中区龙西新村（箭阙苑）40幢","info":""}},{"type":"Feature","geometry":{"type":"Point","coordinates":[120.686858,31.246435]},"properties":{"province":"江苏省","city":"苏州市","county":"吴中区","community":"尹山湖景花园三期43幢","full_address":"江苏省苏州市吴中区尹山湖景花园三期43幢","info":""}},{"type":"Feature","geometry":{"type":"Point","coordinates":[120.641813,31.257383]},"properties":{"province":"江苏省","city":"苏州市","county":"吴中区","community":"碧水湾花园60幢","full_address":"江苏省苏州市吴中区碧水湾花园60幢","info":""}},{"type":"Feature","geometry":{"type":"Point","coordinates":[120.676928,31.245189]},"properties":{"province":"江苏省","city":"苏州市","county":"吴中区","community":"碧堤半岛53幢","full_address":"江苏省苏州市吴中区碧堤半岛53幢","info":""}},{"type":"Feature","geometry":{"type":"Point","coordinates":[120.712155,31.245729]},"properties":{"province":"江苏省","city":"苏州市","county":"吴中区","community":"郭巷街道建发独墅湾82幢","full_address":"江苏省苏州市吴中区郭巷街道建发独墅湾82幢","info":""}},{"type":"Feature","geometry":{"type":"Point","coordinates":[120.706606,31.243308]},"properties":{"province":"江苏省","city":"苏州市","county":"吴中区","community":"郭巷街道双湾花园35幢","full_address":"江苏省苏州市吴中区郭巷街道双湾花园35幢","info":""}},{"type":"Feature","geometry":{"type":"Point","coordinates":[120.682068,31.259025]},"properties":{"province":"江苏省","city":"苏州市","county":"吴中区","community":"郭巷街道国泰社区国泰一村105幢","full_address":"江苏省苏州市吴中区郭巷街道国泰社区国泰一村105幢","info":""}},{"type":"Feature","geometry":{"type":"Point","coordinates":[120.60628,31.269901]},"properties":{"province":"江苏省","city":"苏州市","county":"姑苏区","community":"天辰花园小区18幢","full_address":"江苏省苏州市姑苏区天辰花园小区18幢","info":""}},{"type":"Feature","geometry":{"type":"Point","coordinates":[120.625337,31.283701]},"properties":{"province":"江苏省","city":"苏州市","county":"姑苏区","community":"大竹园3号楼","full_address":"江苏省苏州市姑苏区大竹园3号楼","info":""}},{"type":"Feature","geometry":{"type":"Point","coordinates":[120.643311,31.319917]},"properties":{"province":"江苏省","city":"苏州市","county":"姑苏区","community":"永林二区12幢","full_address":"江苏省苏州市姑苏区永林二区12幢","info":""}},{"type":"Feature","geometry":{"type":"Point","coordinates":[120.605112,31.28787]},"properties":{"province":"江苏省","city":"苏州市","county":"姑苏区","community":"胥江路361号（东方苑）1幢","full_address":"江苏省苏州市姑苏区胥江路361号（东方苑）1幢","info":""}},{"type":"Feature","geometry":{"type":"Point","coordinates":[120.607946,31.272768]},"properties":{"province":"江苏省","city":"苏州市","county":"姑苏区","community":"吴门桥街道长欣苑南区4幢","full_address":"江苏省苏州市姑苏区吴门桥街道长欣苑南区4幢","info":""}},{"type":"Feature","geometry":{"type":"Point","coordinates":[120.731302,31.312094]},"properties":{"province":"江苏省","city":"苏州市","county":"吴中区","community":"工业园区东湖大郡花园二期22幢","full_address":"江苏省苏州市吴中区工业园区东湖大郡花园二期22幢","info":""}},{"type":"Feature","geometry":{"type":"Point","coordinates":[120.732199,31.317205]},"properties":{"province":"江苏省","city":"苏州市","county":"吴中区","community":"东城郡115幢","full_address":"江苏省苏州市吴中区东城郡115幢","info":""}},{"type":"Feature","geometry":{"type":"Point","coordinates":[120.738641,31.303093]},"properties":{"province":"江苏省","city":"苏州市","county":"吴中区","community":"斜塘老街12号","full_address":"江苏省苏州市吴中区斜塘老街12号","info":""}},{"type":"Feature","geometry":{"type":"Point","coordinates":[120.769361,31.299177]},"properties":{"province":"江苏省","city":"苏州市","county":"吴中区","community":"澜溪苑18幢","full_address":"江苏省苏州市吴中区澜溪苑18幢","info":""}},{"type":"Feature","geometry":{"type":"Point","coordinates":[120.764776,31.306804]},"properties":{"province":"江苏省","city":"苏州市","county":"吴中区","community":"锦溪苑26幢","full_address":"江苏省苏州市吴中区锦溪苑26幢","info":""}},{"type":"Feature","geometry":{"type":"Point","coordinates":[120.765032,31.313869]},"properties":{"province":"江苏省","city":"苏州市","county":"吴中区","community":"京隆生活区","full_address":"江苏省苏州市吴中区京隆生活区","info":""}},{"type":"Feature","geometry":{"type":"Point","coordinates":[120.820277,31.30221]},"properties":{"province":"江苏省","city":"苏州市","county":"吴中区","community":"星胜客11幢","full_address":"江苏省苏州市吴中区星胜客11幢","info":""}},{"type":"Feature","geometry":{"type":"Point","coordinates":[120.769118,31.30427]},"properties":{"province":"江苏省","city":"苏州市","county":"吴中区","community":"凤凰城49幢","full_address":"江苏省苏州市吴中区凤凰城49幢","info":""}},{"type":"Feature","geometry":{"type":"Point","coordinates":[120.827333,31.333513]},"properties":{"province":"江苏省","city":"苏州市","county":"吴中区","community":"明日之星1幢","full_address":"江苏省苏州市吴中区明日之星1幢","info":""}},{"type":"Feature","geometry":{"type":"Point","coordinates":[120.737442,31.317069]},"properties":{"province":"江苏省","city":"苏州市","county":"吴中区","community":"湖畔天城花园16幢","full_address":"江苏省苏州市吴中区湖畔天城花园16幢","info":""}},{"type":"Feature","geometry":{"type":"Point","coordinates":[120.655193,31.300578]},"properties":{"province":"江苏省","city":"苏州市","county":"吴中区","community":"夏家桥118号9幢","full_address":"江苏省苏州市吴中区夏家桥118号9幢","info":""}},{"type":"Feature","geometry":{"type":"Point","coordinates":[120.543474,31.863315]},"properties":{"province":"江苏省","city":"苏州市","county":"张家港市","community":"花语江南20幢","full_address":"江苏省苏州市张家港市花语江南20幢","info":""}},{"type":"Feature","geometry":{"type":"Point","coordinates":[120.724927,31.307636]},"properties":{"province":"江苏省","city":"苏州市","county":"吴中区","community":"南山·丽舍40幢","full_address":"江苏省苏州市吴中区南山·丽舍40幢","info":""}},{"type":"Feature","geometry":{"type":"Point","coordinates":[120.798831,31.307847]},"properties":{"province":"江苏省","city":"苏州市","county":"吴中区","community":"阳浦路150号1幢","full_address":"江苏省苏州市吴中区阳浦路150号1幢","info":""}},{"type":"Feature","geometry":{"type":"Point","coordinates":[120.772269,31.301162]},"properties":{"province":"江苏省","city":"苏州市","county":"吴中区","community":"文华公寓4号楼","full_address":"江苏省苏州市吴中区文华公寓4号楼","info":""}},{"type":"Feature","geometry":{"type":"Point","coordinates":[120.730928,31.330875]},"properties":{"province":"江苏省","city":"苏州市","county":"吴中区","community":"绿地·华尔道名邸小区","full_address":"江苏省苏州市吴中区绿地·华尔道名邸小区","info":""}},{"type":"Feature","geometry":{"type":"Point","coordinates":[120.612036,31.39136]},"properties":{"province":"江苏省","city":"苏州市","county":"相城区","community":"苏州万科魅力花园3幢","full_address":"江苏省苏州市相城区苏州万科魅力花园3幢","info":""}},{"type":"Feature","geometry":{"type":"Point","coordinates":[120.637113,31.337995]},"properties":{"province":"江苏省","city":"苏州市","county":"相城区","community":"官渡花园26幢","full_address":"江苏省苏州市相城区官渡花园26幢","info":""}},{"type":"Feature","geometry":{"type":"Point","coordinates":[120.611026,31.365436]},"properties":{"province":"江苏省","city":"苏州市","county":"相城区","community":"合景峰汇8期12幢","full_address":"江苏省苏州市相城区合景峰汇8期12幢","info":""}},{"type":"Feature","geometry":{"type":"Point","coordinates":[120.557012,31.305504]},"properties":{"province":"江苏省","city":"苏州市","county":"虎丘区","community":"万宇名都花园5幢","full_address":"江苏省苏州市虎丘区万宇名都花园5幢","info":""}},{"type":"Feature","geometry":{"type":"Point","coordinates":[120.599763,31.514579]},"properties":{"province":"江苏省","city":"苏州市","county":"相城区","community":"北桥街道盛北花园45幢","full_address":"江苏省苏州市相城区北桥街道盛北花园45幢","info":""}},{"type":"Feature","geometry":{"type":"Point","coordinates":[120.606073,31.496359]},"properties":{"province":"江苏省","city":"苏州市","county":"相城区","community":"北桥街道漕韵家园28幢","full_address":"江苏省苏州市相城区北桥街道漕韵家园28幢","info":""}},{"type":"Feature","geometry":{"type":"Point","coordinates":[120.777641,31.582919]},"properties":{"province":"江苏省","city":"苏州市","county":"常熟市","community":"紫晶城5幢","full_address":"江苏省苏州市常熟市紫晶城5幢","info":""}},{"type":"Feature","geometry":{"type":"Point","coordinates":[120.820394,31.620383]},"properties":{"province":"江苏省","city":"苏州市","county":"常熟市","community":"中欧假日花园9幢","full_address":"江苏省苏州市常熟市中欧假日花园9幢","info":""}},{"type":"Feature","geometry":{"type":"Point","coordinates":[120.637538,31.787646]},"properties":{"province":"江苏省","city":"苏州市","county":"张家港市","community":"凤凰镇金谷小区18、19幢","full_address":"江苏省苏州市张家港市凤凰镇金谷小区18、19幢","info":""}},{"type":"Feature","geometry":{"type":"Point","coordinates":[120.568943,31.867417]},"properties":{"province":"江苏省","city":"苏州市","county":"张家港市","community":"杨舍镇君临新城6号楼","full_address":"江苏省苏州市张家港市杨舍镇君临新城6号楼","info":""}},{"type":"Feature","geometry":{"type":"Point","coordinates":[120.63542,31.777703]},"properties":{"province":"江苏省","city":"苏州市","county":"张家港市","community":"凤凰镇双龙花园62幢","full_address":"江苏省苏州市张家港市凤凰镇双龙花园62幢","info":""}},{"type":"Feature","geometry":{"type":"Point","coordinates":[120.57061,31.86039]},"properties":{"province":"江苏省","city":"苏州市","county":"张家港市","community":"杨舍镇民丰苑西区21幢、29幢","full_address":"江苏省苏州市张家港市杨舍镇民丰苑西区21幢、29幢","info":""}},{"type":"Feature","geometry":{"type":"Point","coordinates":[117.537741,49.580289]},"properties":{"province":"内蒙古自治区","city":"呼伦贝尔市","county":"满洲里市","community":"南区街道","full_address":"内蒙古自治区呼伦贝尔市满洲里市南区街道","info":""}},{"type":"Feature","geometry":{"type":"Point","coordinates":[111.673557,40.784284]},"properties":{"province":"内蒙古自治区","city":"呼和浩特市","county":"玉泉区","community":"兴隆巷街道四里营东社区","full_address":"内蒙古自治区呼和浩特市玉泉区兴隆巷街道四里营东社区","info":""}},{"type":"Feature","geometry":{"type":"Point","coordinates":[111.617723,40.753108]},"properties":{"province":"内蒙古自治区","city":"呼和浩特市","county":"玉泉区","community":"小黑河镇祥和苑社区","full_address":"内蒙古自治区呼和浩特市玉泉区小黑河镇祥和苑社区","info":""}},{"type":"Feature","geometry":{"type":"Point","coordinates":[111.676027,40.799583]},"properties":{"province":"内蒙古自治区","city":"呼和浩特市","county":"玉泉区","community":"石东路街道苁蓉社区","full_address":"内蒙古自治区呼和浩特市玉泉区石东路街道苁蓉社区","info":""}},{"type":"Feature","geometry":{"type":"Point","coordinates":[111.735642,40.796151]},"properties":{"province":"内蒙古自治区","city":"呼和浩特市","county":"赛罕区","community":"昭乌达南路街道小台什社区","full_address":"内蒙古自治区呼和浩特市赛罕区昭乌达南路街道小台什社区","info":""}},{"type":"Feature","geometry":{"type":"Point","coordinates":[111.434867,40.738605]},"properties":{"province":"内蒙古自治区","city":"呼和浩特市","county":"土默特左旗","community":"敕勒川街道怡水园社区","full_address":"内蒙古自治区呼和浩特市土默特左旗敕勒川街道怡水园社区","info":""}},{"type":"Feature","geometry":{"type":"Point","coordinates":[111.844242,40.899113]},"properties":{"province":"内蒙古自治区","city":"呼和浩特市","county":"赛罕区","community":"巴彦镇学苑社区","full_address":"内蒙古自治区呼和浩特市赛罕区巴彦镇学苑社区","info":""}},{"type":"Feature","geometry":{"type":"Point","coordinates":[111.725512,40.824324]},"properties":{"province":"内蒙古自治区","city":"呼和浩特市","county":"赛罕区","community":"中专路街道园艺所社区","full_address":"内蒙古自治区呼和浩特市赛罕区中专路街道园艺所社区","info":""}},{"type":"Feature","geometry":{"type":"Point","coordinates":[111.73461,40.814147]},"properties":{"province":"内蒙古自治区","city":"呼和浩特市","county":"赛罕区","community":"巨海社区","full_address":"内蒙古自治区呼和浩特市赛罕区巨海社区","info":""}},{"type":"Feature","geometry":{"type":"Point","coordinates":[111.706432,40.829107]},"properties":{"province":"内蒙古自治区","city":"呼和浩特市","county":"赛罕区","community":"乌兰察布路街道长乐宫社区","full_address":"内蒙古自治区呼和浩特市赛罕区乌兰察布路街道长乐宫社区","info":""}},{"type":"Feature","geometry":{"type":"Point","coordinates":[111.713255,40.830047]},"properties":{"province":"内蒙古自治区","city":"呼和浩特市","county":"赛罕区","community":"军区第三干休所社区","full_address":"内蒙古自治区呼和浩特市赛罕区军区第三干休所社区","info":""}},{"type":"Feature","geometry":{"type":"Point","coordinates":[111.668289,40.856504]},"properties":{"province":"内蒙古自治区","city":"呼和浩特市","county":"新城区","community":"成吉思汗街道东河社区","full_address":"内蒙古自治区呼和浩特市新城区成吉思汗街道东河社区","info":""}},{"type":"Feature","geometry":{"type":"Point","coordinates":[111.768952,40.676048]},"properties":{"province":"内蒙古自治区","city":"呼和浩特市","county":"赛罕区","community":"毫沁营村","full_address":"内蒙古自治区呼和浩特市赛罕区毫沁营村","info":""}},{"type":"Feature","geometry":{"type":"Point","coordinates":[111.655903,40.865745]},"properties":{"province":"内蒙古自治区","city":"呼和浩特市","county":"新城区","community":"代洲营村","full_address":"内蒙古自治区呼和浩特市新城区代洲营村","info":""}},{"type":"Feature","geometry":{"type":"Point","coordinates":[111.704516,40.84414]},"properties":{"province":"内蒙古自治区","city":"呼和浩特市","county":"新城区","community":"东风路街道丽苑社区","full_address":"内蒙古自治区呼和浩特市新城区东风路街道丽苑社区","info":""}},{"type":"Feature","geometry":{"type":"Point","coordinates":[111.714515,40.838695]},"properties":{"province":"内蒙古自治区","city":"呼和浩特市","county":"新城区","community":"芳汀花园社区","full_address":"内蒙古自治区呼和浩特市新城区芳汀花园社区","info":""}},{"type":"Feature","geometry":{"type":"Point","coordinates":[111.710304,40.840901]},"properties":{"province":"内蒙古自治区","city":"呼和浩特市","county":"新城区","community":"祥园社区","full_address":"内蒙古自治区呼和浩特市新城区祥园社区","info":""}},{"type":"Feature","geometry":{"type":"Point","coordinates":[111.709294,40.835767]},"properties":{"province":"内蒙古自治区","city":"呼和浩特市","county":"新城区","community":"东影北街社区","full_address":"内蒙古自治区呼和浩特市新城区东影北街社区","info":""}},{"type":"Feature","geometry":{"type":"Point","coordinates":[111.623499,40.746316]},"properties":{"province":"内蒙古自治区","city":"呼和浩特市","county":"玉泉区","community":"土左旗白庙子镇瓦房院新村","full_address":"内蒙古自治区呼和浩特市玉泉区土左旗白庙子镇瓦房院新村","info":""}},{"type":"Feature","geometry":{"type":"Point","coordinates":[111.589987,40.696379]},"properties":{"province":"内蒙古自治区","city":"呼和浩特市","county":"土默特左旗","community":"碱房村","full_address":"内蒙古自治区呼和浩特市土默特左旗碱房村","info":""}},{"type":"Feature","geometry":{"type":"Point","coordinates":[111.644745,40.803819]},"properties":{"province":"内蒙古自治区","city":"呼和浩特市","county":"回民区","community":"环河街街道县府街社区","full_address":"内蒙古自治区呼和浩特市回民区环河街街道县府街社区","info":""}},{"type":"Feature","geometry":{"type":"Point","coordinates":[111.611943,40.825538]},"properties":{"province":"内蒙古自治区","city":"呼和浩特市","county":"回民区","community":"攸攸板镇攸攸板村","full_address":"内蒙古自治区呼和浩特市回民区攸攸板镇攸攸板村","info":""}},{"type":"Feature","geometry":{"type":"Point","coordinates":[111.7921,40.47854]},"properties":{"province":"内蒙古自治区","city":"呼和浩特市","county":"和林格尔县","community":"和林县经济开发区第一农场","full_address":"内蒙古自治区呼和浩特市和林格尔县和林县经济开发区第一农场","info":""}},{"type":"Feature","geometry":{"type":"Point","coordinates":[111.465756,41.080675]},"properties":{"province":"内蒙古自治区","city":"呼和浩特市","county":"武川县","community":"可镇新东街社区","full_address":"内蒙古自治区呼和浩特市武川县可镇新东街社区","info":""}},{"type":"Feature","geometry":{"type":"Point","coordinates":[104.955526,23.217932]},"properties":{"province":"云南省","city":"文山壮族苗族自治州","county":"文山市","community":"自治州麻栗坡县杨万乡哪都村委会达干村小组","full_address":"云南省文山壮族苗族自治州文山市自治州麻栗坡县杨万乡哪都村委会达干村小组","info":""}},{"type":"Feature","geometry":{"type":"Point","coordinates":[103.96027,22.508891]},"properties":{"province":"云南省","city":"红河哈尼族彝族自治州","county":"河口瑶族自治县","community":"河口县河口农场23队","full_address":"云南省红河哈尼族彝族自治州河口瑶族自治县河口县河口农场23队","info":""}}]}