{"type":"FeatureCollection","features":[{"type":"Feature","geometry":{"type":"Point","coordinates":[126.677925,45.749722]},"properties":{"province":"黑龙江省","city":"哈尔滨市","county":"南岗区","community":"南航花园B栋","full_address":"黑龙江省哈尔滨市南岗区南航花园B栋","info":""}},{"type":"Feature","geometry":{"type":"Point","coordinates":[126.63344,45.682796]},"properties":{"province":"黑龙江省","city":"哈尔滨市","county":"南岗区","community":"鲁商凤凰城3栋","full_address":"黑龙江省哈尔滨市南岗区鲁商凤凰城3栋","info":""}},{"type":"Feature","geometry":{"type":"Point","coordinates":[126.618898,45.733111]},"properties":{"province":"黑龙江省","city":"哈尔滨市","county":"南岗区","community":"清滨路14号","full_address":"黑龙江省哈尔滨市南岗区清滨路14号","info":""}},{"type":"Feature","geometry":{"type":"Point","coordinates":[126.622903,45.732233]},"properties":{"province":"黑龙江省","city":"哈尔滨市","county":"南岗区","community":"林家街10号（汉林美苑小区1号楼）","full_address":"黑龙江省哈尔滨市南岗区林家街10号（汉林美苑小区1号楼）","info":""}},{"type":"Feature","geometry":{"type":"Point","coordinates":[126.616348,45.682288]},"properties":{"province":"黑龙江省","city":"哈尔滨市","county":"南岗区","community":"哈达村","full_address":"黑龙江省哈尔滨市南岗区哈达村","info":""}},{"type":"Feature","geometry":{"type":"Point","coordinates":[128.593896,44.931483]},"properties":{"province":"黑龙江省","city":"哈尔滨市","county":"尚志市","community":"亚布力镇","full_address":"黑龙江省哈尔滨市尚志市亚布力镇","info":""}},{"type":"Feature","geometry":{"type":"Point","coordinates":[127.154248,44.916622]},"properties":{"province":"黑龙江省","city":"哈尔滨市","county":"五常市","community":"五常镇国税小区","full_address":"黑龙江省哈尔滨市五常市五常镇国税小区","info":""}},{"type":"Feature","geometry":{"type":"Point","coordinates":[126.835176,45.183583]},"properties":{"province":"黑龙江省","city":"哈尔滨市","county":"五常市","community":"营城子乡南土村","full_address":"黑龙江省哈尔滨市五常市营城子乡南土村","info":""}},{"type":"Feature","geometry":{"type":"Point","coordinates":[126.903194,45.206354]},"properties":{"province":"黑龙江省","city":"哈尔滨市","county":"五常市","community":"古榆村","full_address":"黑龙江省哈尔滨市五常市古榆村","info":""}},{"type":"Feature","geometry":{"type":"Point","coordinates":[129.912114,46.732274]},"properties":{"province":"黑龙江省","city":"佳木斯市","county":"汤原县","community":"阳光花园小区","full_address":"黑龙江省佳木斯市汤原县阳光花园小区","info":""}},{"type":"Feature","geometry":{"type":"Point","coordinates":[129.904949,46.723757]},"properties":{"province":"黑龙江省","city":"佳木斯市","county":"汤原县","community":"清华C区6号楼","full_address":"黑龙江省佳木斯市汤原县清华C区6号楼","info":""}},{"type":"Feature","geometry":{"type":"Point","coordinates":[129.905692,46.724319]},"properties":{"province":"黑龙江省","city":"佳木斯市","county":"汤原县","community":"清华C区12号楼","full_address":"黑龙江省佳木斯市汤原县清华C区12号楼","info":""}},{"type":"Feature","geometry":{"type":"Point","coordinates":[129.901198,46.724054]},"properties":{"province":"黑龙江省","city":"佳木斯市","county":"汤原县","community":"理想家园6号楼","full_address":"黑龙江省佳木斯市汤原县理想家园6号楼","info":""}},{"type":"Feature","geometry":{"type":"Point","coordinates":[129.898677,46.724221]},"properties":{"province":"黑龙江省","city":"佳木斯市","county":"汤原县","community":"理想家园10号楼","full_address":"黑龙江省佳木斯市汤原县理想家园10号楼","info":""}},{"type":"Feature","geometry":{"type":"Point","coordinates":[129.900059,46.724267]},"properties":{"province":"黑龙江省","city":"佳木斯市","county":"汤原县","community":"理想家园11号楼","full_address":"黑龙江省佳木斯市汤原县理想家园11号楼","info":""}},{"type":"Feature","geometry":{"type":"Point","coordinates":[129.917159,46.729524]},"properties":{"province":"黑龙江省","city":"佳木斯市","county":"汤原县","community":"学府新城10号楼","full_address":"黑龙江省佳木斯市汤原县学府新城10号楼","info":""}},{"type":"Feature","geometry":{"type":"Point","coordinates":[129.891126,46.727113]},"properties":{"province":"黑龙江省","city":"佳木斯市","county":"汤原县","community":"清华新城5号楼","full_address":"黑龙江省佳木斯市汤原县清华新城5号楼","info":""}},{"type":"Feature","geometry":{"type":"Point","coordinates":[129.900167,46.729744]},"properties":{"province":"黑龙江省","city":"佳木斯市","county":"汤原县","community":"清华新城12号楼","full_address":"黑龙江省佳木斯市汤原县清华新城12号楼","info":""}},{"type":"Feature","geometry":{"type":"Point","coordinates":[132.509452,47.656448]},"properties":{"province":"黑龙江省","city":"佳木斯市","county":"同江市","community":"幸福家园3号楼","full_address":"黑龙江省佳木斯市同江市幸福家园3号楼","info":""}},{"type":"Feature","geometry":{"type":"Point","coordinates":[132.509452,47.656448]},"properties":{"province":"黑龙江省","city":"佳木斯市","county":"同江市","community":"幸福家园4号楼","full_address":"黑龙江省佳木斯市同江市幸福家园4号楼","info":""}},{"type":"Feature","geometry":{"type":"Point","coordinates":[132.509452,47.656448]},"properties":{"province":"黑龙江省","city":"佳木斯市","county":"同江市","community":"幸福家园8号楼","full_address":"黑龙江省佳木斯市同江市幸福家园8号楼","info":""}},{"type":"Feature","geometry":{"type":"Point","coordinates":[129.563872,44.588312]},"properties":{"province":"黑龙江省","city":"牡丹江市","county":"爱民区","community":"文化社区","full_address":"黑龙江省牡丹江市爱民区文化社区","info":""}},{"type":"Feature","geometry":{"type":"Point","coordinates":[129.583417,44.586995]},"properties":{"province":"黑龙江省","city":"牡丹江市","county":"爱民区","community":"明月社区","full_address":"黑龙江省牡丹江市爱民区明月社区","info":""}},{"type":"Feature","geometry":{"type":"Point","coordinates":[129.610847,44.608947]},"properties":{"province":"黑龙江省","city":"牡丹江市","county":"爱民区","community":"地明安居社区","full_address":"黑龙江省牡丹江市爱民区地明安居社区","info":""}},{"type":"Feature","geometry":{"type":"Point","coordinates":[129.595953,44.596473]},"properties":{"province":"黑龙江省","city":"牡丹江市","county":"爱民区","community":"建卫社区","full_address":"黑龙江省牡丹江市爱民区建卫社区","info":""}},{"type":"Feature","geometry":{"type":"Point","coordinates":[129.58395,44.587264]},"properties":{"province":"黑龙江省","city":"牡丹江市","county":"爱民区","community":"兴平社区","full_address":"黑龙江省牡丹江市爱民区兴平社区","info":""}},{"type":"Feature","geometry":{"type":"Point","coordinates":[113.763755,23.117365]},"properties":{"province":"广东省","city":"东莞市","county":"高埗镇","community":"北王路高埗段86号百茂物流园","full_address":"广东省东莞市高埗镇北王路高埗段86号百茂物流园","info":""}},{"type":"Feature","geometry":{"type":"Point","coordinates":[112.773605,23.069603]},"properties":{"province":"广东省","city":"肇庆市","county":"高要区","community":"金利镇永利工业园内永顺路1至35号连片区域","full_address":"广东省肇庆市高要区金利镇永利工业园内永顺路1至35号连片区域","info":""}},{"type":"Feature","geometry":{"type":"Point","coordinates":[112.760467,23.028966]},"properties":{"province":"广东省","city":"肇庆市","county":"高要区","community":"金利镇罗客村","full_address":"广东省肇庆市高要区金利镇罗客村","info":""}},{"type":"Feature","geometry":{"type":"Point","coordinates":[117.192002,34.298356]},"properties":{"province":"江苏省","city":"徐州市","county":"鼓楼区","community":"荆南小区2号楼","full_address":"江苏省徐州市鼓楼区荆南小区2号楼","info":""}},{"type":"Feature","geometry":{"type":"Point","coordinates":[117.193936,34.297438]},"properties":{"province":"江苏省","city":"徐州市","county":"鼓楼区","community":"荆南小区14号楼","full_address":"江苏省徐州市鼓楼区荆南小区14号楼","info":""}},{"type":"Feature","geometry":{"type":"Point","coordinates":[117.189526,34.300988]},"properties":{"province":"江苏省","city":"徐州市","county":"鼓楼区","community":"华美东观园10号楼","full_address":"江苏省徐州市鼓楼区华美东观园10号楼","info":""}},{"type":"Feature","geometry":{"type":"Point","coordinates":[117.193151,34.297988]},"properties":{"province":"江苏省","city":"徐州市","county":"鼓楼区","community":"中山北路336-6","full_address":"江苏省徐州市鼓楼区中山北路336-6","info":""}},{"type":"Feature","geometry":{"type":"Point","coordinates":[117.50224,34.433934]},"properties":{"province":"江苏省","city":"徐州市","county":"贾汪区","community":"山水路商业街A-1-24","full_address":"江苏省徐州市贾汪区山水路商业街A-1-24","info":""}},{"type":"Feature","geometry":{"type":"Point","coordinates":[117.20106,34.29037]},"properties":{"province":"江苏省","city":"徐州市","county":"鼓楼区","community":"环城街道朱庄小区25号楼","full_address":"江苏省徐州市鼓楼区环城街道朱庄小区25号楼","info":""}},{"type":"Feature","geometry":{"type":"Point","coordinates":[117.195356,34.274141]},"properties":{"province":"江苏省","city":"徐州市","county":"鼓楼区","community":"环城路坝子街60号弘辉大厦","full_address":"江苏省徐州市鼓楼区环城路坝子街60号弘辉大厦","info":""}},{"type":"Feature","geometry":{"type":"Point","coordinates":[117.583403,34.448386]},"properties":{"province":"江苏省","city":"徐州市","county":"贾汪区","community":"汴塘镇孟省村","full_address":"江苏省徐州市贾汪区汴塘镇孟省村","info":""}},{"type":"Feature","geometry":{"type":"Point","coordinates":[117.601987,34.435682]},"properties":{"province":"江苏省","city":"徐州市","county":"贾汪区","community":"朱古村","full_address":"江苏省徐州市贾汪区朱古村","info":""}},{"type":"Feature","geometry":{"type":"Point","coordinates":[117.163237,34.260278]},"properties":{"province":"江苏省","city":"徐州市","county":"泉山区","community":"永安街道煤建路169小区7号楼","full_address":"江苏省徐州市泉山区永安街道煤建路169小区7号楼","info":""}},{"type":"Feature","geometry":{"type":"Point","coordinates":[117.15899,34.265656]},"properties":{"province":"江苏省","city":"徐州市","county":"泉山区","community":"余二菜馆（矿南小区24号楼西侧平房）","full_address":"江苏省徐州市泉山区余二菜馆（矿南小区24号楼西侧平房）","info":""}},{"type":"Feature","geometry":{"type":"Point","coordinates":[117.949817,33.934166]},"properties":{"province":"江苏省","city":"徐州市","county":"睢宁县","community":"景湖小区一期4号楼","full_address":"江苏省徐州市睢宁县景湖小区一期4号楼","info":""}},{"type":"Feature","geometry":{"type":"Point","coordinates":[117.95348,33.917102]},"properties":{"province":"江苏省","city":"徐州市","county":"睢宁县","community":"李岳小区18号楼","full_address":"江苏省徐州市睢宁县李岳小区18号楼","info":""}},{"type":"Feature","geometry":{"type":"Point","coordinates":[117.258779,34.244545]},"properties":{"province":"江苏省","city":"徐州市","county":"云龙区","community":"翠屏山街道玉兰苑C1号楼","full_address":"江苏省徐州市云龙区翠屏山街道玉兰苑C1号楼","info":""}},{"type":"Feature","geometry":{"type":"Point","coordinates":[119.364421,43.972558]},"properties":{"province":"内蒙古自治区","city":"赤峰市","county":"巴林左旗","community":"林东西城街道赛汗小区","full_address":"内蒙古自治区赤峰市巴林左旗林东西城街道赛汗小区","info":""}},{"type":"Feature","geometry":{"type":"Point","coordinates":[121.273533,31.319578]},"properties":{"province":"上海市","city":"市辖区","county":"嘉定区","community":"马陆镇康年路261号工地宿舍","full_address":"上海市市辖区嘉定区马陆镇康年路261号工地宿舍","info":""}},{"type":"Feature","geometry":{"type":"Point","coordinates":[121.290151,31.242066]},"properties":{"province":"上海市","city":"市辖区","county":"嘉定区","community":"江桥镇增建村柴中村民组","full_address":"上海市市辖区嘉定区江桥镇增建村柴中村民组","info":""}},{"type":"Feature","geometry":{"type":"Point","coordinates":[121.595133,31.341665]},"properties":{"province":"上海市","city":"市辖区","county":"浦东新区","community":"日京路88号","full_address":"上海市市辖区浦东新区日京路88号","info":""}},{"type":"Feature","geometry":{"type":"Point","coordinates":[121.551406,31.168369]},"properties":{"province":"上海市","city":"市辖区","county":"浦东新区","community":"北蔡镇联勤村冯桥南宅","full_address":"上海市市辖区浦东新区北蔡镇联勤村冯桥南宅","info":""}},{"type":"Feature","geometry":{"type":"Point","coordinates":[121.556073,31.171023]},"properties":{"province":"上海市","city":"市辖区","county":"浦东新区","community":"北蔡镇鹏飞路411弄6号","full_address":"上海市市辖区浦东新区北蔡镇鹏飞路411弄6号","info":""}},{"type":"Feature","geometry":{"type":"Point","coordinates":[121.622679,31.141287]},"properties":{"province":"上海市","city":"市辖区","county":"浦东新区","community":"康桥镇苗桥路935弄19号","full_address":"上海市市辖区浦东新区康桥镇苗桥路935弄19号","info":""}},{"type":"Feature","geometry":{"type":"Point","coordinates":[121.559153,31.15801]},"properties":{"province":"上海市","city":"市辖区","county":"浦东新区","community":"北蔡镇御北路235号","full_address":"上海市市辖区浦东新区北蔡镇御北路235号","info":""}},{"type":"Feature","geometry":{"type":"Point","coordinates":[121.434136,31.075312]},"properties":{"province":"上海市","city":"市辖区","county":"闵行区","community":"梅陇镇许泾村八组","full_address":"上海市市辖区闵行区梅陇镇许泾村八组","info":""}},{"type":"Feature","geometry":{"type":"Point","coordinates":[121.427627,31.115935]},"properties":{"province":"上海市","city":"市辖区","county":"闵行区","community":"梅陇镇行南村三队","full_address":"上海市市辖区闵行区梅陇镇行南村三队","info":""}},{"type":"Feature","geometry":{"type":"Point","coordinates":[121.330245,31.226634]},"properties":{"province":"上海市","city":"市辖区","county":"闵行区","community":"华漕镇许浦村三队","full_address":"上海市市辖区闵行区华漕镇许浦村三队","info":""}},{"type":"Feature","geometry":{"type":"Point","coordinates":[121.479018,31.211278]},"properties":{"province":"上海市","city":"市辖区","county":"黄浦区","community":"打浦桥街道顺昌路612弄20号","full_address":"上海市市辖区黄浦区打浦桥街道顺昌路612弄20号","info":""}},{"type":"Feature","geometry":{"type":"Point","coordinates":[121.7325,31.38375]},"properties":{"province":"上海市","city":"市辖区","county":"崇明区","community":"长兴镇长明村21队","full_address":"上海市市辖区崇明区长兴镇长明村21队","info":""}},{"type":"Feature","geometry":{"type":"Point","coordinates":[121.714608,31.38134]},"properties":{"province":"上海市","city":"市辖区","county":"崇明区","community":"长兴镇新港村15队","full_address":"上海市市辖区崇明区长兴镇新港村15队","info":""}},{"type":"Feature","geometry":{"type":"Point","coordinates":[126.23902,43.981428]},"properties":{"province":"吉林省","city":"吉林市","county":"昌邑区","community":"桦皮厂镇桦东村","full_address":"吉林省吉林市昌邑区桦皮厂镇桦东村","info":""}},{"type":"Feature","geometry":{"type":"Point","coordinates":[126.299524,44.058281]},"properties":{"province":"吉林省","city":"吉林市","county":"昌邑区","community":"桦皮厂镇张相村","full_address":"吉林省吉林市昌邑区桦皮厂镇张相村","info":""}},{"type":"Feature","geometry":{"type":"Point","coordinates":[126.262059,44.073294]},"properties":{"province":"吉林省","city":"吉林市","county":"昌邑区","community":"两家子乡李屯村","full_address":"吉林省吉林市昌邑区两家子乡李屯村","info":""}},{"type":"Feature","geometry":{"type":"Point","coordinates":[126.233367,43.951069]},"properties":{"province":"吉林省","city":"吉林市","county":"昌邑区","community":"桦皮厂镇苏登河村四组","full_address":"吉林省吉林市昌邑区桦皮厂镇苏登河村四组","info":""}},{"type":"Feature","geometry":{"type":"Point","coordinates":[126.286414,43.966967]},"properties":{"province":"吉林省","city":"吉林市","county":"昌邑区","community":"桦皮厂镇漂洋村十二组","full_address":"吉林省吉林市昌邑区桦皮厂镇漂洋村十二组","info":""}},{"type":"Feature","geometry":{"type":"Point","coordinates":[126.326083,43.964282]},"properties":{"province":"吉林省","city":"吉林市","county":"昌邑区","community":"桦皮厂镇永胜村十二组","full_address":"吉林省吉林市昌邑区桦皮厂镇永胜村十二组","info":""}},{"type":"Feature","geometry":{"type":"Point","coordinates":[126.27606,44.134377]},"properties":{"province":"吉林省","city":"吉林市","county":"昌邑区","community":"两家子乡两家子村二组","full_address":"吉林省吉林市昌邑区两家子乡两家子村二组","info":""}},{"type":"Feature","geometry":{"type":"Point","coordinates":[126.524277,43.8744]},"properties":{"province":"吉林省","city":"吉林市","county":"昌邑区","community":"哈达湾经济开发区神华万利城16栋3单元","full_address":"吉林省吉林市昌邑区哈达湾经济开发区神华万利城16栋3单元","info":""}},{"type":"Feature","geometry":{"type":"Point","coordinates":[126.533322,43.882636]},"properties":{"province":"吉林省","city":"吉林市","county":"昌邑区","community":"哈达湾街道汇丰家园小区15号楼2单元","full_address":"吉林省吉林市昌邑区哈达湾街道汇丰家园小区15号楼2单元","info":""}},{"type":"Feature","geometry":{"type":"Point","coordinates":[126.565927,43.872006]},"properties":{"province":"吉林省","city":"吉林市","county":"昌邑区","community":"站前街道桃花源小区1号楼1单元","full_address":"吉林省吉林市昌邑区站前街道桃花源小区1号楼1单元","info":""}},{"type":"Feature","geometry":{"type":"Point","coordinates":[126.56254,43.86556]},"properties":{"province":"吉林省","city":"吉林市","county":"昌邑区","community":"民主街道运河里小区15号楼3单元","full_address":"吉林省吉林市昌邑区民主街道运河里小区15号楼3单元","info":""}},{"type":"Feature","geometry":{"type":"Point","coordinates":[126.553988,43.871482]},"properties":{"province":"吉林省","city":"吉林市","county":"昌邑区","community":"莲花街道卢瓦尔小镇D38号楼","full_address":"吉林省吉林市昌邑区莲花街道卢瓦尔小镇D38号楼","info":""}},{"type":"Feature","geometry":{"type":"Point","coordinates":[126.563596,43.8694]},"properties":{"province":"吉林省","city":"吉林市","county":"昌邑区","community":"莲花街道朝阳鸿祥苑15号楼3单元","full_address":"吉林省吉林市昌邑区莲花街道朝阳鸿祥苑15号楼3单元","info":""}},{"type":"Feature","geometry":{"type":"Point","coordinates":[126.237019,43.988542]},"properties":{"province":"吉林省","city":"吉林市","county":"昌邑区","community":"桦皮厂镇鳌龙河村","full_address":"吉林省吉林市昌邑区桦皮厂镇鳌龙河村","info":""}},{"type":"Feature","geometry":{"type":"Point","coordinates":[126.325147,44.057443]},"properties":{"province":"吉林省","city":"吉林市","county":"昌邑区","community":"桦皮厂镇东风村","full_address":"吉林省吉林市昌邑区桦皮厂镇东风村","info":""}},{"type":"Feature","geometry":{"type":"Point","coordinates":[126.259943,44.040335]},"properties":{"province":"吉林省","city":"吉林市","county":"昌邑区","community":"桦皮厂镇乐园村","full_address":"吉林省吉林市昌邑区桦皮厂镇乐园村","info":""}},{"type":"Feature","geometry":{"type":"Point","coordinates":[126.288934,43.989369]},"properties":{"province":"吉林省","city":"吉林市","county":"昌邑区","community":"桦皮厂镇乔屯村","full_address":"吉林省吉林市昌邑区桦皮厂镇乔屯村","info":""}},{"type":"Feature","geometry":{"type":"Point","coordinates":[126.300591,44.043111]},"properties":{"province":"吉林省","city":"吉林市","county":"昌邑区","community":"桦皮厂镇庆祥村","full_address":"吉林省吉林市昌邑区桦皮厂镇庆祥村","info":""}},{"type":"Feature","geometry":{"type":"Point","coordinates":[126.569199,43.861556]},"properties":{"province":"吉林省","city":"吉林市","county":"昌邑区","community":"民主街道兴国胡同27号岔路乡公寓","full_address":"吉林省吉林市昌邑区民主街道兴国胡同27号岔路乡公寓","info":""}},{"type":"Feature","geometry":{"type":"Point","coordinates":[126.596294,43.846326]},"properties":{"province":"吉林省","city":"吉林市","county":"昌邑区","community":"东局子街道嘉业花园小区1号楼5单元","full_address":"吉林省吉林市昌邑区东局子街道嘉业花园小区1号楼5单元","info":""}},{"type":"Feature","geometry":{"type":"Point","coordinates":[126.573556,43.876466]},"properties":{"province":"吉林省","city":"吉林市","county":"昌邑区","community":"兴华街道兴田上城7号楼A座","full_address":"吉林省吉林市昌邑区兴华街道兴田上城7号楼A座","info":""}},{"type":"Feature","geometry":{"type":"Point","coordinates":[126.445723,44.05748]},"properties":{"province":"吉林省","city":"吉林市","county":"昌邑区","community":"土城子乡聂司马村1组","full_address":"吉林省吉林市昌邑区土城子乡聂司马村1组","info":""}},{"type":"Feature","geometry":{"type":"Point","coordinates":[126.280836,44.117286]},"properties":{"province":"吉林省","city":"吉林市","county":"昌邑区","community":"两家子乡盆窑村3组","full_address":"吉林省吉林市昌邑区两家子乡盆窑村3组","info":""}},{"type":"Feature","geometry":{"type":"Point","coordinates":[126.376531,43.987525]},"properties":{"province":"吉林省","city":"吉林市","county":"昌邑区","community":"孤店子镇孤店子村","full_address":"吉林省吉林市昌邑区孤店子镇孤店子村","info":""}},{"type":"Feature","geometry":{"type":"Point","coordinates":[126.546641,43.873728]},"properties":{"province":"吉林省","city":"吉林市","county":"昌邑区","community":"哈达湾街道绿地福林小区10-3栋2单元","full_address":"吉林省吉林市昌邑区哈达湾街道绿地福林小区10-3栋2单元","info":""}},{"type":"Feature","geometry":{"type":"Point","coordinates":[126.198529,43.904455]},"properties":{"province":"吉林省","city":"吉林市","county":"昌邑区","community":"桦皮厂镇平胜村","full_address":"吉林省吉林市昌邑区桦皮厂镇平胜村","info":""}},{"type":"Feature","geometry":{"type":"Point","coordinates":[126.575709,43.870812]},"properties":{"province":"吉林省","city":"吉林市","county":"昌邑区","community":"莲花街道沈铁幸福里小区12号楼2单元","full_address":"吉林省吉林市昌邑区莲花街道沈铁幸福里小区12号楼2单元","info":""}},{"type":"Feature","geometry":{"type":"Point","coordinates":[126.177675,44.083511]},"properties":{"province":"吉林省","city":"吉林市","county":"昌邑区","community":"左家镇小土门村5组","full_address":"吉林省吉林市昌邑区左家镇小土门村5组","info":""}},{"type":"Feature","geometry":{"type":"Point","coordinates":[126.247999,44.06267]},"properties":{"province":"吉林省","city":"吉林市","county":"昌邑区","community":"左家镇王家岭村","full_address":"吉林省吉林市昌邑区左家镇王家岭村","info":""}},{"type":"Feature","geometry":{"type":"Point","coordinates":[126.521812,43.854495]},"properties":{"province":"吉林省","city":"吉林市","county":"船营区","community":"致和街道森邻里小区23号楼4单元","full_address":"吉林省吉林市船营区致和街道森邻里小区23号楼4单元","info":""}},{"type":"Feature","geometry":{"type":"Point","coordinates":[126.544244,43.853315]},"properties":{"province":"吉林省","city":"吉林市","county":"船营区","community":"北极街道望云山景小区","full_address":"吉林省吉林市船营区北极街道望云山景小区","info":""}},{"type":"Feature","geometry":{"type":"Point","coordinates":[126.549974,43.847838]},"properties":{"province":"吉林省","city":"吉林市","county":"船营区","community":"青岛街道庆丰小区12号楼5单元","full_address":"吉林省吉林市船营区青岛街道庆丰小区12号楼5单元","info":""}},{"type":"Feature","geometry":{"type":"Point","coordinates":[126.530425,43.834279]},"properties":{"province":"吉林省","city":"吉林市","county":"船营区","community":"北山街道乐园一区17号楼","full_address":"吉林省吉林市船营区北山街道乐园一区17号楼","info":""}},{"type":"Feature","geometry":{"type":"Point","coordinates":[126.527867,43.833296]},"properties":{"province":"吉林省","city":"吉林市","county":"船营区","community":"北山街道乐园一区12号楼","full_address":"吉林省吉林市船营区北山街道乐园一区12号楼","info":""}},{"type":"Feature","geometry":{"type":"Point","coordinates":[126.415012,43.925168]},"properties":{"province":"吉林省","city":"吉林市","county":"船营区","community":"新北街道张久村6社","full_address":"吉林省吉林市船营区新北街道张久村6社","info":""}},{"type":"Feature","geometry":{"type":"Point","coordinates":[126.583233,43.821663]},"properties":{"province":"吉林省","city":"吉林市","county":"丰满区","community":"龙城帝景小区103栋","full_address":"吉林省吉林市丰满区龙城帝景小区103栋","info":""}},{"type":"Feature","geometry":{"type":"Point","coordinates":[126.573454,43.822467]},"properties":{"province":"吉林省","city":"吉林市","county":"丰满区","community":"江南街道恒东花园小区1号楼2单元","full_address":"吉林省吉林市丰满区江南街道恒东花园小区1号楼2单元","info":""}},{"type":"Feature","geometry":{"type":"Point","coordinates":[126.555254,43.825065]},"properties":{"province":"吉林省","city":"吉林市","county":"丰满区","community":"泰山街道如一坊中央公园8号楼","full_address":"吉林省吉林市丰满区泰山街道如一坊中央公园8号楼","info":""}},{"type":"Feature","geometry":{"type":"Point","coordinates":[126.416211,43.760519]},"properties":{"province":"吉林省","city":"吉林市","county":"丰满区","community":"前二道乡王相村5组","full_address":"吉林省吉林市丰满区前二道乡王相村5组","info":""}},{"type":"Feature","geometry":{"type":"Point","coordinates":[126.595412,43.779644]},"properties":{"province":"吉林省","city":"吉林市","county":"丰满区","community":"小白山乡大兰旗村4社","full_address":"吉林省吉林市丰满区小白山乡大兰旗村4社","info":""}},{"type":"Feature","geometry":{"type":"Point","coordinates":[126.56216,43.748022]},"properties":{"province":"吉林省","city":"吉林市","county":"丰满区","community":"小白山乡鸡冠山村1社","full_address":"吉林省吉林市丰满区小白山乡鸡冠山村1社","info":""}},{"type":"Feature","geometry":{"type":"Point","coordinates":[126.476087,43.945608]},"properties":{"province":"吉林省","city":"吉林市","county":"昌邑区","community":"经开区九站街道雾凇水岸小区","full_address":"吉林省吉林市昌邑区经开区九站街道雾凇水岸小区","info":""}},{"type":"Feature","geometry":{"type":"Point","coordinates":[126.563153,43.921458]},"properties":{"province":"吉林省","city":"吉林市","county":"龙潭区","community":"山前街道万兴家和小区1号楼2单元","full_address":"吉林省吉林市龙潭区山前街道万兴家和小区1号楼2单元","info":""}},{"type":"Feature","geometry":{"type":"Point","coordinates":[126.604061,43.870512]},"properties":{"province":"吉林省","city":"吉林市","county":"龙潭区","community":"承德街道江山如画小区3号楼3单元","full_address":"吉林省吉林市龙潭区承德街道江山如画小区3号楼3单元","info":""}},{"type":"Feature","geometry":{"type":"Point","coordinates":[126.395209,43.129761]},"properties":{"province":"吉林省","city":"吉林市","county":"磐石市","community":"驿马镇滚马岭村样子沟屯","full_address":"吉林省吉林市磐石市驿马镇滚马岭村样子沟屯","info":""}},{"type":"Feature","geometry":{"type":"Point","coordinates":[126.592952,43.445757]},"properties":{"province":"吉林省","city":"吉林市","county":"永吉县","community":"北大湖镇南沟村南沟家园小区","full_address":"吉林省吉林市永吉县北大湖镇南沟村南沟家园小区","info":""}},{"type":"Feature","geometry":{"type":"Point","coordinates":[125.266463,43.853722]},"properties":{"province":"吉林省","city":"长春市","county":"朝阳区","community":"湖西街道领秀朝阳上院","full_address":"吉林省长春市朝阳区湖西街道领秀朝阳上院","info":""}},{"type":"Feature","geometry":{"type":"Point","coordinates":[125.32061,43.887905]},"properties":{"province":"吉林省","city":"长春市","county":"朝阳区","community":"重庆街道安华公寓西安大路336号","full_address":"吉林省长春市朝阳区重庆街道安华公寓西安大路336号","info":""}},{"type":"Feature","geometry":{"type":"Point","coordinates":[125.301177,43.832593]},"properties":{"province":"吉林省","city":"长春市","county":"朝阳区","community":"大学卫星路以南八公寓","full_address":"吉林省长春市朝阳区大学卫星路以南八公寓","info":""}},{"type":"Feature","geometry":{"type":"Point","coordinates":[125.27242,43.8631]},"properties":{"province":"吉林省","city":"长春市","county":"朝阳区","community":"湖西街道开运街1629号楼","full_address":"吉林省长春市朝阳区湖西街道开运街1629号楼","info":""}},{"type":"Feature","geometry":{"type":"Point","coordinates":[125.28454,43.865406]},"properties":{"province":"吉林省","city":"长春市","county":"朝阳区","community":"湖西街道新星宇福苑二期","full_address":"吉林省长春市朝阳区湖西街道新星宇福苑二期","info":""}},{"type":"Feature","geometry":{"type":"Point","coordinates":[125.71844,44.541116]},"properties":{"province":"吉林省","city":"长春市","county":"德惠市","community":"胜利街道龙德盛世城","full_address":"吉林省长春市德惠市胜利街道龙德盛世城","info":""}},{"type":"Feature","geometry":{"type":"Point","coordinates":[125.702123,44.545547]},"properties":{"province":"吉林省","city":"长春市","county":"德惠市","community":"胜利街道吉成福园","full_address":"吉林省长春市德惠市胜利街道吉成福园","info":""}},{"type":"Feature","geometry":{"type":"Point","coordinates":[126.531506,44.833955]},"properties":{"province":"吉林省","city":"长春市","county":"榆树市","community":"胜利街道壹号院","full_address":"吉林省长春市榆树市胜利街道壹号院","info":""}},{"type":"Feature","geometry":{"type":"Point","coordinates":[125.702626,44.530559]},"properties":{"province":"吉林省","city":"长春市","county":"德惠市","community":"建设街道盛世金城","full_address":"吉林省长春市德惠市建设街道盛世金城","info":""}},{"type":"Feature","geometry":{"type":"Point","coordinates":[125.684043,44.517571]},"properties":{"province":"吉林省","city":"长春市","county":"德惠市","community":"建设街道龙凤尚城","full_address":"吉林省长春市德惠市建设街道龙凤尚城","info":""}},{"type":"Feature","geometry":{"type":"Point","coordinates":[125.696916,44.539775]},"properties":{"province":"吉林省","city":"长春市","county":"德惠市","community":"建设街道博文雅苑","full_address":"吉林省长春市德惠市建设街道博文雅苑","info":""}},{"type":"Feature","geometry":{"type":"Point","coordinates":[125.69606,44.524101]},"properties":{"province":"吉林省","city":"长春市","county":"德惠市","community":"建设街道龙凤翔城","full_address":"吉林省长春市德惠市建设街道龙凤翔城","info":""}},{"type":"Feature","geometry":{"type":"Point","coordinates":[125.706981,44.532172]},"properties":{"province":"吉林省","city":"长春市","county":"德惠市","community":"建设街道都会公馆","full_address":"吉林省长春市德惠市建设街道都会公馆","info":""}},{"type":"Feature","geometry":{"type":"Point","coordinates":[125.353482,44.144111]},"properties":{"province":"吉林省","city":"长春市","county":"宽城区","community":"万宝镇街道","full_address":"吉林省长春市宽城区万宝镇街道","info":""}},{"type":"Feature","geometry":{"type":"Point","coordinates":[125.359496,44.146622]},"properties":{"province":"吉林省","city":"长春市","county":"宽城区","community":"万宝镇万宝村","full_address":"吉林省长春市宽城区万宝镇万宝村","info":""}},{"type":"Feature","geometry":{"type":"Point","coordinates":[125.417722,44.189451]},"properties":{"province":"吉林省","city":"长春市","county":"宽城区","community":"万宝镇顺山村","full_address":"吉林省长春市宽城区万宝镇顺山村","info":""}},{"type":"Feature","geometry":{"type":"Point","coordinates":[125.410134,44.201553]},"properties":{"province":"吉林省","city":"长春市","county":"宽城区","community":"万宝镇广太村","full_address":"吉林省长春市宽城区万宝镇广太村","info":""}},{"type":"Feature","geometry":{"type":"Point","coordinates":[125.374062,43.945028]},"properties":{"province":"吉林省","city":"长春市","county":"二道区","community":"八里堡街道力旺康城","full_address":"吉林省长春市二道区八里堡街道力旺康城","info":""}},{"type":"Feature","geometry":{"type":"Point","coordinates":[125.380928,43.94334]},"properties":{"province":"吉林省","city":"长春市","county":"二道区","community":"远达街道昊泽家园","full_address":"吉林省长春市二道区远达街道昊泽家园","info":""}},{"type":"Feature","geometry":{"type":"Point","coordinates":[125.360828,43.880558]},"properties":{"province":"吉林省","city":"长春市","county":"二道区","community":"吉林街道高格蓝湾","full_address":"吉林省长春市二道区吉林街道高格蓝湾","info":""}},{"type":"Feature","geometry":{"type":"Point","coordinates":[125.353453,43.870518]},"properties":{"province":"吉林省","city":"长春市","county":"南关区","community":"吉林街道吉盛高层小区","full_address":"吉林省长春市南关区吉林街道吉盛高层小区","info":""}},{"type":"Feature","geometry":{"type":"Point","coordinates":[125.380012,43.869608]},"properties":{"province":"吉林省","city":"长春市","county":"二道区","community":"东盛街道上东城市之光","full_address":"吉林省长春市二道区东盛街道上东城市之光","info":""}},{"type":"Feature","geometry":{"type":"Point","coordinates":[125.400448,43.88338]},"properties":{"province":"吉林省","city":"长春市","county":"二道区","community":"长青街道十方界","full_address":"吉林省长春市二道区长青街道十方界","info":""}},{"type":"Feature","geometry":{"type":"Point","coordinates":[125.335224,43.877682]},"properties":{"province":"吉林省","city":"长春市","county":"南关区","community":"公主岭市河北街道金碧阁小区","full_address":"吉林省长春市南关区公主岭市河北街道金碧阁小区","info":""}},{"type":"Feature","geometry":{"type":"Point","coordinates":[125.191371,43.740391]},"properties":{"province":"吉林省","city":"长春市","county":"公主岭市","community":"范家屯镇十家子社区","full_address":"吉林省长春市公主岭市范家屯镇十家子社区","info":""}},{"type":"Feature","geometry":{"type":"Point","coordinates":[124.749501,43.533493]},"properties":{"province":"吉林省","city":"长春市","county":"公主岭市","community":"环岭街道高家岗村","full_address":"吉林省长春市公主岭市环岭街道高家岗村","info":""}},{"type":"Feature","geometry":{"type":"Point","coordinates":[125.337223,43.937805]},"properties":{"province":"吉林省","city":"长春市","county":"宽城区","community":"河北街道紫金公馆","full_address":"吉林省长春市宽城区河北街道紫金公馆","info":""}},{"type":"Feature","geometry":{"type":"Point","coordinates":[125.281657,43.665851]},"properties":{"province":"吉林省","city":"长春市","county":"公主岭市","community":"响水镇刘小窝堡村","full_address":"吉林省长春市公主岭市响水镇刘小窝堡村","info":""}},{"type":"Feature","geometry":{"type":"Point","coordinates":[124.804597,43.496189]},"properties":{"province":"吉林省","city":"长春市","county":"公主岭市","community":"河北街道玛钢花园二期","full_address":"吉林省长春市公主岭市河北街道玛钢花园二期","info":""}},{"type":"Feature","geometry":{"type":"Point","coordinates":[125.387419,43.950405]},"properties":{"province":"吉林省","city":"长春市","county":"二道区","community":"经开区兴隆山镇中海寰宇天下","full_address":"吉林省长春市二道区经开区兴隆山镇中海寰宇天下","info":""}},{"type":"Feature","geometry":{"type":"Point","coordinates":[125.386814,43.840053]},"properties":{"province":"吉林省","city":"长春市","county":"二道区","community":"会展街道北海丽景","full_address":"吉林省长春市二道区会展街道北海丽景","info":""}},{"type":"Feature","geometry":{"type":"Point","coordinates":[125.318301,43.870308]},"properties":{"province":"吉林省","city":"长春市","county":"朝阳区","community":"世纪街道智诚学校","full_address":"吉林省长春市朝阳区世纪街道智诚学校","info":""}},{"type":"Feature","geometry":{"type":"Point","coordinates":[125.392061,43.954743]},"properties":{"province":"吉林省","city":"长春市","county":"二道区","community":"兴隆山镇金色家园","full_address":"吉林省长春市二道区兴隆山镇金色家园","info":""}},{"type":"Feature","geometry":{"type":"Point","coordinates":[125.388001,43.952069]},"properties":{"province":"吉林省","city":"长春市","county":"二道区","community":"兴隆山镇吴中北国之春","full_address":"吉林省长春市二道区兴隆山镇吴中北国之春","info":""}},{"type":"Feature","geometry":{"type":"Point","coordinates":[125.426792,43.891683]},"properties":{"province":"吉林省","city":"长春市","county":"二道区","community":"东方广场街道恒大帝景一期","full_address":"吉林省长春市二道区东方广场街道恒大帝景一期","info":""}},{"type":"Feature","geometry":{"type":"Point","coordinates":[125.420763,43.932369]},"properties":{"province":"吉林省","city":"长春市","county":"二道区","community":"兴隆山镇分水村","full_address":"吉林省长春市二道区兴隆山镇分水村","info":""}},{"type":"Feature","geometry":{"type":"Point","coordinates":[125.411725,43.767285]},"properties":{"province":"吉林省","city":"长春市","county":"南关区","community":"净月区永兴街道伟峰东域商业街工地","full_address":"吉林省长春市南关区净月区永兴街道伟峰东域商业街工地","info":""}},{"type":"Feature","geometry":{"type":"Point","coordinates":[125.370911,43.782908]},"properties":{"province":"吉林省","city":"长春市","county":"南关区","community":"德容街道福临花园","full_address":"吉林省长春市南关区德容街道福临花园","info":""}},{"type":"Feature","geometry":{"type":"Point","coordinates":[125.39636,43.773972]},"properties":{"province":"吉林省","city":"长春市","county":"南关区","community":"德容街道福盛小区","full_address":"吉林省长春市南关区德容街道福盛小区","info":""}},{"type":"Feature","geometry":{"type":"Point","coordinates":[125.371329,43.785164]},"properties":{"province":"吉林省","city":"长春市","county":"南关区","community":"德容街道亚泰华府","full_address":"吉林省长春市南关区德容街道亚泰华府","info":""}},{"type":"Feature","geometry":{"type":"Point","coordinates":[125.451989,43.817961]},"properties":{"province":"吉林省","city":"长春市","county":"南关区","community":"德容街道万科班芙花园","full_address":"吉林省长春市南关区德容街道万科班芙花园","info":""}},{"type":"Feature","geometry":{"type":"Point","coordinates":[125.418786,43.772031]},"properties":{"province":"吉林省","city":"长春市","county":"南关区","community":"永兴街道康诗丹郡","full_address":"吉林省长春市南关区永兴街道康诗丹郡","info":""}},{"type":"Feature","geometry":{"type":"Point","coordinates":[125.368909,43.809792]},"properties":{"province":"吉林省","city":"长春市","county":"南关区","community":"德正街道保利香槟","full_address":"吉林省长春市南关区德正街道保利香槟","info":""}},{"type":"Feature","geometry":{"type":"Point","coordinates":[125.393414,43.801846]},"properties":{"province":"吉林省","city":"长春市","county":"南关区","community":"德正街道潭泽东南明珠","full_address":"吉林省长春市南关区德正街道潭泽东南明珠","info":""}},{"type":"Feature","geometry":{"type":"Point","coordinates":[125.715169,44.517843]},"properties":{"province":"吉林省","city":"长春市","county":"德惠市","community":"德正街道东安枫景","full_address":"吉林省长春市德惠市德正街道东安枫景","info":""}},{"type":"Feature","geometry":{"type":"Point","coordinates":[126.272679,44.204287]},"properties":{"province":"吉林省","city":"长春市","county":"九台区","community":"胡家回族乡周家村6社","full_address":"吉林省长春市九台区胡家回族乡周家村6社","info":""}},{"type":"Feature","geometry":{"type":"Point","coordinates":[125.836325,44.14929]},"properties":{"province":"吉林省","city":"长春市","county":"九台区","community":"主城区","full_address":"吉林省长春市九台区主城区","info":""}},{"type":"Feature","geometry":{"type":"Point","coordinates":[126.355988,44.334793]},"properties":{"province":"吉林省","city":"长春市","county":"九台区","community":"苇子沟街道西山村","full_address":"吉林省长春市九台区苇子沟街道西山村","info":""}},{"type":"Feature","geometry":{"type":"Point","coordinates":[124.817207,43.503032]},"properties":{"province":"吉林省","city":"长春市","county":"公主岭市","community":"苇子沟街道小苇村","full_address":"吉林省长春市公主岭市苇子沟街道小苇村","info":""}},{"type":"Feature","geometry":{"type":"Point","coordinates":[125.995757,44.173357]},"properties":{"province":"吉林省","city":"长春市","county":"九台区","community":"苇子沟街道官地村","full_address":"吉林省长春市九台区苇子沟街道官地村","info":""}},{"type":"Feature","geometry":{"type":"Point","coordinates":[124.817207,43.503032]},"properties":{"province":"吉林省","city":"长春市","county":"公主岭市","community":"苇子沟街道拉拉村","full_address":"吉林省长春市公主岭市苇子沟街道拉拉村","info":""}},{"type":"Feature","geometry":{"type":"Point","coordinates":[124.817207,43.503032]},"properties":{"province":"吉林省","city":"长春市","county":"公主岭市","community":"苇子沟街道大苇村","full_address":"吉林省长春市公主岭市苇子沟街道大苇村","info":""}},{"type":"Feature","geometry":{"type":"Point","coordinates":[126.332145,44.408618]},"properties":{"province":"吉林省","city":"长春市","county":"九台区","community":"其塔木镇北山村","full_address":"吉林省长春市九台区其塔木镇北山村","info":""}},{"type":"Feature","geometry":{"type":"Point","coordinates":[126.197961,44.487998]},"properties":{"province":"吉林省","city":"长春市","county":"九台区","community":"上河湾镇万福花园","full_address":"吉林省长春市九台区上河湾镇万福花园","info":""}},{"type":"Feature","geometry":{"type":"Point","coordinates":[126.202459,44.488007]},"properties":{"province":"吉林省","city":"长春市","county":"九台区","community":"上河湾镇友谊小区老楼","full_address":"吉林省长春市九台区上河湾镇友谊小区老楼","info":""}},{"type":"Feature","geometry":{"type":"Point","coordinates":[126.166987,44.456493]},"properties":{"province":"吉林省","city":"长春市","county":"九台区","community":"上河湾镇双顶村","full_address":"吉林省长春市九台区上河湾镇双顶村","info":""}},{"type":"Feature","geometry":{"type":"Point","coordinates":[125.835842,44.158166]},"properties":{"province":"吉林省","city":"长春市","county":"九台区","community":"上河湾镇吴文祥小区","full_address":"吉林省长春市九台区上河湾镇吴文祥小区","info":""}},{"type":"Feature","geometry":{"type":"Point","coordinates":[126.195586,44.490664]},"properties":{"province":"吉林省","city":"长春市","county":"九台区","community":"上河湾镇幸福家园","full_address":"吉林省长春市九台区上河湾镇幸福家园","info":""}},{"type":"Feature","geometry":{"type":"Point","coordinates":[126.207532,44.187124]},"properties":{"province":"吉林省","city":"长春市","county":"九台区","community":"沐石河街道孤家子村","full_address":"吉林省长春市九台区沐石河街道孤家子村","info":""}},{"type":"Feature","geometry":{"type":"Point","coordinates":[126.140287,44.246486]},"properties":{"province":"吉林省","city":"长春市","county":"九台区","community":"沐石河街道八家子村","full_address":"吉林省长春市九台区沐石河街道八家子村","info":""}},{"type":"Feature","geometry":{"type":"Point","coordinates":[126.152566,44.327786]},"properties":{"province":"吉林省","city":"长春市","county":"九台区","community":"沐石河街道河南村","full_address":"吉林省长春市九台区沐石河街道河南村","info":""}},{"type":"Feature","geometry":{"type":"Point","coordinates":[126.01349,44.21828]},"properties":{"province":"吉林省","city":"长春市","county":"九台区","community":"沐石河街道横道村","full_address":"吉林省长春市九台区沐石河街道横道村","info":""}},{"type":"Feature","geometry":{"type":"Point","coordinates":[126.202858,44.280407]},"properties":{"province":"吉林省","city":"长春市","county":"九台区","community":"沐石河街道卢家村","full_address":"吉林省长春市九台区沐石河街道卢家村","info":""}},{"type":"Feature","geometry":{"type":"Point","coordinates":[126.098251,44.226166]},"properties":{"province":"吉林省","city":"长春市","county":"九台区","community":"沐石河街道沐石河村","full_address":"吉林省长春市九台区沐石河街道沐石河村","info":""}},{"type":"Feature","geometry":{"type":"Point","coordinates":[126.137634,44.215077]},"properties":{"province":"吉林省","city":"长春市","county":"九台区","community":"沐石河街道太和村","full_address":"吉林省长春市九台区沐石河街道太和村","info":""}},{"type":"Feature","geometry":{"type":"Point","coordinates":[126.176962,44.239331]},"properties":{"province":"吉林省","city":"长春市","county":"九台区","community":"沐石河街道杨树村","full_address":"吉林省长春市九台区沐石河街道杨树村","info":""}},{"type":"Feature","geometry":{"type":"Point","coordinates":[126.048271,44.220899]},"properties":{"province":"吉林省","city":"长春市","county":"九台区","community":"沐石河街道张家村","full_address":"吉林省长春市九台区沐石河街道张家村","info":""}},{"type":"Feature","geometry":{"type":"Point","coordinates":[126.024193,44.189965]},"properties":{"province":"吉林省","city":"长春市","county":"九台区","community":"沐石河街道于家村","full_address":"吉林省长春市九台区沐石河街道于家村","info":""}},{"type":"Feature","geometry":{"type":"Point","coordinates":[125.680493,44.183301]},"properties":{"province":"吉林省","city":"长春市","county":"九台区","community":"纪家街道坐山村","full_address":"吉林省长春市九台区纪家街道坐山村","info":""}},{"type":"Feature","geometry":{"type":"Point","coordinates":[125.626216,44.269733]},"properties":{"province":"吉林省","city":"长春市","county":"九台区","community":"纪家街道纪家村","full_address":"吉林省长春市九台区纪家街道纪家村","info":""}},{"type":"Feature","geometry":{"type":"Point","coordinates":[125.713435,44.319511]},"properties":{"province":"吉林省","city":"长春市","county":"九台区","community":"兴隆街道大荒地村","full_address":"吉林省长春市九台区兴隆街道大荒地村","info":""}},{"type":"Feature","geometry":{"type":"Point","coordinates":[126.351941,44.422673]},"properties":{"province":"吉林省","city":"长春市","county":"九台区","community":"上河湾镇南甸子村","full_address":"吉林省长春市九台区上河湾镇南甸子村","info":""}},{"type":"Feature","geometry":{"type":"Point","coordinates":[125.332371,43.897818]},"properties":{"province":"吉林省","city":"长春市","county":"宽城区","community":"凯旋街道友谊花园小区","full_address":"吉林省长春市宽城区凯旋街道友谊花园小区","info":""}},{"type":"Feature","geometry":{"type":"Point","coordinates":[125.185594,43.857921]},"properties":{"province":"吉林省","city":"长春市","county":"绿园区","community":"同心街道","full_address":"吉林省长春市绿园区同心街道","info":""}},{"type":"Feature","geometry":{"type":"Point","coordinates":[125.283093,43.897722]},"properties":{"province":"吉林省","city":"长春市","county":"绿园区","community":"普阳街道辽阳街（101栋&143栋&201栋）","full_address":"吉林省长春市绿园区普阳街道辽阳街（101栋&143栋&201栋）","info":""}},{"type":"Feature","geometry":{"type":"Point","coordinates":[125.281298,43.897768]},"properties":{"province":"吉林省","city":"长春市","county":"绿园区","community":"普阳街道吉业花园","full_address":"吉林省长春市绿园区普阳街道吉业花园","info":""}},{"type":"Feature","geometry":{"type":"Point","coordinates":[125.291008,43.906234]},"properties":{"province":"吉林省","city":"长春市","county":"绿园区","community":"铁西街道彩云阁小区","full_address":"吉林省长春市绿园区铁西街道彩云阁小区","info":""}},{"type":"Feature","geometry":{"type":"Point","coordinates":[125.260775,43.900839]},"properties":{"province":"吉林省","city":"长春市","county":"绿园区","community":"正阳街道娜奇美4区","full_address":"吉林省长春市绿园区正阳街道娜奇美4区","info":""}},{"type":"Feature","geometry":{"type":"Point","coordinates":[125.247924,43.910786]},"properties":{"province":"吉林省","city":"长春市","county":"绿园区","community":"林园街道3535小区","full_address":"吉林省长春市绿园区林园街道3535小区","info":""}},{"type":"Feature","geometry":{"type":"Point","coordinates":[125.255285,43.910345]},"properties":{"province":"吉林省","city":"长春市","county":"绿园区","community":"林园街道大禹华邦B区","full_address":"吉林省长春市绿园区林园街道大禹华邦B区","info":""}},{"type":"Feature","geometry":{"type":"Point","coordinates":[125.291183,43.920892]},"properties":{"province":"吉林省","city":"长春市","county":"绿园区","community":"青年街道133厂小区","full_address":"吉林省长春市绿园区青年街道133厂小区","info":""}},{"type":"Feature","geometry":{"type":"Point","coordinates":[125.317886,43.829554]},"properties":{"province":"吉林省","city":"长春市","county":"南关区","community":"明珠街道卫星商城","full_address":"吉林省长春市南关区明珠街道卫星商城","info":""}},{"type":"Feature","geometry":{"type":"Point","coordinates":[125.317651,43.828928]},"properties":{"province":"吉林省","city":"长春市","county":"南关区","community":"明珠街道中铁十三局宿舍","full_address":"吉林省长春市南关区明珠街道中铁十三局宿舍","info":""}},{"type":"Feature","geometry":{"type":"Point","coordinates":[125.349553,43.838087]},"properties":{"province":"吉林省","city":"长春市","county":"南关区","community":"鸿城街道卫星花园","full_address":"吉林省长春市南关区鸿城街道卫星花园","info":""}},{"type":"Feature","geometry":{"type":"Point","coordinates":[125.279835,43.82621]},"properties":{"province":"吉林省","city":"长春市","county":"朝阳区","community":"大学","full_address":"吉林省长春市朝阳区大学","info":""}},{"type":"Feature","geometry":{"type":"Point","coordinates":[125.335434,43.843515]},"properties":{"province":"吉林省","city":"长春市","county":"南关区","community":"南岭街道御翠豪庭","full_address":"吉林省长春市南关区南岭街道御翠豪庭","info":""}},{"type":"Feature","geometry":{"type":"Point","coordinates":[125.363364,43.805236]},"properties":{"province":"吉林省","city":"长春市","county":"南关区","community":"富裕街道金色世界湾","full_address":"吉林省长春市南关区富裕街道金色世界湾","info":""}},{"type":"Feature","geometry":{"type":"Point","coordinates":[125.279835,43.82621]},"properties":{"province":"吉林省","city":"长春市","county":"朝阳区","community":"大学公寓","full_address":"吉林省长春市朝阳区大学公寓","info":""}},{"type":"Feature","geometry":{"type":"Point","coordinates":[125.276963,43.788321]},"properties":{"province":"吉林省","city":"长春市","county":"南关区","community":"幸福乡国信一期","full_address":"吉林省长春市南关区幸福乡国信一期","info":""}},{"type":"Feature","geometry":{"type":"Point","coordinates":[125.321054,43.830175]},"properties":{"province":"吉林省","city":"长春市","county":"南关区","community":"明珠街道新城小区","full_address":"吉林省长春市南关区明珠街道新城小区","info":""}},{"type":"Feature","geometry":{"type":"Point","coordinates":[125.287586,43.798134]},"properties":{"province":"吉林省","city":"长春市","county":"南关区","community":"明珠街道力旺美林","full_address":"吉林省长春市南关区明珠街道力旺美林","info":""}},{"type":"Feature","geometry":{"type":"Point","coordinates":[125.335509,43.810922]},"properties":{"province":"吉林省","city":"长春市","county":"南关区","community":"明珠街道万科金域长春","full_address":"吉林省长春市南关区明珠街道万科金域长春","info":""}},{"type":"Feature","geometry":{"type":"Point","coordinates":[125.276964,43.788321]},"properties":{"province":"吉林省","city":"长春市","county":"南关区","community":"明珠街道幸福乡政府宿舍楼","full_address":"吉林省长春市南关区明珠街道幸福乡政府宿舍楼","info":""}},{"type":"Feature","geometry":{"type":"Point","coordinates":[125.328137,43.83525]},"properties":{"province":"吉林省","city":"长春市","county":"南关区","community":"鸿城街道农研家属楼","full_address":"吉林省长春市南关区鸿城街道农研家属楼","info":""}},{"type":"Feature","geometry":{"type":"Point","coordinates":[125.190044,44.05233]},"properties":{"province":"吉林省","city":"长春市","county":"农安县","community":"合隆镇万隆璟堂","full_address":"吉林省长春市农安县合隆镇万隆璟堂","info":""}},{"type":"Feature","geometry":{"type":"Point","coordinates":[125.246351,43.871382]},"properties":{"province":"吉林省","city":"长春市","county":"绿园区","community":"汽车经济技术开发区锦城街道44街区","full_address":"吉林省长春市绿园区汽车经济技术开发区锦城街道44街区","info":""}},{"type":"Feature","geometry":{"type":"Point","coordinates":[125.222248,43.856797]},"properties":{"province":"吉林省","city":"长春市","county":"朝阳区","community":"锦城街道47街区","full_address":"吉林省长春市朝阳区锦城街道47街区","info":""}},{"type":"Feature","geometry":{"type":"Point","coordinates":[125.213274,43.831486]},"properties":{"province":"吉林省","city":"长春市","county":"绿园区","community":"锦城街道中铁国际花园","full_address":"吉林省长春市绿园区锦城街道中铁国际花园","info":""}},{"type":"Feature","geometry":{"type":"Point","coordinates":[125.207957,43.834382]},"properties":{"province":"吉林省","city":"长春市","county":"绿园区","community":"锦城街道恒大首府","full_address":"吉林省长春市绿园区锦城街道恒大首府","info":""}},{"type":"Feature","geometry":{"type":"Point","coordinates":[125.649108,43.517217]},"properties":{"province":"吉林省","city":"长春市","county":"双阳区","community":"云山街道林溪美郡","full_address":"吉林省长春市双阳区云山街道林溪美郡","info":""}},{"type":"Feature","geometry":{"type":"Point","coordinates":[125.639249,43.366246]},"properties":{"province":"吉林省","city":"长春市","county":"双阳区","community":"太平镇桦木村","full_address":"吉林省长春市双阳区太平镇桦木村","info":""}},{"type":"Feature","geometry":{"type":"Point","coordinates":[126.54394,44.840038]},"properties":{"province":"吉林省","city":"长春市","county":"榆树市","community":"华昌街道富宇花园","full_address":"吉林省长春市榆树市华昌街道富宇花园","info":""}},{"type":"Feature","geometry":{"type":"Point","coordinates":[126.548353,44.823485]},"properties":{"province":"吉林省","city":"长春市","county":"榆树市","community":"华昌街道图书馆家属楼","full_address":"吉林省长春市榆树市华昌街道图书馆家属楼","info":""}},{"type":"Feature","geometry":{"type":"Point","coordinates":[126.532196,44.827264]},"properties":{"province":"吉林省","city":"长春市","county":"榆树市","community":"城郊街道和泰府","full_address":"吉林省长春市榆树市城郊街道和泰府","info":""}},{"type":"Feature","geometry":{"type":"Point","coordinates":[126.555885,44.829605]},"properties":{"province":"吉林省","city":"长春市","county":"榆树市","community":"城郊街道富润家园","full_address":"吉林省长春市榆树市城郊街道富润家园","info":""}},{"type":"Feature","geometry":{"type":"Point","coordinates":[126.612994,44.809364]},"properties":{"province":"吉林省","city":"长春市","county":"榆树市","community":"环城乡东岭村小河屯","full_address":"吉林省长春市榆树市环城乡东岭村小河屯","info":""}},{"type":"Feature","geometry":{"type":"Point","coordinates":[126.698093,45.090812]},"properties":{"province":"吉林省","city":"长春市","county":"榆树市","community":"大岭镇怀家蓝旗村","full_address":"吉林省长春市榆树市大岭镇怀家蓝旗村","info":""}},{"type":"Feature","geometry":{"type":"Point","coordinates":[126.664653,45.107249]},"properties":{"province":"吉林省","city":"长春市","county":"榆树市","community":"大岭镇怀家民主村","full_address":"吉林省长春市榆树市大岭镇怀家民主村","info":""}},{"type":"Feature","geometry":{"type":"Point","coordinates":[126.406265,44.790126]},"properties":{"province":"吉林省","city":"长春市","county":"榆树市","community":"闵家镇西北地村","full_address":"吉林省长春市榆树市闵家镇西北地村","info":""}},{"type":"Feature","geometry":{"type":"Point","coordinates":[126.376861,44.78964]},"properties":{"province":"吉林省","city":"长春市","county":"榆树市","community":"闵家镇金家村","full_address":"吉林省长春市榆树市闵家镇金家村","info":""}},{"type":"Feature","geometry":{"type":"Point","coordinates":[126.715571,44.689902]},"properties":{"province":"吉林省","city":"长春市","county":"榆树市","community":"新立镇太平村西甸子屯","full_address":"吉林省长春市榆树市新立镇太平村西甸子屯","info":""}},{"type":"Feature","geometry":{"type":"Point","coordinates":[126.869253,45.02925]},"properties":{"province":"吉林省","city":"长春市","county":"榆树市","community":"泗河镇韩家村","full_address":"吉林省长春市榆树市泗河镇韩家村","info":""}},{"type":"Feature","geometry":{"type":"Point","coordinates":[126.713094,44.597674]},"properties":{"province":"吉林省","city":"长春市","county":"榆树市","community":"黑林镇芦古村","full_address":"吉林省长春市榆树市黑林镇芦古村","info":""}},{"type":"Feature","geometry":{"type":"Point","coordinates":[126.866901,44.699377]},"properties":{"province":"吉林省","city":"长春市","county":"榆树市","community":"土桥镇十四户村","full_address":"吉林省长春市榆树市土桥镇十四户村","info":""}},{"type":"Feature","geometry":{"type":"Point","coordinates":[126.949472,44.890256]},"properties":{"province":"吉林省","city":"长春市","county":"榆树市","community":"向阳镇复兴村","full_address":"吉林省长春市榆树市向阳镇复兴村","info":""}},{"type":"Feature","geometry":{"type":"Point","coordinates":[126.95046,44.974251]},"properties":{"province":"吉林省","city":"长春市","county":"榆树市","community":"于家镇红旗村孙成岗屯","full_address":"吉林省长春市榆树市于家镇红旗村孙成岗屯","info":""}},{"type":"Feature","geometry":{"type":"Point","coordinates":[126.886834,44.907589]},"properties":{"province":"吉林省","city":"长春市","county":"榆树市","community":"于家镇万河村","full_address":"吉林省长春市榆树市于家镇万河村","info":""}},{"type":"Feature","geometry":{"type":"Point","coordinates":[126.363347,44.827847]},"properties":{"province":"吉林省","city":"长春市","county":"榆树市","community":"刘家镇永生村","full_address":"吉林省长春市榆树市刘家镇永生村","info":""}},{"type":"Feature","geometry":{"type":"Point","coordinates":[125.264991,43.769851]},"properties":{"province":"吉林省","city":"长春市","county":"南关区","community":"新区超越街道大禹褐石","full_address":"吉林省长春市南关区新区超越街道大禹褐石","info":""}},{"type":"Feature","geometry":{"type":"Point","coordinates":[125.258491,43.794134]},"properties":{"province":"吉林省","city":"长春市","county":"朝阳区","community":"超越街道修正药业宿舍","full_address":"吉林省长春市朝阳区超越街道修正药业宿舍","info":""}},{"type":"Feature","geometry":{"type":"Point","coordinates":[125.401175,43.966065]},"properties":{"province":"吉林省","city":"长春市","county":"宽城区","community":"北湖街道北湖花园","full_address":"吉林省长春市宽城区北湖街道北湖花园","info":""}},{"type":"Feature","geometry":{"type":"Point","coordinates":[125.256999,43.786213]},"properties":{"province":"吉林省","city":"长春市","county":"南关区","community":"超越街道万龙丽水湾二期","full_address":"吉林省长春市南关区超越街道万龙丽水湾二期","info":""}},{"type":"Feature","geometry":{"type":"Point","coordinates":[125.230497,43.77878]},"properties":{"province":"吉林省","city":"长春市","county":"朝阳区","community":"硅谷街道恒大雅苑","full_address":"吉林省长春市朝阳区硅谷街道恒大雅苑","info":""}},{"type":"Feature","geometry":{"type":"Point","coordinates":[125.391431,43.961769]},"properties":{"province":"吉林省","city":"长春市","county":"宽城区","community":"北湖街道北湾新城四期","full_address":"吉林省长春市宽城区北湖街道北湾新城四期","info":""}},{"type":"Feature","geometry":{"type":"Point","coordinates":[125.258923,43.778185]},"properties":{"province":"吉林省","city":"长春市","county":"朝阳区","community":"超越街道恒盛豪庭","full_address":"吉林省长春市朝阳区超越街道恒盛豪庭","info":""}},{"type":"Feature","geometry":{"type":"Point","coordinates":[125.225374,43.785186]},"properties":{"province":"吉林省","city":"长春市","county":"朝阳区","community":"硅谷街道昂展公园里","full_address":"吉林省长春市朝阳区硅谷街道昂展公园里","info":""}},{"type":"Feature","geometry":{"type":"Point","coordinates":[125.238741,43.827465]},"properties":{"province":"吉林省","city":"长春市","county":"朝阳区","community":"飞跃街道新星宇之新观邸","full_address":"吉林省长春市朝阳区飞跃街道新星宇之新观邸","info":""}},{"type":"Feature","geometry":{"type":"Point","coordinates":[117.52593,37.47193]},"properties":{"province":"山东省","city":"滨州市","county":"惠民县","community":"孙武街道办事处怡水龙城小区","full_address":"山东省滨州市惠民县孙武街道办事处怡水龙城小区","info":""}},{"type":"Feature","geometry":{"type":"Point","coordinates":[117.564044,37.64818]},"properties":{"province":"山东省","city":"滨州市","county":"阳信县","community":"金阳街道办事处北八里村","full_address":"山东省滨州市阳信县金阳街道办事处北八里村","info":""}},{"type":"Feature","geometry":{"type":"Point","coordinates":[117.308992,37.531323]},"properties":{"province":"山东省","city":"滨州市","county":"阳信县","community":"洋湖乡勃李村","full_address":"山东省滨州市阳信县洋湖乡勃李村","info":""}},{"type":"Feature","geometry":{"type":"Point","coordinates":[117.679672,36.920811]},"properties":{"province":"山东省","city":"滨州市","county":"邹平市","community":"邹平市韩店镇上口村","full_address":"山东省滨州市邹平市邹平市韩店镇上口村","info":""}},{"type":"Feature","geometry":{"type":"Point","coordinates":[116.836266,39.204035]},"properties":{"province":"河北省","city":"廊坊市","county":"安次区","community":"东沽港镇淘河村","full_address":"河北省廊坊市安次区东沽港镇淘河村","info":""}},{"type":"Feature","geometry":{"type":"Point","coordinates":[116.853585,39.199424]},"properties":{"province":"河北省","city":"廊坊市","county":"安次区","community":"东沽港镇桃园村","full_address":"河北省廊坊市安次区东沽港镇桃园村","info":""}},{"type":"Feature","geometry":{"type":"Point","coordinates":[116.817096,39.129741]},"properties":{"province":"河北省","city":"廊坊市","county":"霸州市","community":"杨芬港镇褚西村","full_address":"河北省廊坊市霸州市杨芬港镇褚西村","info":""}},{"type":"Feature","geometry":{"type":"Point","coordinates":[118.106994,39.651175]},"properties":{"province":"河北省","city":"唐山市","county":"路北区","community":"君瑞联合农贸市场","full_address":"河北省唐山市路北区君瑞联合农贸市场","info":""}},{"type":"Feature","geometry":{"type":"Point","coordinates":[114.774245,36.886488]},"properties":{"province":"河北省","city":"邯郸市","county":"鸡泽县","community":"浮图店镇","full_address":"河北省邯郸市鸡泽县浮图店镇","info":""}},{"type":"Feature","geometry":{"type":"Point","coordinates":[114.853102,34.063223]},"properties":{"province":"河南省","city":"周口市","county":"太康县","community":"城关镇建设路以西、交通路以南、原小铁路以东、谢安路以北合围地区","full_address":"河南省周口市太康县城关镇建设路以西、交通路以南、原小铁路以东、谢安路以北合围地区","info":""}},{"type":"Feature","geometry":{"type":"Point","coordinates":[114.62799,33.615291]},"properties":{"province":"河南省","city":"周口市","county":"川汇区","community":"城关镇建设路北段、福兴社区、原纱厂家属院合围地区","full_address":"河南省周口市川汇区城关镇建设路北段、福兴社区、原纱厂家属院合围地区","info":""}},{"type":"Feature","geometry":{"type":"Point","coordinates":[113.94473,33.814363]},"properties":{"province":"河南省","city":"漯河市","county":"临颍县","community":"新城街道办事处辖区","full_address":"河南省漯河市临颍县新城街道办事处辖区","info":""}},{"type":"Feature","geometry":{"type":"Point","coordinates":[113.919821,33.8043]},"properties":{"province":"河南省","city":"漯河市","county":"临颍县","community":"杜曲镇东徐庄村","full_address":"河南省漯河市临颍县杜曲镇东徐庄村","info":""}},{"type":"Feature","geometry":{"type":"Point","coordinates":[113.928592,33.767892]},"properties":{"province":"河南省","city":"漯河市","county":"临颍县","community":"台陈镇台陈村","full_address":"河南省漯河市临颍县台陈镇台陈村","info":""}},{"type":"Feature","geometry":{"type":"Point","coordinates":[117.111,39.150251]},"properties":{"province":"天津市","city":"市辖区","county":"西青区","community":"西营门街赵苑西里8号楼","full_address":"天津市市辖区西青区西营门街赵苑西里8号楼","info":""}},{"type":"Feature","geometry":{"type":"Point","coordinates":[117.034574,39.072768]},"properties":{"province":"天津市","city":"市辖区","county":"西青区","community":"张家窝镇香榭园26号楼1门","full_address":"天津市市辖区西青区张家窝镇香榭园26号楼1门","info":""}},{"type":"Feature","geometry":{"type":"Point","coordinates":[117.206384,39.134957]},"properties":{"province":"天津市","city":"市辖区","county":"河北区","community":"光复道街万爱情侣主题酒店（建国道1号龙门大厦）","full_address":"天津市市辖区河北区光复道街万爱情侣主题酒店（建国道1号龙门大厦）","info":""}},{"type":"Feature","geometry":{"type":"Point","coordinates":[116.967526,38.930754]},"properties":{"province":"天津市","city":"市辖区","county":"静海区","community":"朝阳街道宇纬路春曦公园","full_address":"天津市市辖区静海区朝阳街道宇纬路春曦公园","info":""}},{"type":"Feature","geometry":{"type":"Point","coordinates":[118.602728,24.901282]},"properties":{"province":"福建省","city":"泉州市","county":"丰泽区","community":"丰泽街道丰泽新村88号","full_address":"福建省泉州市丰泽区丰泽街道丰泽新村88号","info":""}},{"type":"Feature","geometry":{"type":"Point","coordinates":[118.6535,24.91487]},"properties":{"province":"福建省","city":"泉州市","county":"丰泽区","community":"城东街道美仙山二期20栋","full_address":"福建省泉州市丰泽区城东街道美仙山二期20栋","info":""}},{"type":"Feature","geometry":{"type":"Point","coordinates":[118.639817,24.9066]},"properties":{"province":"福建省","city":"泉州市","county":"丰泽区","community":"毓才花苑二期6栋&13栋","full_address":"福建省泉州市丰泽区毓才花苑二期6栋&13栋","info":""}},{"type":"Feature","geometry":{"type":"Point","coordinates":[118.604008,24.893605]},"properties":{"province":"福建省","city":"泉州市","county":"丰泽区","community":"丰泽街道东淮社区","full_address":"福建省泉州市丰泽区丰泽街道东淮社区","info":""}},{"type":"Feature","geometry":{"type":"Point","coordinates":[118.604175,24.90027]},"properties":{"province":"福建省","city":"泉州市","county":"丰泽区","community":"丰泽街道丰泽社区","full_address":"福建省泉州市丰泽区丰泽街道丰泽社区","info":""}},{"type":"Feature","geometry":{"type":"Point","coordinates":[118.599595,24.896697]},"properties":{"province":"福建省","city":"泉州市","county":"丰泽区","community":"丰泽街道迎津社区","full_address":"福建省泉州市丰泽区丰泽街道迎津社区","info":""}},{"type":"Feature","geometry":{"type":"Point","coordinates":[118.567809,24.796967]},"properties":{"province":"福建省","city":"泉州市","county":"晋江市","community":"华大街道华城社区","full_address":"福建省泉州市晋江市华大街道华城社区","info":""}},{"type":"Feature","geometry":{"type":"Point","coordinates":[118.59705,24.889494]},"properties":{"province":"福建省","city":"泉州市","county":"丰泽区","community":"泉秀街道华丰社区","full_address":"福建省泉州市丰泽区泉秀街道华丰社区","info":""}},{"type":"Feature","geometry":{"type":"Point","coordinates":[118.672146,24.935196]},"properties":{"province":"福建省","city":"泉州市","county":"洛江区","community":"城东街道金屿社区","full_address":"福建省泉州市洛江区城东街道金屿社区","info":""}},{"type":"Feature","geometry":{"type":"Point","coordinates":[118.298015,25.32724]},"properties":{"province":"福建省","city":"泉州市","county":"永春县","community":"城东街道通海社区","full_address":"福建省泉州市永春县城东街道通海社区","info":""}},{"type":"Feature","geometry":{"type":"Point","coordinates":[118.665154,24.927048]},"properties":{"province":"福建省","city":"泉州市","county":"丰泽区","community":"城东街道通源社区","full_address":"福建省泉州市丰泽区城东街道通源社区","info":""}},{"type":"Feature","geometry":{"type":"Point","coordinates":[118.650927,24.936038]},"properties":{"province":"福建省","city":"泉州市","county":"丰泽区","community":"城东街道西福社区","full_address":"福建省泉州市丰泽区城东街道西福社区","info":""}},{"type":"Feature","geometry":{"type":"Point","coordinates":[118.639027,24.913289]},"properties":{"province":"福建省","city":"泉州市","county":"丰泽区","community":"城东街道霞美社区","full_address":"福建省泉州市丰泽区城东街道霞美社区","info":""}},{"type":"Feature","geometry":{"type":"Point","coordinates":[118.630677,24.920549]},"properties":{"province":"福建省","city":"泉州市","county":"丰泽区","community":"城东街道新前社区","full_address":"福建省泉州市丰泽区城东街道新前社区","info":""}},{"type":"Feature","geometry":{"type":"Point","coordinates":[118.661217,24.931146]},"properties":{"province":"福建省","city":"泉州市","county":"丰泽区","community":"城东街道庄任社区","full_address":"福建省泉州市丰泽区城东街道庄任社区","info":""}},{"type":"Feature","geometry":{"type":"Point","coordinates":[118.65113,24.885952]},"properties":{"province":"福建省","city":"泉州市","county":"丰泽区","community":"东海街道宝山社区","full_address":"福建省泉州市丰泽区东海街道宝山社区","info":""}},{"type":"Feature","geometry":{"type":"Point","coordinates":[118.611094,24.907111]},"properties":{"province":"福建省","city":"泉州市","county":"丰泽区","community":"东湖街道铭湖社区","full_address":"福建省泉州市丰泽区东湖街道铭湖社区","info":""}},{"type":"Feature","geometry":{"type":"Point","coordinates":[118.595963,24.895111]},"properties":{"province":"福建省","city":"泉州市","county":"丰泽区","community":"丰泽街道前坂社区","full_address":"福建省泉州市丰泽区丰泽街道前坂社区","info":""}},{"type":"Feature","geometry":{"type":"Point","coordinates":[118.601728,24.898973]},"properties":{"province":"福建省","city":"泉州市","county":"丰泽区","community":"丰泽街道东涂社区","full_address":"福建省泉州市丰泽区丰泽街道东涂社区","info":""}},{"type":"Feature","geometry":{"type":"Point","coordinates":[118.567809,24.796967]},"properties":{"province":"福建省","city":"泉州市","county":"晋江市","community":"丰泽街道源淮社区","full_address":"福建省泉州市晋江市丰泽街道源淮社区","info":""}},{"type":"Feature","geometry":{"type":"Point","coordinates":[118.573896,24.922805]},"properties":{"province":"福建省","city":"泉州市","county":"丰泽区","community":"清源街道西宝社区","full_address":"福建省泉州市丰泽区清源街道西宝社区","info":""}},{"type":"Feature","geometry":{"type":"Point","coordinates":[118.591101,24.888116]},"properties":{"province":"福建省","city":"泉州市","county":"丰泽区","community":"泉秀街道灯洲社区","full_address":"福建省泉州市丰泽区泉秀街道灯洲社区","info":""}},{"type":"Feature","geometry":{"type":"Point","coordinates":[118.598883,24.888439]},"properties":{"province":"福建省","city":"泉州市","county":"丰泽区","community":"泉秀街道泉淮社区","full_address":"福建省泉州市丰泽区泉秀街道泉淮社区","info":""}},{"type":"Feature","geometry":{"type":"Point","coordinates":[118.601646,24.886978]},"properties":{"province":"福建省","city":"泉州市","county":"丰泽区","community":"泉秀街道新秀社区","full_address":"福建省泉州市丰泽区泉秀街道新秀社区","info":""}},{"type":"Feature","geometry":{"type":"Point","coordinates":[118.576425,24.885256]},"properties":{"province":"福建省","city":"泉州市","county":"晋江市","community":"池店镇海丝景城A区","full_address":"福建省泉州市晋江市池店镇海丝景城A区","info":""}},{"type":"Feature","geometry":{"type":"Point","coordinates":[118.584865,24.877069]},"properties":{"province":"福建省","city":"泉州市","county":"晋江市","community":"池店镇百信御江帝景一期","full_address":"福建省泉州市晋江市池店镇百信御江帝景一期","info":""}},{"type":"Feature","geometry":{"type":"Point","coordinates":[118.62332,24.845867]},"properties":{"province":"福建省","city":"泉州市","county":"晋江市","community":"陈埭镇洋埭村","full_address":"福建省泉州市晋江市陈埭镇洋埭村","info":""}},{"type":"Feature","geometry":{"type":"Point","coordinates":[118.562128,24.88144]},"properties":{"province":"福建省","city":"泉州市","county":"晋江市","community":"池店镇清蒙村","full_address":"福建省泉州市晋江市池店镇清蒙村","info":""}},{"type":"Feature","geometry":{"type":"Point","coordinates":[118.578308,24.859781]},"properties":{"province":"福建省","city":"泉州市","county":"晋江市","community":"池店镇浯潭村","full_address":"福建省泉州市晋江市池店镇浯潭村","info":""}},{"type":"Feature","geometry":{"type":"Point","coordinates":[118.592292,24.857585]},"properties":{"province":"福建省","city":"泉州市","county":"晋江市","community":"池店镇赤塘村","full_address":"福建省泉州市晋江市池店镇赤塘村","info":""}},{"type":"Feature","geometry":{"type":"Point","coordinates":[118.592986,24.861779]},"properties":{"province":"福建省","city":"泉州市","county":"晋江市","community":"池店镇霞福村金福小区","full_address":"福建省泉州市晋江市池店镇霞福村金福小区","info":""}},{"type":"Feature","geometry":{"type":"Point","coordinates":[118.603248,24.837541]},"properties":{"province":"福建省","city":"泉州市","county":"晋江市","community":"陈埭镇涵口村五四路17号","full_address":"福建省泉州市晋江市陈埭镇涵口村五四路17号","info":""}},{"type":"Feature","geometry":{"type":"Point","coordinates":[118.58602,24.85527]},"properties":{"province":"福建省","city":"泉州市","county":"晋江市","community":"池店镇新店村","full_address":"福建省泉州市晋江市池店镇新店村","info":""}},{"type":"Feature","geometry":{"type":"Point","coordinates":[118.601778,24.858453]},"properties":{"province":"福建省","city":"泉州市","county":"晋江市","community":"陈埭镇高坑村","full_address":"福建省泉州市晋江市陈埭镇高坑村","info":""}},{"type":"Feature","geometry":{"type":"Point","coordinates":[118.59305,24.708771]},"properties":{"province":"福建省","city":"泉州市","county":"晋江市","community":"永和镇割山村","full_address":"福建省泉州市晋江市永和镇割山村","info":""}},{"type":"Feature","geometry":{"type":"Point","coordinates":[118.586389,24.899422]},"properties":{"province":"福建省","city":"泉州市","county":"鲤城区","community":"临江街道伍堡社区","full_address":"福建省泉州市鲤城区临江街道伍堡社区","info":""}},{"type":"Feature","geometry":{"type":"Point","coordinates":[118.599122,24.918339]},"properties":{"province":"福建省","city":"泉州市","county":"鲤城区","community":"开元街道梅峰社区","full_address":"福建省泉州市鲤城区开元街道梅峰社区","info":""}},{"type":"Feature","geometry":{"type":"Point","coordinates":[118.591738,24.91597]},"properties":{"province":"福建省","city":"泉州市","county":"鲤城区","community":"市政工程管理处、东至新华南路、西至芳草园公园","full_address":"福建省泉州市鲤城区市政工程管理处、东至新华南路、西至芳草园公园","info":""}},{"type":"Feature","geometry":{"type":"Point","coordinates":[118.593741,24.902486]},"properties":{"province":"福建省","city":"泉州市","county":"鲤城区","community":"鲤中街道百源社区北至龙宫巷、南至后城街、东至侨乡商品街、西至小菜巷","full_address":"福建省泉州市鲤城区鲤中街道百源社区北至龙宫巷、南至后城街、东至侨乡商品街、西至小菜巷","info":""}},{"type":"Feature","geometry":{"type":"Point","coordinates":[118.590253,24.909717]},"properties":{"province":"福建省","city":"泉州市","county":"鲤城区","community":"鲤中街道和平社区北至东街、南至玉犀巷、西至中山中路、东至观东巷区域","full_address":"福建省泉州市鲤城区鲤中街道和平社区北至东街、南至玉犀巷、西至中山中路、东至观东巷区域","info":""}},{"type":"Feature","geometry":{"type":"Point","coordinates":[118.671294,24.94419]},"properties":{"province":"福建省","city":"泉州市","county":"洛江区","community":"万安街道首富商城","full_address":"福建省泉州市洛江区万安街道首富商城","info":""}},{"type":"Feature","geometry":{"type":"Point","coordinates":[118.667733,24.943143]},"properties":{"province":"福建省","city":"泉州市","county":"洛江区","community":"万安街道吉源小区（20号楼除外）","full_address":"福建省泉州市洛江区万安街道吉源小区（20号楼除外）","info":""}},{"type":"Feature","geometry":{"type":"Point","coordinates":[118.66882,24.9424]},"properties":{"province":"福建省","city":"泉州市","county":"洛江区","community":"万安街道吉源雅苑1号楼","full_address":"福建省泉州市洛江区万安街道吉源雅苑1号楼","info":""}},{"type":"Feature","geometry":{"type":"Point","coordinates":[118.614645,24.749381]},"properties":{"province":"福建省","city":"泉州市","county":"石狮市","community":"墨蒲酒吧","full_address":"福建省泉州市石狮市墨蒲酒吧","info":""}},{"type":"Feature","geometry":{"type":"Point","coordinates":[118.652034,24.727787]},"properties":{"province":"福建省","city":"泉州市","county":"石狮市","community":"湖滨街道曾坑社区红日路5号鑫源公寓","full_address":"福建省泉州市石狮市湖滨街道曾坑社区红日路5号鑫源公寓","info":""}},{"type":"Feature","geometry":{"type":"Point","coordinates":[118.617439,24.748596]},"properties":{"province":"福建省","city":"泉州市","county":"石狮市","community":"灵秀镇香江路1685-1687号栋楼","full_address":"福建省泉州市石狮市灵秀镇香江路1685-1687号栋楼","info":""}},{"type":"Feature","geometry":{"type":"Point","coordinates":[118.630436,24.731621]},"properties":{"province":"福建省","city":"泉州市","county":"石狮市","community":"祥芝镇后湖村大宏公司公寓四区","full_address":"福建省泉州市石狮市祥芝镇后湖村大宏公司公寓四区","info":""}},{"type":"Feature","geometry":{"type":"Point","coordinates":[118.747382,24.728564]},"properties":{"province":"福建省","city":"泉州市","county":"石狮市","community":"锦尚镇厝上村五片区4号楼","full_address":"福建省泉州市石狮市锦尚镇厝上村五片区4号楼","info":""}},{"type":"Feature","geometry":{"type":"Point","coordinates":[119.024224,25.417802]},"properties":{"province":"福建省","city":"莆田市","county":"城厢区","community":"霞林街道荔园东路1411号下黄小区35号楼4梯","full_address":"福建省莆田市城厢区霞林街道荔园东路1411号下黄小区35号楼4梯","info":""}},{"type":"Feature","geometry":{"type":"Point","coordinates":[119.132518,25.441175]},"properties":{"province":"福建省","city":"莆田市","county":"涵江区","community":"三江口镇杨芳村东曾90号","full_address":"福建省莆田市涵江区三江口镇杨芳村东曾90号","info":""}},{"type":"Feature","geometry":{"type":"Point","coordinates":[121.75919,39.03958]},"properties":{"province":"辽宁省","city":"大连市","county":"金州区","community":"金普新区马桥子街道凯悦公寓B座","full_address":"辽宁省大连市金州区金普新区马桥子街道凯悦公寓B座","info":""}},{"type":"Feature","geometry":{"type":"Point","coordinates":[121.930932,39.392048]},"properties":{"province":"辽宁省","city":"大连市","county":"普兰店区","community":"太平街道如意人家钰莲园小区10号楼","full_address":"辽宁省大连市普兰店区太平街道如意人家钰莲园小区10号楼","info":""}},{"type":"Feature","geometry":{"type":"Point","coordinates":[123.532063,41.859434]},"properties":{"province":"辽宁省","city":"沈阳市","county":"大东区","community":"惠民家园","full_address":"辽宁省沈阳市大东区惠民家园","info":""}},{"type":"Feature","geometry":{"type":"Point","coordinates":[123.537061,41.855773]},"properties":{"province":"辽宁省","city":"沈阳市","county":"大东区","community":"中体奥林匹克花园新城","full_address":"辽宁省沈阳市大东区中体奥林匹克花园新城","info":""}},{"type":"Feature","geometry":{"type":"Point","coordinates":[123.511079,41.841238]},"properties":{"province":"辽宁省","city":"沈阳市","county":"大东区","community":"钢花小区","full_address":"辽宁省沈阳市大东区钢花小区","info":""}},{"type":"Feature","geometry":{"type":"Point","coordinates":[122.136416,40.239556]},"properties":{"province":"辽宁省","city":"营口市","county":"鲅鱼圈区","community":"群星国际新城","full_address":"辽宁省营口市鲅鱼圈区群星国际新城","info":""}},{"type":"Feature","geometry":{"type":"Point","coordinates":[122.134119,40.270461]},"properties":{"province":"辽宁省","city":"营口市","county":"鲅鱼圈区","community":"金座A区","full_address":"辽宁省营口市鲅鱼圈区金座A区","info":""}},{"type":"Feature","geometry":{"type":"Point","coordinates":[122.143183,40.255871]},"properties":{"province":"辽宁省","city":"营口市","county":"鲅鱼圈区","community":"金禾一品财富广场","full_address":"辽宁省营口市鲅鱼圈区金禾一品财富广场","info":""}},{"type":"Feature","geometry":{"type":"Point","coordinates":[122.131925,40.237516]},"properties":{"province":"辽宁省","city":"营口市","county":"鲅鱼圈区","community":"恒祥湾·富贵园","full_address":"辽宁省营口市鲅鱼圈区恒祥湾·富贵园","info":""}},{"type":"Feature","geometry":{"type":"Point","coordinates":[122.130741,40.27782]},"properties":{"province":"辽宁省","city":"营口市","county":"鲅鱼圈区","community":"新港小区","full_address":"辽宁省营口市鲅鱼圈区新港小区","info":""}},{"type":"Feature","geometry":{"type":"Point","coordinates":[118.201763,31.095641]},"properties":{"province":"安徽省","city":"芜湖市","county":"繁昌区","community":"繁昌区新城华府小区1号楼","full_address":"安徽省芜湖市繁昌区繁昌区新城华府小区1号楼","info":""}},{"type":"Feature","geometry":{"type":"Point","coordinates":[118.207957,31.083187]},"properties":{"province":"安徽省","city":"芜湖市","county":"繁昌区","community":"阳光花园C区14栋","full_address":"安徽省芜湖市繁昌区阳光花园C区14栋","info":""}},{"type":"Feature","geometry":{"type":"Point","coordinates":[118.19301,31.074895]},"properties":{"province":"安徽省","city":"芜湖市","county":"繁昌区","community":"栖霞小区31栋","full_address":"安徽省芜湖市繁昌区栖霞小区31栋","info":""}},{"type":"Feature","geometry":{"type":"Point","coordinates":[118.070355,31.186248]},"properties":{"province":"安徽省","city":"芜湖市","county":"繁昌区","community":"新港镇建华建材职工宿舍5栋","full_address":"安徽省芜湖市繁昌区新港镇建华建材职工宿舍5栋","info":""}},{"type":"Feature","geometry":{"type":"Point","coordinates":[116.73411,32.677067]},"properties":{"province":"安徽省","city":"淮南市","county":"凤台县","community":"李冲回族乡民族村","full_address":"安徽省淮南市凤台县李冲回族乡民族村","info":""}},{"type":"Feature","geometry":{"type":"Point","coordinates":[116.752709,32.67313]},"properties":{"province":"安徽省","city":"淮南市","county":"凤台县","community":"李冲回族乡李冲村","full_address":"安徽省淮南市凤台县李冲回族乡李冲村","info":""}},{"type":"Feature","geometry":{"type":"Point","coordinates":[116.687252,32.686054]},"properties":{"province":"安徽省","city":"淮南市","county":"凤台县","community":"刘集镇淝北村","full_address":"安徽省淮南市凤台县刘集镇淝北村","info":""}},{"type":"Feature","geometry":{"type":"Point","coordinates":[116.406042,32.737782]},"properties":{"province":"安徽省","city":"阜阳市","county":"颍上县","community":"谢桥镇全域","full_address":"安徽省阜阳市颍上县谢桥镇全域","info":""}},{"type":"Feature","geometry":{"type":"Point","coordinates":[115.616731,28.434086]},"properties":{"province":"江西省","city":"南昌市","county":"新建区","community":"石岗镇界坛村","full_address":"江西省南昌市新建区石岗镇界坛村","info":""}},{"type":"Feature","geometry":{"type":"Point","coordinates":[115.596474,28.448443]},"properties":{"province":"江西省","city":"南昌市","county":"新建区","community":"石岗镇田北村谌家老居","full_address":"江西省南昌市新建区石岗镇田北村谌家老居","info":""}},{"type":"Feature","geometry":{"type":"Point","coordinates":[115.828063,28.680374]},"properties":{"province":"江西省","city":"南昌市","county":"新建区","community":"石岗镇长征路15号","full_address":"江西省南昌市新建区石岗镇长征路15号","info":""}},{"type":"Feature","geometry":{"type":"Point","coordinates":[116.646403,27.474262]},"properties":{"province":"江西省","city":"抚州市","county":"南城县","community":"G35济广高速鹰瑞段南城服务区","full_address":"江西省抚州市南城县G35济广高速鹰瑞段南城服务区","info":""}},{"type":"Feature","geometry":{"type":"Point","coordinates":[109.969001,27.546081]},"properties":{"province":"湖南省","city":"怀化市","county":"鹤城区","community":"城中街道人民路小学","full_address":"湖南省怀化市鹤城区城中街道人民路小学","info":""}},{"type":"Feature","geometry":{"type":"Point","coordinates":[109.957845,27.545673]},"properties":{"province":"湖南省","city":"怀化市","county":"鹤城区","community":"城中街道舞水小学（本部）","full_address":"湖南省怀化市鹤城区城中街道舞水小学（本部）","info":""}},{"type":"Feature","geometry":{"type":"Point","coordinates":[109.97159,27.551468]},"properties":{"province":"湖南省","city":"怀化市","county":"鹤城区","community":"城中街道阳光华庭小区","full_address":"湖南省怀化市鹤城区城中街道阳光华庭小区","info":""}},{"type":"Feature","geometry":{"type":"Point","coordinates":[110.040315,27.578926]},"properties":{"province":"湖南省","city":"怀化市","county":"鹤城区","community":"大厦","full_address":"湖南省怀化市鹤城区大厦","info":""}},{"type":"Feature","geometry":{"type":"Point","coordinates":[109.96247,27.557167]},"properties":{"province":"湖南省","city":"怀化市","county":"鹤城区","community":"城中街道鸿福雅苑","full_address":"湖南省怀化市鹤城区城中街道鸿福雅苑","info":""}},{"type":"Feature","geometry":{"type":"Point","coordinates":[110.000166,27.522678]},"properties":{"province":"湖南省","city":"怀化市","county":"鹤城区","community":"城南街道岳麓欧城依云堡","full_address":"湖南省怀化市鹤城区城南街道岳麓欧城依云堡","info":""}},{"type":"Feature","geometry":{"type":"Point","coordinates":[109.987182,27.52186]},"properties":{"province":"湖南省","city":"怀化市","county":"鹤城区","community":"城南街道岳麓青城一期","full_address":"湖南省怀化市鹤城区城南街道岳麓青城一期","info":""}},{"type":"Feature","geometry":{"type":"Point","coordinates":[109.930674,27.46884]},"properties":{"province":"湖南省","city":"怀化市","county":"鹤城区","community":"河西街道花背村20组","full_address":"湖南省怀化市鹤城区河西街道花背村20组","info":""}},{"type":"Feature","geometry":{"type":"Point","coordinates":[109.930674,27.46884]},"properties":{"province":"湖南省","city":"怀化市","county":"鹤城区","community":"河西街道花背村23组","full_address":"湖南省怀化市鹤城区河西街道花背村23组","info":""}},{"type":"Feature","geometry":{"type":"Point","coordinates":[112.970924,28.139978]},"properties":{"province":"湖南省","city":"长沙市","county":"天心区","community":"新开铺街道天翔新新家园A栋","full_address":"湖南省长沙市天心区新开铺街道天翔新新家园A栋","info":""}},{"type":"Feature","geometry":{"type":"Point","coordinates":[112.980243,28.182195]},"properties":{"province":"湖南省","city":"长沙市","county":"天心区","community":"城南路街道席草田巷2&3&5&7&9&11&13&15&17&19&20号and天心街1—11号&12-74号（双号）and白沙街8号二单元and席草田巷1号含（萝卜白菜）经营场所and熙台岭巷41—45号（单号）&52-98号（双号）and南福巷6-8号and里仁坡1—7号&11—37号&45号and城南西路93号（德雅村）—109号（好牙医华盛店）以南and里仁坡2—10号以北","full_address":"湖南省长沙市天心区城南路街道席草田巷2&3&5&7&9&11&13&15&17&19&20号and天心街1—11号&12-74号（双号）and白沙街8号二单元and席草田巷1号含（萝卜白菜）经营场所and熙台岭巷41—45号（单号）&52-98号（双号）and南福巷6-8号and里仁坡1—7号&11—37号&45号and城南西路93号（德雅村）—109号（好牙医华盛店）以南and里仁坡2—10号以北","info":""}},{"type":"Feature","geometry":{"type":"Point","coordinates":[112.989789,28.168513]},"properties":{"province":"湖南省","city":"长沙市","county":"雨花区","community":"雅礼中学","full_address":"湖南省长沙市雨花区雅礼中学","info":""}},{"type":"Feature","geometry":{"type":"Point","coordinates":[112.987881,28.170837]},"properties":{"province":"湖南省","city":"长沙市","county":"雨花区","community":"中雅培粹学校","full_address":"湖南省长沙市雨花区中雅培粹学校","info":""}},{"type":"Feature","geometry":{"type":"Point","coordinates":[112.986955,28.170569]},"properties":{"province":"湖南省","city":"长沙市","county":"雨花区","community":"东塘街道枫树山社区","full_address":"湖南省长沙市雨花区东塘街道枫树山社区","info":""}},{"type":"Feature","geometry":{"type":"Point","coordinates":[112.992902,28.168501]},"properties":{"province":"湖南省","city":"长沙市","county":"雨花区","community":"东塘街道现代华都小户型楼栋","full_address":"湖南省长沙市雨花区东塘街道现代华都小户型楼栋","info":""}},{"type":"Feature","geometry":{"type":"Point","coordinates":[113.003308,28.182321]},"properties":{"province":"湖南省","city":"长沙市","county":"雨花区","community":"左家塘街道天润花园2栋","full_address":"湖南省长沙市雨花区左家塘街道天润花园2栋","info":""}},{"type":"Feature","geometry":{"type":"Point","coordinates":[112.942182,28.141316]},"properties":{"province":"湖南省","city":"长沙市","county":"岳麓区","community":"阳光100小区一期二期三期","full_address":"湖南省长沙市岳麓区阳光100小区一期二期三期","info":""}},{"type":"Feature","geometry":{"type":"Point","coordinates":[112.94574,28.174744]},"properties":{"province":"湖南省","city":"长沙市","county":"岳麓区","community":"湖南大学信息科学与工程学院","full_address":"湖南省长沙市岳麓区湖南大学信息科学与工程学院","info":""}},{"type":"Feature","geometry":{"type":"Point","coordinates":[112.931179,28.198286]},"properties":{"province":"湖南省","city":"长沙市","county":"岳麓区","community":"湖南大学三食堂","full_address":"湖南省长沙市岳麓区湖南大学三食堂","info":""}},{"type":"Feature","geometry":{"type":"Point","coordinates":[112.844189,26.937456]},"properties":{"province":"湖南省","city":"衡阳市","county":"衡东县","community":"石滩乡石金村小泉屋组","full_address":"湖南省衡阳市衡东县石滩乡石金村小泉屋组","info":""}},{"type":"Feature","geometry":{"type":"Point","coordinates":[103.956865,29.189751]},"properties":{"province":"四川省","city":"乐山市","county":"犍为县","community":"玉津镇罗城路众恒中央公园E区","full_address":"四川省乐山市犍为县玉津镇罗城路众恒中央公园E区","info":""}},{"type":"Feature","geometry":{"type":"Point","coordinates":[103.948606,29.192017]},"properties":{"province":"四川省","city":"乐山市","county":"犍为县","community":"玉津镇麻柳路翠湖公园小区","full_address":"四川省乐山市犍为县玉津镇麻柳路翠湖公园小区","info":""}},{"type":"Feature","geometry":{"type":"Point","coordinates":[103.954975,29.2031]},"properties":{"province":"四川省","city":"乐山市","county":"犍为县","community":"玉津镇滨江路东方花园小区","full_address":"四川省乐山市犍为县玉津镇滨江路东方花园小区","info":""}}]}