{"type":"FeatureCollection","features":[{"type":"Feature","geometry":{"type":"Point","coordinates":[117.226801,39.172253]},"properties":{"province":"天津市","city":"市辖区","county":"河北区","community":"建昌道街中山北里20门","full_address":"天津市市辖区河北区建昌道街中山北里20门","info":""}},{"type":"Feature","geometry":{"type":"Point","coordinates":[117.218164,39.140904]},"properties":{"province":"天津市","city":"市辖区","county":"河东区","community":"春华街道月光园2号楼.","full_address":"天津市市辖区河东区春华街道月光园2号楼.","info":""}},{"type":"Feature","geometry":{"type":"Point","coordinates":[116.367665,40.03222]},"properties":{"province":"北京市","city":"市辖区","county":"丰台区","community":"新村街道怡海花园社区","full_address":"北京市市辖区丰台区新村街道怡海花园社区","info":""}},{"type":"Feature","geometry":{"type":"Point","coordinates":[116.330798,39.831838]},"properties":{"province":"北京市","city":"市辖区","county":"丰台区","community":"玉泉营街道黄土岗村","full_address":"北京市市辖区丰台区玉泉营街道黄土岗村","info":""}},{"type":"Feature","geometry":{"type":"Point","coordinates":[116.474288,40.003561]},"properties":{"province":"北京市","city":"市辖区","county":"朝阳区","community":"安贞街道安贞里三区4号楼","full_address":"北京市市辖区朝阳区安贞街道安贞里三区4号楼","info":""}},{"type":"Feature","geometry":{"type":"Point","coordinates":[131.157975,44.402403]},"properties":{"province":"黑龙江省","city":"牡丹江市","county":"绥芬河市","community":"鸿福小区","full_address":"黑龙江省牡丹江市绥芬河市鸿福小区","info":""}},{"type":"Feature","geometry":{"type":"Point","coordinates":[131.163474,44.403198]},"properties":{"province":"黑龙江省","city":"牡丹江市","county":"绥芬河市","community":"千园小区","full_address":"黑龙江省牡丹江市绥芬河市千园小区","info":""}},{"type":"Feature","geometry":{"type":"Point","coordinates":[131.152546,44.412309]},"properties":{"province":"黑龙江省","city":"牡丹江市","county":"绥芬河市","community":"良运公司","full_address":"黑龙江省牡丹江市绥芬河市良运公司","info":""}},{"type":"Feature","geometry":{"type":"Point","coordinates":[131.148004,44.411587]},"properties":{"province":"黑龙江省","city":"牡丹江市","county":"绥芬河市","community":"环保局家属楼","full_address":"黑龙江省牡丹江市绥芬河市环保局家属楼","info":""}},{"type":"Feature","geometry":{"type":"Point","coordinates":[131.138329,44.39671]},"properties":{"province":"黑龙江省","city":"牡丹江市","county":"绥芬河市","community":"二中集资楼","full_address":"黑龙江省牡丹江市绥芬河市二中集资楼","info":""}},{"type":"Feature","geometry":{"type":"Point","coordinates":[131.164473,44.394966]},"properties":{"province":"黑龙江省","city":"牡丹江市","county":"绥芬河市","community":"兴建大厦","full_address":"黑龙江省牡丹江市绥芬河市兴建大厦","info":""}},{"type":"Feature","geometry":{"type":"Point","coordinates":[131.137884,44.388517]},"properties":{"province":"黑龙江省","city":"牡丹江市","county":"绥芬河市","community":"龙泉文苑8号楼","full_address":"黑龙江省牡丹江市绥芬河市龙泉文苑8号楼","info":""}},{"type":"Feature","geometry":{"type":"Point","coordinates":[131.14037,44.394447]},"properties":{"province":"黑龙江省","city":"牡丹江市","county":"绥芬河市","community":"旗苑嘉园C区","full_address":"黑龙江省牡丹江市绥芬河市旗苑嘉园C区","info":""}},{"type":"Feature","geometry":{"type":"Point","coordinates":[130.265481,44.523109]},"properties":{"province":"黑龙江省","city":"牡丹江市","county":"穆棱市","community":"馨怡纯粮油公司","full_address":"黑龙江省牡丹江市穆棱市馨怡纯粮油公司","info":""}},{"type":"Feature","geometry":{"type":"Point","coordinates":[131.161331,44.399952]},"properties":{"province":"黑龙江省","city":"牡丹江市","county":"绥芬河市","community":"春龙农贸市场","full_address":"黑龙江省牡丹江市绥芬河市春龙农贸市场","info":""}},{"type":"Feature","geometry":{"type":"Point","coordinates":[131.168635,44.397787]},"properties":{"province":"黑龙江省","city":"牡丹江市","county":"绥芬河市","community":"五彩楼7单元","full_address":"黑龙江省牡丹江市绥芬河市五彩楼7单元","info":""}},{"type":"Feature","geometry":{"type":"Point","coordinates":[131.152546,44.412309]},"properties":{"province":"黑龙江省","city":"牡丹江市","county":"绥芬河市","community":"老妇幼院里3单元","full_address":"黑龙江省牡丹江市绥芬河市老妇幼院里3单元","info":""}},{"type":"Feature","geometry":{"type":"Point","coordinates":[131.134144,44.396005]},"properties":{"province":"黑龙江省","city":"牡丹江市","county":"绥芬河市","community":"海融富华苑13号楼","full_address":"黑龙江省牡丹江市绥芬河市海融富华苑13号楼","info":""}},{"type":"Feature","geometry":{"type":"Point","coordinates":[131.152546,44.412309]},"properties":{"province":"黑龙江省","city":"牡丹江市","county":"绥芬河市","community":"集资1号楼4单元","full_address":"黑龙江省牡丹江市绥芬河市集资1号楼4单元","info":""}},{"type":"Feature","geometry":{"type":"Point","coordinates":[131.173476,44.399556]},"properties":{"province":"黑龙江省","city":"牡丹江市","county":"绥芬河市","community":"鑫城小区8号楼","full_address":"黑龙江省牡丹江市绥芬河市鑫城小区8号楼","info":""}},{"type":"Feature","geometry":{"type":"Point","coordinates":[129.665205,44.611591]},"properties":{"province":"黑龙江省","city":"牡丹江市","county":"阳明区","community":"花园小区3号楼","full_address":"黑龙江省牡丹江市阳明区花园小区3号楼","info":""}},{"type":"Feature","geometry":{"type":"Point","coordinates":[131.141941,44.388415]},"properties":{"province":"黑龙江省","city":"牡丹江市","county":"绥芬河市","community":"阜宁雅居17号楼","full_address":"黑龙江省牡丹江市绥芬河市阜宁雅居17号楼","info":""}},{"type":"Feature","geometry":{"type":"Point","coordinates":[131.131507,44.38962]},"properties":{"province":"黑龙江省","city":"牡丹江市","county":"绥芬河市","community":"迎泽丽都三期9号楼","full_address":"黑龙江省牡丹江市绥芬河市迎泽丽都三期9号楼","info":""}},{"type":"Feature","geometry":{"type":"Point","coordinates":[129.642015,44.577945]},"properties":{"province":"黑龙江省","city":"牡丹江市","county":"阳明区","community":"阳光小区7号楼","full_address":"黑龙江省牡丹江市阳明区阳光小区7号楼","info":""}},{"type":"Feature","geometry":{"type":"Point","coordinates":[127.528786,50.232166]},"properties":{"province":"黑龙江省","city":"黑河市","county":"爱辉区","community":"喇嘛台社区荣耀世纪小区4号楼","full_address":"黑龙江省黑河市爱辉区喇嘛台社区荣耀世纪小区4号楼","info":""}},{"type":"Feature","geometry":{"type":"Point","coordinates":[127.530319,50.240168]},"properties":{"province":"黑龙江省","city":"黑河市","county":"爱辉区","community":"武庙屯社区警官名苑小区B栋","full_address":"黑龙江省黑河市爱辉区武庙屯社区警官名苑小区B栋","info":""}},{"type":"Feature","geometry":{"type":"Point","coordinates":[127.476396,50.253352]},"properties":{"province":"黑龙江省","city":"黑河市","county":"爱辉区","community":"向阳社区水岸阳光小区9号楼","full_address":"黑龙江省黑河市爱辉区向阳社区水岸阳光小区9号楼","info":""}},{"type":"Feature","geometry":{"type":"Point","coordinates":[127.497957,50.252053]},"properties":{"province":"黑龙江省","city":"黑河市","county":"爱辉区","community":"鹿源春社区金达之家小区中房49号楼","full_address":"黑龙江省黑河市爱辉区鹿源春社区金达之家小区中房49号楼","info":""}},{"type":"Feature","geometry":{"type":"Point","coordinates":[127.529177,50.232449]},"properties":{"province":"黑龙江省","city":"黑河市","county":"爱辉区","community":"武庙屯社区之路佳苑小区4号楼","full_address":"黑龙江省黑河市爱辉区武庙屯社区之路佳苑小区4号楼","info":""}},{"type":"Feature","geometry":{"type":"Point","coordinates":[115.859378,37.079804]},"properties":{"province":"河北省","city":"衡水市","county":"故城县","community":"建国镇叶庄村","full_address":"河北省衡水市故城县建国镇叶庄村","info":""}},{"type":"Feature","geometry":{"type":"Point","coordinates":[113.9331,22.66934]},"properties":{"province":"广东省","city":"深圳市","county":"宝安区","community":"石岩街道罗租社区艾美特科技园B栋","full_address":"广东省深圳市宝安区石岩街道罗租社区艾美特科技园B栋","info":""}},{"type":"Feature","geometry":{"type":"Point","coordinates":[113.931278,22.674942]},"properties":{"province":"广东省","city":"深圳市","county":"宝安区","community":"石岩街道罗租社区下新村十四巷4号","full_address":"广东省深圳市宝安区石岩街道罗租社区下新村十四巷4号","info":""}},{"type":"Feature","geometry":{"type":"Point","coordinates":[113.805714,22.716632]},"properties":{"province":"广东省","city":"深圳市","county":"宝安区","community":"十五巷4号","full_address":"广东省深圳市宝安区十五巷4号","info":""}},{"type":"Feature","geometry":{"type":"Point","coordinates":[113.932934,22.674502]},"properties":{"province":"广东省","city":"深圳市","county":"宝安区","community":"石岩街道浪心南路3号楼","full_address":"广东省深圳市宝安区石岩街道浪心南路3号楼","info":""}},{"type":"Feature","geometry":{"type":"Point","coordinates":[113.930824,22.674692]},"properties":{"province":"广东省","city":"深圳市","county":"宝安区","community":"宝石南路94号","full_address":"广东省深圳市宝安区宝石南路94号","info":""}},{"type":"Feature","geometry":{"type":"Point","coordinates":[106.615374,23.32345]},"properties":{"province":"广西壮族自治区","city":"百色市","county":"德保县","community":"维也纳国际酒店（德保腾飞广场店）","full_address":"广西壮族自治区百色市德保县维也纳国际酒店（德保腾飞广场店）","info":""}},{"type":"Feature","geometry":{"type":"Point","coordinates":[120.344907,40.319465]},"properties":{"province":"辽宁省","city":"葫芦岛市","county":"绥中县","community":"绥中镇工人社区盛华园二期","full_address":"辽宁省葫芦岛市绥中县绥中镇工人社区盛华园二期","info":""}}]}