{"type":"FeatureCollection","features":[{"type":"Feature","geometry":{"type":"Point","coordinates":[97.75088,24.187587]},"properties":{"province":"云南省","city":"德宏傣族景颇族自治州","county":"陇川县","community":"章凤镇迭撒村拉影村民小组","full_address":"云南省德宏傣族景颇族自治州陇川县章凤镇迭撒村拉影村民小组","info":""}},{"type":"Feature","geometry":{"type":"Point","coordinates":[97.654805,23.878132]},"properties":{"province":"云南省","city":"德宏傣族景颇族自治州","county":"瑞丽市","community":"弄岛镇雷允村委会雷允村民小组","full_address":"云南省德宏傣族景颇族自治州瑞丽市弄岛镇雷允村委会雷允村民小组","info":""}},{"type":"Feature","geometry":{"type":"Point","coordinates":[104.000285,30.66163]},"properties":{"province":"四川省","city":"成都市","county":"青羊区","community":"优品道曦岸小区","full_address":"四川省成都市青羊区优品道曦岸小区","info":""}},{"type":"Feature","geometry":{"type":"Point","coordinates":[104.043793,30.551819]},"properties":{"province":"四川省","city":"成都市","county":"武侯区","community":"高新区都城雅颂居小区","full_address":"四川省成都市武侯区高新区都城雅颂居小区","info":""}},{"type":"Feature","geometry":{"type":"Point","coordinates":[104.036888,30.598248]},"properties":{"province":"四川省","city":"成都市","county":"武侯区","community":"高新区美洲花园68栋","full_address":"四川省成都市武侯区高新区美洲花园68栋","info":""}},{"type":"Feature","geometry":{"type":"Point","coordinates":[104.702063,31.390056]},"properties":{"province":"四川省","city":"绵阳市","county":"涪城区","community":"吴家镇惠科路1号厂区","full_address":"四川省绵阳市涪城区吴家镇惠科路1号厂区","info":""}},{"type":"Feature","geometry":{"type":"Point","coordinates":[104.976872,28.835242]},"properties":{"province":"四川省","city":"宜宾市","county":"南溪区","community":"南溪街道江景郦城小区1栋","full_address":"四川省宜宾市南溪区南溪街道江景郦城小区1栋","info":""}},{"type":"Feature","geometry":{"type":"Point","coordinates":[123.479533,41.807102]},"properties":{"province":"辽宁省","city":"沈阳市","county":"大东区","community":"珠林路50-15号楼","full_address":"辽宁省沈阳市大东区珠林路50-15号楼","info":""}},{"type":"Feature","geometry":{"type":"Point","coordinates":[121.598549,38.997844]},"properties":{"province":"辽宁省","city":"大连市","county":"甘井子区","community":"泉水街道A4区27号楼","full_address":"辽宁省大连市甘井子区泉水街道A4区27号楼","info":""}},{"type":"Feature","geometry":{"type":"Point","coordinates":[118.94874,31.797019]},"properties":{"province":"江苏省","city":"南京市","county":"江宁区","community":"湖熟街道周岗社区张巷自然村","full_address":"江苏省南京市江宁区湖熟街道周岗社区张巷自然村","info":""}},{"type":"Feature","geometry":{"type":"Point","coordinates":[118.94874,31.797019]},"properties":{"province":"江苏省","city":"南京市","county":"江宁区","community":"湖熟街道周岗社区庄上自然村","full_address":"江苏省南京市江宁区湖熟街道周岗社区庄上自然村","info":""}},{"type":"Feature","geometry":{"type":"Point","coordinates":[118.93565,31.799071]},"properties":{"province":"江苏省","city":"南京市","county":"江宁区","community":"湖熟街道尚桥社区焦东自然村","full_address":"江苏省南京市江宁区湖熟街道尚桥社区焦东自然村","info":""}},{"type":"Feature","geometry":{"type":"Point","coordinates":[118.94711,31.796494]},"properties":{"province":"江苏省","city":"南京市","county":"江宁区","community":"湖熟街道周岗社区新风苑","full_address":"江苏省南京市江宁区湖熟街道周岗社区新风苑","info":""}},{"type":"Feature","geometry":{"type":"Point","coordinates":[118.955368,31.784327]},"properties":{"province":"江苏省","city":"南京市","county":"江宁区","community":"湖熟街道钱家村钱家自然村","full_address":"江苏省南京市江宁区湖熟街道钱家村钱家自然村","info":""}},{"type":"Feature","geometry":{"type":"Point","coordinates":[118.945847,31.796012]},"properties":{"province":"江苏省","city":"南京市","county":"江宁区","community":"湖熟街道周岗社区围合区域(东至集贤路，南至长干街，西至康庄路，北至齐尚街)、雨花台区铁心桥街道景明佳园小区","full_address":"江苏省南京市江宁区湖熟街道周岗社区围合区域(东至集贤路，南至长干街，西至康庄路，北至齐尚街)、雨花台区铁心桥街道景明佳园小区","info":""}},{"type":"Feature","geometry":{"type":"Point","coordinates":[118.824076,31.900879]},"properties":{"province":"江苏省","city":"南京市","county":"江宁区","community":"秣陵街道殷巷社区龙湖文馨苑小区","full_address":"江苏省南京市江宁区秣陵街道殷巷社区龙湖文馨苑小区","info":""}},{"type":"Feature","geometry":{"type":"Point","coordinates":[118.793712,31.906291]},"properties":{"province":"江苏省","city":"南京市","county":"江宁区","community":"秣陵街道青源社区翠屏湾花园城","full_address":"江苏省南京市江宁区秣陵街道青源社区翠屏湾花园城","info":""}},{"type":"Feature","geometry":{"type":"Point","coordinates":[118.812897,31.685816]},"properties":{"province":"江苏省","city":"南京市","county":"江宁区","community":"横溪街道许呈社区小呈自然村","full_address":"江苏省南京市江宁区横溪街道许呈社区小呈自然村","info":""}},{"type":"Feature","geometry":{"type":"Point","coordinates":[118.83629,31.944619]},"properties":{"province":"江苏省","city":"南京市","county":"江宁区","community":"东山街道骆村社区天琪福苑","full_address":"江苏省南京市江宁区东山街道骆村社区天琪福苑","info":""}},{"type":"Feature","geometry":{"type":"Point","coordinates":[118.813711,31.961033]},"properties":{"province":"江苏省","city":"南京市","county":"江宁区","community":"东山街道岔路社区绿城深蓝小区","full_address":"江苏省南京市江宁区东山街道岔路社区绿城深蓝小区","info":""}},{"type":"Feature","geometry":{"type":"Point","coordinates":[118.920436,32.055697]},"properties":{"province":"江苏省","city":"南京市","county":"江宁区","community":"麒麟街道麒麟门社区麒西路95号","full_address":"江苏省南京市江宁区麒麟街道麒麟门社区麒西路95号","info":""}},{"type":"Feature","geometry":{"type":"Point","coordinates":[118.936601,31.884357]},"properties":{"province":"江苏省","city":"南京市","county":"江宁区","community":"淳化街道新林村郭村自然村","full_address":"江苏省南京市江宁区淳化街道新林村郭村自然村","info":""}},{"type":"Feature","geometry":{"type":"Point","coordinates":[118.96626,31.689765]},"properties":{"province":"江苏省","city":"南京市","county":"溧水区","community":"石湫街道九塘行政村毛家圩自然村","full_address":"江苏省南京市溧水区石湫街道九塘行政村毛家圩自然村","info":""}},{"type":"Feature","geometry":{"type":"Point","coordinates":[119.052645,31.642283]},"properties":{"province":"江苏省","city":"南京市","county":"溧水区","community":"永阳街道万科城香樟苑","full_address":"江苏省南京市溧水区永阳街道万科城香樟苑","info":""}},{"type":"Feature","geometry":{"type":"Point","coordinates":[118.972516,31.731377]},"properties":{"province":"江苏省","city":"南京市","county":"溧水区","community":"柘塘街道湖滨新寓","full_address":"江苏省南京市溧水区柘塘街道湖滨新寓","info":""}},{"type":"Feature","geometry":{"type":"Point","coordinates":[119.037452,31.649815]},"properties":{"province":"江苏省","city":"南京市","county":"溧水区","community":"永阳街道宏力花苑","full_address":"江苏省南京市溧水区永阳街道宏力花苑","info":""}},{"type":"Feature","geometry":{"type":"Point","coordinates":[119.165386,31.369209]},"properties":{"province":"江苏省","city":"南京市","county":"高淳区","community":"桠溪街道省道239与桠定路交叉路口芜太建材店所在建筑范围","full_address":"江苏省南京市高淳区桠溪街道省道239与桠定路交叉路口芜太建材店所在建筑范围","info":""}},{"type":"Feature","geometry":{"type":"Point","coordinates":[118.753997,32.019354]},"properties":{"province":"江苏省","city":"南京市","county":"建邺区","community":"南苑街道所街26号","full_address":"江苏省南京市建邺区南苑街道所街26号","info":""}},{"type":"Feature","geometry":{"type":"Point","coordinates":[118.745741,32.028159]},"properties":{"province":"江苏省","city":"南京市","county":"建邺区","community":"莫愁湖街道凤栖苑1-93号小区","full_address":"江苏省南京市建邺区莫愁湖街道凤栖苑1-93号小区","info":""}},{"type":"Feature","geometry":{"type":"Point","coordinates":[118.752432,32.016551]},"properties":{"province":"江苏省","city":"南京市","county":"建邺区","community":"南苑街道吉庆家园小区","full_address":"江苏省南京市建邺区南苑街道吉庆家园小区","info":""}},{"type":"Feature","geometry":{"type":"Point","coordinates":[118.823696,32.026271]},"properties":{"province":"江苏省","city":"南京市","county":"秦淮区","community":"瑞金路街道标营4号26、27、28、29、30栋","full_address":"江苏省南京市秦淮区瑞金路街道标营4号26、27、28、29、30栋","info":""}},{"type":"Feature","geometry":{"type":"Point","coordinates":[118.803454,32.002014]},"properties":{"province":"江苏省","city":"南京市","county":"秦淮区","community":"中华门街道晨光新苑16栋","full_address":"江苏省南京市秦淮区中华门街道晨光新苑16栋","info":""}},{"type":"Feature","geometry":{"type":"Point","coordinates":[118.851188,32.020605]},"properties":{"province":"江苏省","city":"南京市","county":"玄武区","community":"孝陵卫街道胜利村100号","full_address":"江苏省南京市玄武区孝陵卫街道胜利村100号","info":""}},{"type":"Feature","geometry":{"type":"Point","coordinates":[118.806747,32.10617]},"properties":{"province":"江苏省","city":"南京市","county":"栖霞区","community":"迈皋桥街道和燕花苑12幢","full_address":"江苏省南京市栖霞区迈皋桥街道和燕花苑12幢","info":""}},{"type":"Feature","geometry":{"type":"Point","coordinates":[118.757467,32.087219]},"properties":{"province":"江苏省","city":"南京市","county":"鼓楼区","community":"挹江门街道大桥南路10号","full_address":"江苏省南京市鼓楼区挹江门街道大桥南路10号","info":""}},{"type":"Feature","geometry":{"type":"Point","coordinates":[118.779109,32.079573]},"properties":{"province":"江苏省","city":"南京市","county":"鼓楼区","community":"中央门街道工人新村小区","full_address":"江苏省南京市鼓楼区中央门街道工人新村小区","info":""}},{"type":"Feature","geometry":{"type":"Point","coordinates":[118.760583,31.965384]},"properties":{"province":"江苏省","city":"南京市","county":"雨花台区","community":"铁心桥街道凤翔花园4期","full_address":"江苏省南京市雨花台区铁心桥街道凤翔花园4期","info":""}},{"type":"Feature","geometry":{"type":"Point","coordinates":[118.761696,31.975818]},"properties":{"province":"江苏省","city":"南京市","county":"雨花台区","community":"凤翔新城1期","full_address":"江苏省南京市雨花台区凤翔新城1期","info":""}},{"type":"Feature","geometry":{"type":"Point","coordinates":[118.778992,31.966431]},"properties":{"province":"江苏省","city":"南京市","county":"雨花台区","community":"铁心桥街道景明佳园小区","full_address":"江苏省南京市雨花台区铁心桥街道景明佳园小区","info":""}},{"type":"Feature","geometry":{"type":"Point","coordinates":[118.675917,33.704824]},"properties":{"province":"江苏省","city":"宿迁市","county":"泗阳县","community":"众兴街道西湖社区中华商城小区","full_address":"江苏省宿迁市泗阳县众兴街道西湖社区中华商城小区","info":""}},{"type":"Feature","geometry":{"type":"Point","coordinates":[119.415883,32.400175]},"properties":{"province":"江苏省","city":"扬州市","county":"邗江区","community":"双桥街道念四新村小区","full_address":"江苏省扬州市邗江区双桥街道念四新村小区","info":""}},{"type":"Feature","geometry":{"type":"Point","coordinates":[119.410473,32.383279]},"properties":{"province":"江苏省","city":"扬州市","county":"邗江区","community":"双桥街道武塘社区文昌路以南、明月路以北、维扬路以西、新城河路以东区域","full_address":"江苏省扬州市邗江区双桥街道武塘社区文昌路以南、明月路以北、维扬路以西、新城河路以东区域","info":""}},{"type":"Feature","geometry":{"type":"Point","coordinates":[118.891545,33.298029]},"properties":{"province":"江苏省","city":"淮安市","county":"洪泽区","community":"高良涧街道洪泽园三村宏盛家园十栋","full_address":"江苏省淮安市洪泽区高良涧街道洪泽园三村宏盛家园十栋","info":""}},{"type":"Feature","geometry":{"type":"Point","coordinates":[118.881101,33.297429]},"properties":{"province":"江苏省","city":"淮安市","county":"洪泽区","community":"高良涧街道崔朱社区泽地华城12栋","full_address":"江苏省淮安市洪泽区高良涧街道崔朱社区泽地华城12栋","info":""}},{"type":"Feature","geometry":{"type":"Point","coordinates":[118.893743,33.250556]},"properties":{"province":"江苏省","city":"淮安市","county":"洪泽区","community":"高良涧街道王庄村13组胡桑田庄台","full_address":"江苏省淮安市洪泽区高良涧街道王庄村13组胡桑田庄台","info":""}},{"type":"Feature","geometry":{"type":"Point","coordinates":[110.536551,29.340153]},"properties":{"province":"湖南省","city":"张家界市","county":"武陵源区","community":"军地坪街道","full_address":"湖南省张家界市武陵源区军地坪街道","info":""}},{"type":"Feature","geometry":{"type":"Point","coordinates":[110.479123,29.126438]},"properties":{"province":"湖南省","city":"张家界市","county":"永定区","community":"永定街道","full_address":"湖南省张家界市永定区永定街道","info":""}},{"type":"Feature","geometry":{"type":"Point","coordinates":[110.487411,29.128511]},"properties":{"province":"湖南省","city":"张家界市","county":"永定区","community":"崇文街道","full_address":"湖南省张家界市永定区崇文街道","info":""}},{"type":"Feature","geometry":{"type":"Point","coordinates":[110.468611,29.108934]},"properties":{"province":"湖南省","city":"张家界市","county":"永定区","community":"南庄坪街道","full_address":"湖南省张家界市永定区南庄坪街道","info":""}},{"type":"Feature","geometry":{"type":"Point","coordinates":[110.484417,29.105127]},"properties":{"province":"湖南省","city":"张家界市","county":"永定区","community":"官黎坪街道","full_address":"湖南省张家界市永定区官黎坪街道","info":""}},{"type":"Feature","geometry":{"type":"Point","coordinates":[110.343691,29.068885]},"properties":{"province":"湖南省","city":"张家界市","county":"永定区","community":"后坪街道","full_address":"湖南省张家界市永定区后坪街道","info":""}},{"type":"Feature","geometry":{"type":"Point","coordinates":[110.464885,29.178364]},"properties":{"province":"湖南省","city":"张家界市","county":"永定区","community":"沙堤街道","full_address":"湖南省张家界市永定区沙堤街道","info":""}},{"type":"Feature","geometry":{"type":"Point","coordinates":[110.466986,29.134796]},"properties":{"province":"湖南省","city":"张家界市","county":"永定区","community":"大庸桥街道","full_address":"湖南省张家界市永定区大庸桥街道","info":""}},{"type":"Feature","geometry":{"type":"Point","coordinates":[110.551471,29.120475]},"properties":{"province":"湖南省","city":"张家界市","county":"永定区","community":"西溪坪街道","full_address":"湖南省张家界市永定区西溪坪街道","info":""}},{"type":"Feature","geometry":{"type":"Point","coordinates":[110.573662,29.133247]},"properties":{"province":"湖南省","city":"张家界市","county":"永定区","community":"阳湖坪街道","full_address":"湖南省张家界市永定区阳湖坪街道","info":""}},{"type":"Feature","geometry":{"type":"Point","coordinates":[110.673308,28.989506]},"properties":{"province":"湖南省","city":"张家界市","county":"永定区","community":"枫香岗街道","full_address":"湖南省张家界市永定区枫香岗街道","info":""}},{"type":"Feature","geometry":{"type":"Point","coordinates":[113.170232,27.895384]},"properties":{"province":"湖南省","city":"株洲市","county":"荷塘区","community":"云龙示范区学林街道学府华庭小区","full_address":"湖南省株洲市荷塘区云龙示范区学林街道学府华庭小区","info":""}},{"type":"Feature","geometry":{"type":"Point","coordinates":[113.161728,27.910502]},"properties":{"province":"湖南省","city":"株洲市","county":"石峰区","community":"云龙示范区学府港湾小区","full_address":"湖南省株洲市石峰区云龙示范区学府港湾小区","info":""}},{"type":"Feature","geometry":{"type":"Point","coordinates":[113.158709,27.870099]},"properties":{"province":"湖南省","city":"株洲市","county":"石峰区","community":"云龙示范区锦绣香江小区","full_address":"湖南省株洲市石峰区云龙示范区锦绣香江小区","info":""}},{"type":"Feature","geometry":{"type":"Point","coordinates":[113.165553,27.892803]},"properties":{"province":"湖南省","city":"株洲市","county":"荷塘区","community":"云龙示范区大丰安置房","full_address":"湖南省株洲市荷塘区云龙示范区大丰安置房","info":""}},{"type":"Feature","geometry":{"type":"Point","coordinates":[109.851805,28.485073]},"properties":{"province":"湖南省","city":"湘西土家族苗族自治州","county":"古丈县","community":"默戎镇墨戎苗寨","full_address":"湖南省湘西土家族苗族自治州古丈县默戎镇墨戎苗寨","info":""}},{"type":"Feature","geometry":{"type":"Point","coordinates":[109.741088,28.324455]},"properties":{"province":"湖南省","city":"湘西土家族苗族自治州","county":"吉首市","community":"峒河街道办事处五里牌社区公租房","full_address":"湖南省湘西土家族苗族自治州吉首市峒河街道办事处五里牌社区公租房","info":""}},{"type":"Feature","geometry":{"type":"Point","coordinates":[118.16645,24.467737]},"properties":{"province":"福建省","city":"厦门市","county":"思明区","community":"莲前街道源泉山庄A区(前埔六里1-20号","full_address":"福建省厦门市思明区莲前街道源泉山庄A区(前埔六里1-20号","info":""}},{"type":"Feature","geometry":{"type":"Point","coordinates":[113.659281,34.717317]},"properties":{"province":"河南省","city":"郑州市","county":"二七区","community":"京广路街道广兴洁云花园小区","full_address":"河南省郑州市二七区京广路街道广兴洁云花园小区","info":""}},{"type":"Feature","geometry":{"type":"Point","coordinates":[113.659277,34.710514]},"properties":{"province":"河南省","city":"郑州市","county":"二七区","community":"长江路街道海豫花园小区","full_address":"河南省郑州市二七区长江路街道海豫花园小区","info":""}},{"type":"Feature","geometry":{"type":"Point","coordinates":[113.648948,34.714208]},"properties":{"province":"河南省","city":"郑州市","county":"二七区","community":"长江路街道张魏寨中街36号院","full_address":"河南省郑州市二七区长江路街道张魏寨中街36号院","info":""}}]}