{"type":"FeatureCollection","features":[{"type":"Feature","geometry":{"type":"Point","coordinates":[97.890538,23.979522]},"properties":{"province":"云南省","city":"德宏傣族景颇族自治州","county":"瑞丽市","community":"姐告国门社区","full_address":"云南省德宏傣族景颇族自治州瑞丽市姐告国门社区","info":""}},{"type":"Feature","geometry":{"type":"Point","coordinates":[118.865185,31.774661]},"properties":{"province":"江苏省","city":"南京市","county":"江宁区","community":"禄口街道全域","full_address":"江苏省南京市江宁区禄口街道全域","info":""}},{"type":"Feature","geometry":{"type":"Point","coordinates":[119.410473,32.383279]},"properties":{"province":"江苏省","city":"扬州市","county":"邗江区","community":"双桥街道武塘社区明月路以南、文汇西路以北、维扬路以西、新城河路以东区域","full_address":"江苏省扬州市邗江区双桥街道武塘社区明月路以南、文汇西路以北、维扬路以西、新城河路以东区域","info":""}},{"type":"Feature","geometry":{"type":"Point","coordinates":[119.498807,32.409008]},"properties":{"province":"江苏省","city":"扬州市","county":"广陵区","community":"湾头镇联合村","full_address":"江苏省扬州市广陵区湾头镇联合村","info":""}},{"type":"Feature","geometry":{"type":"Point","coordinates":[113.666948,34.710663]},"properties":{"province":"河南省","city":"郑州市","county":"二七区","community":"京广路街道","full_address":"河南省郑州市二七区京广路街道","info":""}},{"type":"Feature","geometry":{"type":"Point","coordinates":[114.187569,34.564675]},"properties":{"province":"河南省","city":"开封市","county":"尉氏县","community":"庄头镇前曹村","full_address":"河南省开封市尉氏县庄头镇前曹村","info":""}},{"type":"Feature","geometry":{"type":"Point","coordinates":[114.192787,34.578044]},"properties":{"province":"河南省","city":"开封市","county":"尉氏县","community":"后曹村","full_address":"河南省开封市尉氏县后曹村","info":""}},{"type":"Feature","geometry":{"type":"Point","coordinates":[114.182666,34.584888]},"properties":{"province":"河南省","city":"开封市","county":"尉氏县","community":"于家村","full_address":"河南省开封市尉氏县于家村","info":""}},{"type":"Feature","geometry":{"type":"Point","coordinates":[114.165085,34.579218]},"properties":{"province":"河南省","city":"开封市","county":"尉氏县","community":"文家村","full_address":"河南省开封市尉氏县文家村","info":""}},{"type":"Feature","geometry":{"type":"Point","coordinates":[114.162814,34.571595]},"properties":{"province":"河南省","city":"开封市","county":"尉氏县","community":"刘家村","full_address":"河南省开封市尉氏县刘家村","info":""}},{"type":"Feature","geometry":{"type":"Point","coordinates":[114.271146,34.478157]},"properties":{"province":"河南省","city":"开封市","county":"尉氏县","community":"孙庄村","full_address":"河南省开封市尉氏县孙庄村","info":""}},{"type":"Feature","geometry":{"type":"Point","coordinates":[114.19407,34.553419]},"properties":{"province":"河南省","city":"开封市","county":"尉氏县","community":"田家村","full_address":"河南省开封市尉氏县田家村","info":""}},{"type":"Feature","geometry":{"type":"Point","coordinates":[110.479977,29.10307]},"properties":{"province":"湖南省","city":"张家界市","county":"永定区","community":"官黎坪街道黄金塔社区","full_address":"湖南省张家界市永定区官黎坪街道黄金塔社区","info":""}},{"type":"Feature","geometry":{"type":"Point","coordinates":[110.473264,29.118808]},"properties":{"province":"湖南省","city":"张家界市","county":"永定区","community":"子午路以南、大桥路以西、大庸路以东合围区域","full_address":"湖南省张家界市永定区子午路以南、大桥路以西、大庸路以东合围区域","info":""}},{"type":"Feature","geometry":{"type":"Point","coordinates":[110.474371,29.131605]},"properties":{"province":"湖南省","city":"张家界市","county":"永定区","community":"子午路以南、迎宾路以西、澧水河以北、大桥路以东合围区域","full_address":"湖南省张家界市永定区子午路以南、迎宾路以西、澧水河以北、大桥路以东合围区域","info":""}}]}