{"type":"FeatureCollection","features":[{"type":"Feature","geometry":{"type":"Point","coordinates":[123.860096,47.209574]},"properties":{"province":"黑龙江省","city":"齐齐哈尔市","county":"昂昂溪区","community":"大五福玛村","full_address":"黑龙江省齐齐哈尔市昂昂溪区大五福玛村","info":""}},{"type":"Feature","geometry":{"type":"Point","coordinates":[126.712202,45.731767]},"properties":{"province":"黑龙江省","city":"哈尔滨市","county":"香坊区","community":"新成街道","full_address":"黑龙江省哈尔滨市香坊区新成街道","info":""}},{"type":"Feature","geometry":{"type":"Point","coordinates":[126.60047,45.9853]},"properties":{"province":"黑龙江省","city":"哈尔滨市","county":"呼兰区","community":"公园路街道","full_address":"黑龙江省哈尔滨市呼兰区公园路街道","info":""}},{"type":"Feature","geometry":{"type":"Point","coordinates":[126.761966,45.975947]},"properties":{"province":"黑龙江省","city":"哈尔滨市","county":"呼兰区","community":"腰堡街道","full_address":"黑龙江省哈尔滨市呼兰区腰堡街道","info":""}},{"type":"Feature","geometry":{"type":"Point","coordinates":[126.601875,45.980573]},"properties":{"province":"黑龙江省","city":"哈尔滨市","county":"呼兰区","community":"建设路街道","full_address":"黑龙江省哈尔滨市呼兰区建设路街道","info":""}},{"type":"Feature","geometry":{"type":"Point","coordinates":[126.62527,45.743829]},"properties":{"province":"黑龙江省","city":"哈尔滨市","county":"南岗区","community":"康金街道","full_address":"黑龙江省哈尔滨市南岗区康金街道","info":""}},{"type":"Feature","geometry":{"type":"Point","coordinates":[126.606802,45.974574]},"properties":{"province":"黑龙江省","city":"哈尔滨市","county":"呼兰区","community":"萧乡街道","full_address":"黑龙江省哈尔滨市呼兰区萧乡街道","info":""}},{"type":"Feature","geometry":{"type":"Point","coordinates":[126.6167,46.026715]},"properties":{"province":"黑龙江省","city":"哈尔滨市","county":"呼兰区","community":"长岭街道","full_address":"黑龙江省哈尔滨市呼兰区长岭街道","info":""}},{"type":"Feature","geometry":{"type":"Point","coordinates":[126.562498,46.062944]},"properties":{"province":"黑龙江省","city":"哈尔滨市","county":"呼兰区","community":"孟家乡","full_address":"黑龙江省哈尔滨市呼兰区孟家乡","info":""}},{"type":"Feature","geometry":{"type":"Point","coordinates":[126.577526,45.894926]},"properties":{"province":"黑龙江省","city":"哈尔滨市","county":"呼兰区","community":"利民开发区裕强街道","full_address":"黑龙江省哈尔滨市呼兰区利民开发区裕强街道","info":""}},{"type":"Feature","geometry":{"type":"Point","coordinates":[126.58999,45.890821]},"properties":{"province":"黑龙江省","city":"哈尔滨市","county":"呼兰区","community":"南京路街道","full_address":"黑龙江省哈尔滨市呼兰区南京路街道","info":""}},{"type":"Feature","geometry":{"type":"Point","coordinates":[126.614769,45.882663]},"properties":{"province":"黑龙江省","city":"哈尔滨市","county":"呼兰区","community":"利业街道","full_address":"黑龙江省哈尔滨市呼兰区利业街道","info":""}},{"type":"Feature","geometry":{"type":"Point","coordinates":[126.513593,45.965211]},"properties":{"province":"黑龙江省","city":"哈尔滨市","county":"松北区","community":"乐业镇","full_address":"黑龙江省哈尔滨市松北区乐业镇","info":""}},{"type":"Feature","geometry":{"type":"Point","coordinates":[126.558422,45.7194]},"properties":{"province":"黑龙江省","city":"哈尔滨市","county":"道里区","community":"工农街道","full_address":"黑龙江省哈尔滨市道里区工农街道","info":""}},{"type":"Feature","geometry":{"type":"Point","coordinates":[126.597489,45.745318]},"properties":{"province":"黑龙江省","city":"哈尔滨市","county":"道里区","community":"建国街道","full_address":"黑龙江省哈尔滨市道里区建国街道","info":""}},{"type":"Feature","geometry":{"type":"Point","coordinates":[126.620077,45.756876]},"properties":{"province":"黑龙江省","city":"哈尔滨市","county":"道里区","community":"抚顺街道","full_address":"黑龙江省哈尔滨市道里区抚顺街道","info":""}},{"type":"Feature","geometry":{"type":"Point","coordinates":[126.62051,45.761337]},"properties":{"province":"黑龙江省","city":"哈尔滨市","county":"道里区","community":"新阳路街道","full_address":"黑龙江省哈尔滨市道里区新阳路街道","info":""}},{"type":"Feature","geometry":{"type":"Point","coordinates":[126.590988,45.73592]},"properties":{"province":"黑龙江省","city":"哈尔滨市","county":"道里区","community":"新华街道","full_address":"黑龙江省哈尔滨市道里区新华街道","info":""}},{"type":"Feature","geometry":{"type":"Point","coordinates":[126.97998,45.943055]},"properties":{"province":"黑龙江省","city":"哈尔滨市","county":"道外区","community":"巨源镇","full_address":"黑龙江省哈尔滨市道外区巨源镇","info":""}},{"type":"Feature","geometry":{"type":"Point","coordinates":[126.720112,45.797134]},"properties":{"province":"黑龙江省","city":"哈尔滨市","county":"道外区","community":"新一街道","full_address":"黑龙江省哈尔滨市道外区新一街道","info":""}},{"type":"Feature","geometry":{"type":"Point","coordinates":[127.02517,45.774653]},"properties":{"province":"黑龙江省","city":"哈尔滨市","county":"道外区","community":"永源镇","full_address":"黑龙江省哈尔滨市道外区永源镇","info":""}},{"type":"Feature","geometry":{"type":"Point","coordinates":[126.61051,45.725866]},"properties":{"province":"黑龙江省","city":"哈尔滨市","county":"南岗区","community":"和兴路街道（原清滨街道部分-含仪兴社区&电表社区&建文社区&福尚社区&清滨社区）","full_address":"黑龙江省哈尔滨市南岗区和兴路街道（原清滨街道部分-含仪兴社区&电表社区&建文社区&福尚社区&清滨社区）","info":""}},{"type":"Feature","geometry":{"type":"Point","coordinates":[125.340049,46.409088]},"properties":{"province":"黑龙江省","city":"绥化市","county":"安达市","community":"金税小区","full_address":"黑龙江省绥化市安达市金税小区","info":""}},{"type":"Feature","geometry":{"type":"Point","coordinates":[125.359475,46.43025]},"properties":{"province":"黑龙江省","city":"绥化市","county":"安达市","community":"华庭二期小区","full_address":"黑龙江省绥化市安达市华庭二期小区","info":""}},{"type":"Feature","geometry":{"type":"Point","coordinates":[126.967104,47.458594]},"properties":{"province":"黑龙江省","city":"绥化市","county":"海伦市","community":"审计局家属楼小区","full_address":"黑龙江省绥化市海伦市审计局家属楼小区","info":""}},{"type":"Feature","geometry":{"type":"Point","coordinates":[126.983947,46.626135]},"properties":{"province":"黑龙江省","city":"绥化市","county":"北林区","community":"工商银行家属楼小区（含工商银行办公区）","full_address":"黑龙江省绥化市北林区工商银行家属楼小区（含工商银行办公区）","info":""}},{"type":"Feature","geometry":{"type":"Point","coordinates":[126.511297,47.055581]},"properties":{"province":"黑龙江省","city":"绥化市","county":"海伦市","community":"永富镇思源村","full_address":"黑龙江省绥化市海伦市永富镇思源村","info":""}},{"type":"Feature","geometry":{"type":"Point","coordinates":[126.516339,47.012443]},"properties":{"province":"黑龙江省","city":"绥化市","county":"海伦市","community":"永富镇同发村","full_address":"黑龙江省绥化市海伦市永富镇同发村","info":""}},{"type":"Feature","geometry":{"type":"Point","coordinates":[126.551068,47.211567]},"properties":{"province":"黑龙江省","city":"绥化市","county":"海伦市","community":"丰山乡丰庆村","full_address":"黑龙江省绥化市海伦市丰山乡丰庆村","info":""}},{"type":"Feature","geometry":{"type":"Point","coordinates":[126.581955,47.175967]},"properties":{"province":"黑龙江省","city":"绥化市","county":"海伦市","community":"丰山乡丰山村","full_address":"黑龙江省绥化市海伦市丰山乡丰山村","info":""}},{"type":"Feature","geometry":{"type":"Point","coordinates":[126.535032,47.119607]},"properties":{"province":"黑龙江省","city":"绥化市","county":"海伦市","community":"丰山乡丰荣村","full_address":"黑龙江省绥化市海伦市丰山乡丰荣村","info":""}},{"type":"Feature","geometry":{"type":"Point","coordinates":[126.658762,47.119673]},"properties":{"province":"黑龙江省","city":"绥化市","county":"海伦市","community":"福民乡永兴村","full_address":"黑龙江省绥化市海伦市福民乡永兴村","info":""}},{"type":"Feature","geometry":{"type":"Point","coordinates":[126.43621,47.151008]},"properties":{"province":"黑龙江省","city":"绥化市","county":"海伦市","community":"伦河镇锦秀嘉园小区","full_address":"黑龙江省绥化市海伦市伦河镇锦秀嘉园小区","info":""}},{"type":"Feature","geometry":{"type":"Point","coordinates":[126.972477,46.637258]},"properties":{"province":"黑龙江省","city":"绥化市","county":"北林区","community":"气象小区一期","full_address":"黑龙江省绥化市北林区气象小区一期","info":""}},{"type":"Feature","geometry":{"type":"Point","coordinates":[126.992411,46.636109]},"properties":{"province":"黑龙江省","city":"绥化市","county":"北林区","community":"客运站家属楼","full_address":"黑龙江省绥化市北林区客运站家属楼","info":""}},{"type":"Feature","geometry":{"type":"Point","coordinates":[126.970163,46.630558]},"properties":{"province":"黑龙江省","city":"绥化市","county":"北林区","community":"盛世华庭公寓","full_address":"黑龙江省绥化市北林区盛世华庭公寓","info":""}},{"type":"Feature","geometry":{"type":"Point","coordinates":[126.121066,46.685474]},"properties":{"province":"黑龙江省","city":"绥化市","county":"青冈县","community":"世纪方舟四期","full_address":"黑龙江省绥化市青冈县世纪方舟四期","info":""}},{"type":"Feature","geometry":{"type":"Point","coordinates":[126.977843,46.608975]},"properties":{"province":"黑龙江省","city":"绥化市","county":"北林区","community":"博学公寓","full_address":"黑龙江省绥化市北林区博学公寓","info":""}},{"type":"Feature","geometry":{"type":"Point","coordinates":[126.994941,46.630752]},"properties":{"province":"黑龙江省","city":"绥化市","county":"北林区","community":"园丁1区","full_address":"黑龙江省绥化市北林区园丁1区","info":""}},{"type":"Feature","geometry":{"type":"Point","coordinates":[127.523564,46.880186]},"properties":{"province":"黑龙江省","city":"绥化市","county":"庆安县","community":"农机局家属楼","full_address":"黑龙江省绥化市庆安县农机局家属楼","info":""}},{"type":"Feature","geometry":{"type":"Point","coordinates":[126.976104,46.646072]},"properties":{"province":"黑龙江省","city":"绥化市","county":"北林区","community":"世福汇","full_address":"黑龙江省绥化市北林区世福汇","info":""}},{"type":"Feature","geometry":{"type":"Point","coordinates":[114.613224,38.050226]},"properties":{"province":"河北省","city":"石家庄市","county":"裕华区","community":"高新区同祥城小区C区","full_address":"河北省石家庄市裕华区高新区同祥城小区C区","info":""}},{"type":"Feature","geometry":{"type":"Point","coordinates":[114.229155,38.342485]},"properties":{"province":"河北省","city":"石家庄市","county":"平山县","community":"访驾庄村","full_address":"河北省石家庄市平山县访驾庄村","info":""}},{"type":"Feature","geometry":{"type":"Point","coordinates":[114.684014,38.343296]},"properties":{"province":"河北省","city":"石家庄市","county":"新乐市","community":"","full_address":"河北省石家庄市新乐市","info":""}},{"type":"Feature","geometry":{"type":"Point","coordinates":[114.772313,37.340939]},"properties":{"province":"河北省","city":"邢台市","county":"隆尧县","community":"烟草家园（烟草公司家属院）","full_address":"河北省邢台市隆尧县烟草家园（烟草公司家属院）","info":""}},{"type":"Feature","geometry":{"type":"Point","coordinates":[115.408748,37.359264]},"properties":{"province":"河北省","city":"邢台市","county":"南宫市","community":"","full_address":"河北省邢台市南宫市","info":""}},{"type":"Feature","geometry":{"type":"Point","coordinates":[114.947386,38.546196]},"properties":{"province":"河北省","city":"保定市","county":"定州市","community":"定州市西城区庞白土新民居北区","full_address":"河北省保定市定州市定州市西城区庞白土新民居北区","info":""}},{"type":"Feature","geometry":{"type":"Point","coordinates":[125.083883,43.717856]},"properties":{"province":"吉林省","city":"长春市","county":"公主岭市","community":"公主岭市范家屯镇","full_address":"吉林省长春市公主岭市公主岭市范家屯镇","info":""}},{"type":"Feature","geometry":{"type":"Point","coordinates":[121.484614,31.232271]},"properties":{"province":"上海市","city":"市辖区","county":"黄浦区","community":"外滩街道中福世福汇大酒店","full_address":"上海市市辖区黄浦区外滩街道中福世福汇大酒店","info":""}},{"type":"Feature","geometry":{"type":"Point","coordinates":[121.47504,31.23817]},"properties":{"province":"上海市","city":"上海市","county":"黄浦区","community":"贵西小区","full_address":"上海市上海市黄浦区贵西小区","info":""}},{"type":"Feature","geometry":{"type":"Point","coordinates":[121.489355,31.411265]},"properties":{"province":"上海市","city":"市辖区","county":"宝山区","community":"友谊路街道临江新村（一&二村）小区","full_address":"上海市市辖区宝山区友谊路街道临江新村（一&二村）小区","info":""}}]}