{"type":"FeatureCollection","features":[{"type":"Feature","geometry":{"type":"Point","coordinates":[126.60047,45.9853]},"properties":{"province":"黑龙江省","city":"哈尔滨市","county":"呼兰区","community":"公园路街道","full_address":"黑龙江省哈尔滨市呼兰区公园路街道","info":""}},{"type":"Feature","geometry":{"type":"Point","coordinates":[126.601875,45.980573]},"properties":{"province":"黑龙江省","city":"哈尔滨市","county":"呼兰区","community":"建设路街道","full_address":"黑龙江省哈尔滨市呼兰区建设路街道","info":""}},{"type":"Feature","geometry":{"type":"Point","coordinates":[126.562498,46.062944]},"properties":{"province":"黑龙江省","city":"哈尔滨市","county":"呼兰区","community":"孟家乡","full_address":"黑龙江省哈尔滨市呼兰区孟家乡","info":""}},{"type":"Feature","geometry":{"type":"Point","coordinates":[126.597489,45.745318]},"properties":{"province":"黑龙江省","city":"哈尔滨市","county":"道里区","community":"建国街道","full_address":"黑龙江省哈尔滨市道里区建国街道","info":""}},{"type":"Feature","geometry":{"type":"Point","coordinates":[126.62051,45.761337]},"properties":{"province":"黑龙江省","city":"哈尔滨市","county":"道里区","community":"新阳路街道","full_address":"黑龙江省哈尔滨市道里区新阳路街道","info":""}},{"type":"Feature","geometry":{"type":"Point","coordinates":[126.590988,45.73592]},"properties":{"province":"黑龙江省","city":"哈尔滨市","county":"道里区","community":"新华街道","full_address":"黑龙江省哈尔滨市道里区新华街道","info":""}},{"type":"Feature","geometry":{"type":"Point","coordinates":[127.02517,45.774653]},"properties":{"province":"黑龙江省","city":"哈尔滨市","county":"道外区","community":"永源镇","full_address":"黑龙江省哈尔滨市道外区永源镇","info":""}},{"type":"Feature","geometry":{"type":"Point","coordinates":[126.486076,46.832719]},"properties":{"province":"黑龙江省","city":"绥化市","county":"望奎县","community":"","full_address":"黑龙江省绥化市望奎县","info":""}},{"type":"Feature","geometry":{"type":"Point","coordinates":[114.847075,38.021567]},"properties":{"province":"河北省","city":"石家庄市","county":"藁城区","community":"","full_address":"河北省石家庄市藁城区","info":""}},{"type":"Feature","geometry":{"type":"Point","coordinates":[125.083883,43.717856]},"properties":{"province":"吉林省","city":"长春市","county":"公主岭市","community":"公主岭市范家屯镇","full_address":"吉林省长春市公主岭市公主岭市范家屯镇","info":""}},{"type":"Feature","geometry":{"type":"Point","coordinates":[121.589092,31.262037]},"properties":{"province":"上海市","city":"市辖区","county":"浦东新区","community":"高东镇新高苑一期小区","full_address":"上海市市辖区浦东新区高东镇新高苑一期小区","info":""}}]}