{"type":"FeatureCollection","features":[{"type":"Feature","geometry":{"type":"Point","coordinates":[117.226801,39.172253]},"properties":{"province":"天津市","city":"市辖区","county":"河北区","community":"建昌道街中山北里20门","full_address":"天津市市辖区河北区建昌道街中山北里20门","info":""}},{"type":"Feature","geometry":{"type":"Point","coordinates":[117.218164,39.140904]},"properties":{"province":"天津市","city":"市辖区","county":"河东区","community":"春华街道月光园2号楼.","full_address":"天津市市辖区河东区春华街道月光园2号楼.","info":""}},{"type":"Feature","geometry":{"type":"Point","coordinates":[116.367665,40.03222]},"properties":{"province":"北京市","city":"市辖区","county":"丰台区","community":"玉泉营街道万柳园社区","full_address":"北京市市辖区丰台区玉泉营街道万柳园社区","info":""}},{"type":"Feature","geometry":{"type":"Point","coordinates":[127.528786,50.232166]},"properties":{"province":"黑龙江省","city":"黑河市","county":"爱辉区","community":"喇嘛台社区荣耀世纪小区4号楼","full_address":"黑龙江省黑河市爱辉区喇嘛台社区荣耀世纪小区4号楼","info":""}},{"type":"Feature","geometry":{"type":"Point","coordinates":[127.530319,50.240168]},"properties":{"province":"黑龙江省","city":"黑河市","county":"爱辉区","community":"武庙屯社区警官名苑小区B栋","full_address":"黑龙江省黑河市爱辉区武庙屯社区警官名苑小区B栋","info":""}},{"type":"Feature","geometry":{"type":"Point","coordinates":[127.476396,50.253352]},"properties":{"province":"黑龙江省","city":"黑河市","county":"爱辉区","community":"向阳社区水岸阳光小区9号楼","full_address":"黑龙江省黑河市爱辉区向阳社区水岸阳光小区9号楼","info":""}},{"type":"Feature","geometry":{"type":"Point","coordinates":[127.497957,50.252053]},"properties":{"province":"黑龙江省","city":"黑河市","county":"爱辉区","community":"鹿源春社区金达之家小区中房49号楼","full_address":"黑龙江省黑河市爱辉区鹿源春社区金达之家小区中房49号楼","info":""}},{"type":"Feature","geometry":{"type":"Point","coordinates":[127.529177,50.232449]},"properties":{"province":"黑龙江省","city":"黑河市","county":"爱辉区","community":"武庙屯社区之路佳苑小区4号楼","full_address":"黑龙江省黑河市爱辉区武庙屯社区之路佳苑小区4号楼","info":""}},{"type":"Feature","geometry":{"type":"Point","coordinates":[113.931278,22.674942]},"properties":{"province":"广东省","city":"深圳市","county":"宝安区","community":"石岩街道罗租社区下新村十四巷4号","full_address":"广东省深圳市宝安区石岩街道罗租社区下新村十四巷4号","info":""}},{"type":"Feature","geometry":{"type":"Point","coordinates":[113.805714,22.716632]},"properties":{"province":"广东省","city":"深圳市","county":"宝安区","community":"十五巷4号","full_address":"广东省深圳市宝安区十五巷4号","info":""}},{"type":"Feature","geometry":{"type":"Point","coordinates":[113.932934,22.674502]},"properties":{"province":"广东省","city":"深圳市","county":"宝安区","community":"石岩街道浪心南路3号楼","full_address":"广东省深圳市宝安区石岩街道浪心南路3号楼","info":""}},{"type":"Feature","geometry":{"type":"Point","coordinates":[113.930824,22.674692]},"properties":{"province":"广东省","city":"深圳市","county":"宝安区","community":"宝石南路94号","full_address":"广东省深圳市宝安区宝石南路94号","info":""}},{"type":"Feature","geometry":{"type":"Point","coordinates":[106.615374,23.32345]},"properties":{"province":"广西壮族自治区","city":"百色市","county":"德保县","community":"维也纳国际酒店（德保腾飞广场店）","full_address":"广西壮族自治区百色市德保县维也纳国际酒店（德保腾飞广场店）","info":""}},{"type":"Feature","geometry":{"type":"Point","coordinates":[106.428484,23.270124]},"properties":{"province":"广西壮族自治区","city":"百色市","county":"靖西市","community":"武平镇大道街大定屯","full_address":"广西壮族自治区百色市靖西市武平镇大道街大定屯","info":""}},{"type":"Feature","geometry":{"type":"Point","coordinates":[106.396655,23.29751]},"properties":{"province":"广西壮族自治区","city":"百色市","county":"靖西市","community":"弄贴村新村屯","full_address":"广西壮族自治区百色市靖西市弄贴村新村屯","info":""}},{"type":"Feature","geometry":{"type":"Point","coordinates":[120.344907,40.319465]},"properties":{"province":"辽宁省","city":"葫芦岛市","county":"绥中县","community":"绥中镇工人社区盛华园二期","full_address":"辽宁省葫芦岛市绥中县绥中镇工人社区盛华园二期","info":""}},{"type":"Feature","geometry":{"type":"Point","coordinates":[120.632712,30.90228]},"properties":{"province":"江苏省","city":"苏州市","county":"吴江区","community":"盛泽镇绿洲华庭小区41栋","full_address":"江苏省苏州市吴江区盛泽镇绿洲华庭小区41栋","info":""}},{"type":"Feature","geometry":{"type":"Point","coordinates":[120.682938,31.268953]},"properties":{"province":"江苏省","city":"苏州市","county":"吴中区","community":"郭巷街道独墅湖西金悦花园一期19幢","full_address":"江苏省苏州市吴中区郭巷街道独墅湖西金悦花园一期19幢","info":""}},{"type":"Feature","geometry":{"type":"Point","coordinates":[120.53875,31.2645]},"properties":{"province":"江苏省","city":"苏州市","county":"吴中区","community":"木渎镇沈巷村47～69号","full_address":"江苏省苏州市吴中区木渎镇沈巷村47～69号","info":""}},{"type":"Feature","geometry":{"type":"Point","coordinates":[120.60628,31.269901]},"properties":{"province":"江苏省","city":"苏州市","county":"姑苏区","community":"天辰花园小区18幢","full_address":"江苏省苏州市姑苏区天辰花园小区18幢","info":""}},{"type":"Feature","geometry":{"type":"Point","coordinates":[120.731302,31.312094]},"properties":{"province":"江苏省","city":"苏州市","county":"吴中区","community":"工业园区东湖大郡花园二期22幢","full_address":"江苏省苏州市吴中区工业园区东湖大郡花园二期22幢","info":""}},{"type":"Feature","geometry":{"type":"Point","coordinates":[120.732199,31.317205]},"properties":{"province":"江苏省","city":"苏州市","county":"吴中区","community":"东城郡115幢","full_address":"江苏省苏州市吴中区东城郡115幢","info":""}}]}