{"type":"FeatureCollection","features":[{"type":"Feature","geometry":{"type":"Point","coordinates":[116.547074,39.948015]},"properties":{"province":"北京市","city":"朝阳区","county":"平房（地区）乡","community":"泓鑫家园小区（除7号楼外）其他楼宇及底商","full_address":"北京市朝阳区平房（地区）乡泓鑫家园小区（除7号楼外）其他楼宇及底商","info":""}},{"type":"Feature","geometry":{"type":"Point","coordinates":[116.522923,39.920841]},"properties":{"province":"北京市","city":"朝阳区","county":"平房（地区）乡","community":"天鹅湾北区18号楼4单元","full_address":"北京市朝阳区平房（地区）乡天鹅湾北区18号楼4单元","info":""}},{"type":"Feature","geometry":{"type":"Point","coordinates":[116.550581,39.950246]},"properties":{"province":"北京市","city":"朝阳区","county":"东坝（地区）乡","community":"高杨树北里11号楼2单元","full_address":"北京市朝阳区东坝（地区）乡高杨树北里11号楼2单元","info":""}},{"type":"Feature","geometry":{"type":"Point","coordinates":[116.529909,40.008214]},"properties":{"province":"北京市","city":"朝阳区","county":"崔各庄（地区）乡","community":"京旺家园1区9号楼","full_address":"北京市朝阳区崔各庄（地区）乡京旺家园1区9号楼","info":""}},{"type":"Feature","geometry":{"type":"Point","coordinates":[116.557963,39.910652]},"properties":{"province":"北京市","city":"朝阳区","county":"三间房（地区）乡","community":"中国传媒大学北苑餐厅、 40号楼、 南苑餐厅、 22号楼","full_address":"北京市朝阳区三间房（地区）乡中国传媒大学北苑餐厅、 40号楼、 南苑餐厅、 22号楼","info":""}},{"type":"Feature","geometry":{"type":"Point","coordinates":[116.578126,39.906108]},"properties":{"province":"北京市","city":"朝阳区","county":"三间房（地区）乡","community":"康惠园小区3号院4号楼","full_address":"北京市朝阳区三间房（地区）乡康惠园小区3号院4号楼","info":""}},{"type":"Feature","geometry":{"type":"Point","coordinates":[116.315824,39.950937]},"properties":{"province":"北京市","city":"海淀区","county":"紫竹院街道","community":"中央民族大学附属中学本部（法华寺路甲5号）女生宿舍楼","full_address":"北京市海淀区紫竹院街道中央民族大学附属中学本部（法华寺路甲5号）女生宿舍楼","info":""}},{"type":"Feature","geometry":{"type":"Point","coordinates":[116.661075,39.965074]},"properties":{"province":"北京市","city":"通州区","county":"宋庄镇","community":"富豪村除956号、998号、999号、1000号外的其他区域","full_address":"北京市通州区宋庄镇富豪村除956号、998号、999号、1000号外的其他区域","info":""}},{"type":"Feature","geometry":{"type":"Point","coordinates":[116.149712,40.253854]},"properties":{"province":"北京市","city":"昌平区","county":"南口（地区）镇","community":"北京化工大学昌平校区1号楼、2号楼、3号楼、4号楼、7号楼、11号楼","full_address":"北京市昌平区南口（地区）镇北京化工大学昌平校区1号楼、2号楼、3号楼、4号楼、7号楼、11号楼","info":""}},{"type":"Feature","geometry":{"type":"Point","coordinates":[116.521437,39.82063]},"properties":{"province":"北京市","city":"大兴区","county":"亦庄（地区）镇","community":"小康家园小区除14号楼以外其他楼栋","full_address":"北京市大兴区亦庄（地区）镇小康家园小区除14号楼以外其他楼栋","info":""}},{"type":"Feature","geometry":{"type":"Point","coordinates":[117.259505,39.140623]},"properties":{"province":"天津市","city":"天津市","county":"河东区","community":"向阳楼街道星河花园2号楼、4号楼","full_address":"天津市天津市河东区向阳楼街道星河花园2号楼、4号楼","info":""}},{"type":"Feature","geometry":{"type":"Point","coordinates":[117.267894,39.114512]},"properties":{"province":"天津市","city":"天津市","county":"河东区","community":"上杭路街道大洋嘉园、陆典庭园（除高风险区外）","full_address":"天津市天津市河东区上杭路街道大洋嘉园、陆典庭园（除高风险区外）","info":""}},{"type":"Feature","geometry":{"type":"Point","coordinates":[117.26554,39.115166]},"properties":{"province":"天津市","city":"天津市","county":"河东区","community":"上杭路街道第博雅园（除高风险区外）","full_address":"天津市天津市河东区上杭路街道第博雅园（除高风险区外）","info":""}},{"type":"Feature","geometry":{"type":"Point","coordinates":[117.272106,39.111229]},"properties":{"province":"天津市","city":"天津市","county":"河东区","community":"上杭路街道芳水河畔家园（19号楼、20号楼除外）","full_address":"天津市天津市河东区上杭路街道芳水河畔家园（19号楼、20号楼除外）","info":""}},{"type":"Feature","geometry":{"type":"Point","coordinates":[117.261423,39.103157]},"properties":{"province":"天津市","city":"天津市","county":"河东区","community":"中山门街道和悦家园（2号楼除外），互助南里（15号楼除外）","full_address":"天津市天津市河东区中山门街道和悦家园（2号楼除外），互助南里（15号楼除外）","info":""}},{"type":"Feature","geometry":{"type":"Point","coordinates":[117.245925,39.110912]},"properties":{"province":"天津市","city":"天津市","county":"河东区","community":"大直沽街道文华里1号院（16号楼除外）","full_address":"天津市天津市河东区大直沽街道文华里1号院（16号楼除外）","info":""}},{"type":"Feature","geometry":{"type":"Point","coordinates":[117.227861,39.133995]},"properties":{"province":"天津市","city":"天津市","county":"河东区","community":"唐家口街道欣荣馨苑（5号楼除外）","full_address":"天津市天津市河东区唐家口街道欣荣馨苑（5号楼除外）","info":""}},{"type":"Feature","geometry":{"type":"Point","coordinates":[117.305241,39.093969]},"properties":{"province":"天津市","city":"天津市","county":"河东区","community":"二号桥街道福东里东区（13号楼除外）","full_address":"天津市天津市河东区二号桥街道福东里东区（13号楼除外）","info":""}},{"type":"Feature","geometry":{"type":"Point","coordinates":[117.249381,39.088665]},"properties":{"province":"天津市","city":"天津市","county":"河东区","community":"富民路街道棉三四工房（5号楼除外）","full_address":"天津市天津市河东区富民路街道棉三四工房（5号楼除外）","info":""}},{"type":"Feature","geometry":{"type":"Point","coordinates":[117.262005,39.155852]},"properties":{"province":"天津市","city":"天津市","county":"河东区","community":"常州道街道东惠家园（4号楼除外），朝华园（5号楼除外）","full_address":"天津市天津市河东区常州道街道东惠家园（4号楼除外），朝华园（5号楼除外）","info":""}},{"type":"Feature","geometry":{"type":"Point","coordinates":[117.224661,39.097281]},"properties":{"province":"天津市","city":"天津市","county":"河西区","community":"挂甲寺街麦格理晓星园、澳景大厦、澳光大厦","full_address":"天津市天津市河西区挂甲寺街麦格理晓星园、澳景大厦、澳光大厦","info":""}},{"type":"Feature","geometry":{"type":"Point","coordinates":[117.229436,39.098448]},"properties":{"province":"天津市","city":"天津市","county":"河西区","community":"挂甲寺街名仕达花园8号楼","full_address":"天津市天津市河西区挂甲寺街名仕达花园8号楼","info":""}},{"type":"Feature","geometry":{"type":"Point","coordinates":[117.239233,39.092083]},"properties":{"province":"天津市","city":"天津市","county":"河西区","community":"挂甲寺街景兴西里、景兴里全域（除垃圾转运站）","full_address":"天津市天津市河西区挂甲寺街景兴西里、景兴里全域（除垃圾转运站）","info":""}},{"type":"Feature","geometry":{"type":"Point","coordinates":[117.237497,39.095322]},"properties":{"province":"天津市","city":"天津市","county":"河西区","community":"挂甲寺街美宁公寓（除高风险区域外）、排水大楼合围区域","full_address":"天津市天津市河西区挂甲寺街美宁公寓（除高风险区域外）、排水大楼合围区域","info":""}},{"type":"Feature","geometry":{"type":"Point","coordinates":[117.229477,39.078185]},"properties":{"province":"天津市","city":"天津市","county":"河西区","community":"尖山街五一家园小区除8号楼以外的其他区域","full_address":"天津市天津市河西区尖山街五一家园小区除8号楼以外的其他区域","info":""}},{"type":"Feature","geometry":{"type":"Point","coordinates":[117.258674,39.05614]},"properties":{"province":"天津市","city":"天津市","county":"河西区","community":"东海街华江二委2号楼1门至7门及存车处、6号楼1门至7门","full_address":"天津市天津市河西区东海街华江二委2号楼1门至7门及存车处、6号楼1门至7门","info":""}},{"type":"Feature","geometry":{"type":"Point","coordinates":[117.280603,39.066676]},"properties":{"province":"天津市","city":"天津市","county":"河西区","community":"柳林街雅致里5门至10门、28门至34门","full_address":"天津市天津市河西区柳林街雅致里5门至10门、28门至34门","info":""}},{"type":"Feature","geometry":{"type":"Point","coordinates":[117.222011,39.034299]},"properties":{"province":"天津市","city":"天津市","county":"河西区","community":"梅江街天湾园除1号楼、2号楼、7号楼之外的区域","full_address":"天津市天津市河西区梅江街天湾园除1号楼、2号楼、7号楼之外的区域","info":""}},{"type":"Feature","geometry":{"type":"Point","coordinates":[117.133568,39.141717]},"properties":{"province":"天津市","city":"天津市","county":"南开区","community":"向阳路街云阳里小区（除1号楼5门、6门外）","full_address":"天津市天津市南开区向阳路街云阳里小区（除1号楼5门、6门外）","info":""}},{"type":"Feature","geometry":{"type":"Point","coordinates":[117.181894,39.06634]},"properties":{"province":"天津市","city":"天津市","county":"南开区","community":"体育中心街阳光壹佰小区北区7号楼4门","full_address":"天津市天津市南开区体育中心街阳光壹佰小区北区7号楼4门","info":""}},{"type":"Feature","geometry":{"type":"Point","coordinates":[117.151787,39.126039]},"properties":{"province":"天津市","city":"天津市","county":"南开区","community":"万兴街苏堤西里小区1号楼（除1门外）","full_address":"天津市天津市南开区万兴街苏堤西里小区1号楼（除1门外）","info":""}},{"type":"Feature","geometry":{"type":"Point","coordinates":[117.160678,39.137706]},"properties":{"province":"天津市","city":"天津市","county":"南开区","community":"广开街宇正园小区1号楼（除1门外）","full_address":"天津市天津市南开区广开街宇正园小区1号楼（除1门外）","info":""}},{"type":"Feature","geometry":{"type":"Point","coordinates":[117.230456,39.162223]},"properties":{"province":"天津市","city":"天津市","county":"河北区","community":"王串场街道玉容花园12号楼","full_address":"天津市天津市河北区王串场街道玉容花园12号楼","info":""}},{"type":"Feature","geometry":{"type":"Point","coordinates":[117.283108,39.123248]},"properties":{"province":"天津市","city":"天津市","county":"东丽区","community":"万新街万隆花园小区除高风险以外区域","full_address":"天津市天津市东丽区万新街万隆花园小区除高风险以外区域","info":""}},{"type":"Feature","geometry":{"type":"Point","coordinates":[117.295912,39.111227]},"properties":{"province":"天津市","city":"天津市","county":"东丽区","community":"万新街好美嘉园小区4、5、11、12、13、14号楼","full_address":"天津市天津市东丽区万新街好美嘉园小区4、5、11、12、13、14号楼","info":""}},{"type":"Feature","geometry":{"type":"Point","coordinates":[117.306282,39.138714]},"properties":{"province":"天津市","city":"天津市","county":"东丽区","community":"万新街香邑国际小区2、5、7、8号楼","full_address":"天津市天津市东丽区万新街香邑国际小区2、5、7、8号楼","info":""}},{"type":"Feature","geometry":{"type":"Point","coordinates":[117.298923,39.106556]},"properties":{"province":"天津市","city":"天津市","county":"东丽区","community":"新立街融春园小区除高风险区以外区域","full_address":"天津市天津市东丽区新立街融春园小区除高风险区以外区域","info":""}},{"type":"Feature","geometry":{"type":"Point","coordinates":[117.295,39.086562]},"properties":{"province":"天津市","city":"天津市","county":"东丽区","community":"万新街蓝天花园小区2、6、7、8、10号楼","full_address":"天津市天津市东丽区万新街蓝天花园小区2、6、7、8、10号楼","info":""}},{"type":"Feature","geometry":{"type":"Point","coordinates":[117.293338,39.114838]},"properties":{"province":"天津市","city":"天津市","county":"东丽区","community":"万新街舒畅园小区1、3、8、9号楼","full_address":"天津市天津市东丽区万新街舒畅园小区1、3、8、9号楼","info":""}},{"type":"Feature","geometry":{"type":"Point","coordinates":[117.214806,39.003059]},"properties":{"province":"天津市","city":"天津市","county":"西青区","community":"大寺镇金龙鑫苑（除14号楼）","full_address":"天津市天津市西青区大寺镇金龙鑫苑（除14号楼）","info":""}},{"type":"Feature","geometry":{"type":"Point","coordinates":[117.252128,39.010312]},"properties":{"province":"天津市","city":"天津市","county":"西青区","community":"大寺镇龙顺园1—5号楼","full_address":"天津市天津市西青区大寺镇龙顺园1—5号楼","info":""}},{"type":"Feature","geometry":{"type":"Point","coordinates":[117.213229,38.940381]},"properties":{"province":"天津市","city":"天津市","county":"西青区","community":"王稳庄镇小孙庄村平房区域","full_address":"天津市天津市西青区王稳庄镇小孙庄村平房区域","info":""}},{"type":"Feature","geometry":{"type":"Point","coordinates":[117.246919,39.02389]},"properties":{"province":"天津市","city":"天津市","county":"西青区","community":"大寺镇仁居鑫园小区（除7号楼）","full_address":"天津市天津市西青区大寺镇仁居鑫园小区（除7号楼）","info":""}},{"type":"Feature","geometry":{"type":"Point","coordinates":[117.239982,39.020208]},"properties":{"province":"天津市","city":"天津市","county":"西青区","community":"大寺镇任宝南里小区（除6号楼）","full_address":"天津市天津市西青区大寺镇任宝南里小区（除6号楼）","info":""}},{"type":"Feature","geometry":{"type":"Point","coordinates":[117.238702,39.029835]},"properties":{"province":"天津市","city":"天津市","county":"西青区","community":"大寺镇任河里小区（除6号楼）","full_address":"天津市天津市西青区大寺镇任河里小区（除6号楼）","info":""}},{"type":"Feature","geometry":{"type":"Point","coordinates":[117.221013,39.026651]},"properties":{"province":"天津市","city":"天津市","county":"西青区","community":"大寺镇倪黄庄小二楼（新增）","full_address":"天津市天津市西青区大寺镇倪黄庄小二楼（新增）","info":""}},{"type":"Feature","geometry":{"type":"Point","coordinates":[117.114889,39.056085]},"properties":{"province":"天津市","city":"天津市","county":"西青区","community":"精武镇智达里小区（除3号楼）","full_address":"天津市天津市西青区精武镇智达里小区（除3号楼）","info":""}},{"type":"Feature","geometry":{"type":"Point","coordinates":[117.264174,38.993058]},"properties":{"province":"天津市","city":"天津市","county":"西青区","community":"赤龙南街亲和良园小区（除2号楼）","full_address":"天津市天津市西青区赤龙南街亲和良园小区（除2号楼）","info":""}},{"type":"Feature","geometry":{"type":"Point","coordinates":[117.27083,39.04791]},"properties":{"province":"天津市","city":"天津市","county":"津南区","community":"双林街泓春园10号楼、11号楼、13号楼、14号楼","full_address":"天津市天津市津南区双林街泓春园10号楼、11号楼、13号楼、14号楼","info":""}},{"type":"Feature","geometry":{"type":"Point","coordinates":[117.276818,39.027794]},"properties":{"province":"天津市","city":"天津市","county":"津南区","community":"双港镇常春藤花园北区63号楼、70号楼","full_address":"天津市天津市津南区双港镇常春藤花园北区63号楼、70号楼","info":""}},{"type":"Feature","geometry":{"type":"Point","coordinates":[117.26597,39.030443]},"properties":{"province":"天津市","city":"天津市","county":"津南区","community":"双港镇尚景园3号楼、5号楼、6号楼","full_address":"天津市天津市津南区双港镇尚景园3号楼、5号楼、6号楼","info":""}},{"type":"Feature","geometry":{"type":"Point","coordinates":[117.343132,38.94112]},"properties":{"province":"天津市","city":"天津市","county":"津南区","community":"八里台镇汇秀庭苑61号楼","full_address":"天津市天津市津南区八里台镇汇秀庭苑61号楼","info":""}},{"type":"Feature","geometry":{"type":"Point","coordinates":[117.272674,39.03216]},"properties":{"province":"天津市","city":"天津市","county":"津南区","community":"双港镇天富园8号楼、12号楼","full_address":"天津市天津市津南区双港镇天富园8号楼、12号楼","info":""}},{"type":"Feature","geometry":{"type":"Point","coordinates":[117.314931,39.045043]},"properties":{"province":"天津市","city":"天津市","county":"津南区","community":"双港镇棕榈苑31号楼、33号楼","full_address":"天津市天津市津南区双港镇棕榈苑31号楼、33号楼","info":""}},{"type":"Feature","geometry":{"type":"Point","coordinates":[115.57344,38.87353]},"properties":{"province":"河北省","city":"保定市","county":"莲池区","community":"南起腾飞路、北至七一路、东起慕子医院（恒升路99号）、西至卓正国际酒店（七一东路2358号）合围区域","full_address":"河北省保定市莲池区南起腾飞路、北至七一路、东起慕子医院（恒升路99号）、西至卓正国际酒店（七一东路2358号）合围区域","info":""}},{"type":"Feature","geometry":{"type":"Point","coordinates":[115.435954,38.757644]},"properties":{"province":"河北省","city":"保定市","county":"清苑区","community":"白团乡东壁阳城村","full_address":"河北省保定市清苑区白团乡东壁阳城村","info":""}},{"type":"Feature","geometry":{"type":"Point","coordinates":[115.44762,38.74427]},"properties":{"province":"河北省","city":"保定市","county":"清苑区","community":"白团乡辛庄村","full_address":"河北省保定市清苑区白团乡辛庄村","info":""}},{"type":"Feature","geometry":{"type":"Point","coordinates":[116.192217,39.571229]},"properties":{"province":"河北省","city":"保定市","county":"涿州市","community":"涿州市义和庄镇陶营村","full_address":"河北省保定市涿州市涿州市义和庄镇陶营村","info":""}},{"type":"Feature","geometry":{"type":"Point","coordinates":[116.016353,39.505002]},"properties":{"province":"河北省","city":"保定市","county":"涿州市","community":"涿州市香邑溪谷小区一期","full_address":"河北省保定市涿州市涿州市香邑溪谷小区一期","info":""}},{"type":"Feature","geometry":{"type":"Point","coordinates":[115.930916,39.471167]},"properties":{"province":"河北省","city":"保定市","county":"涿州市","community":"涿州市桃园街道大马村","full_address":"河北省保定市涿州市涿州市桃园街道大马村","info":""}},{"type":"Feature","geometry":{"type":"Point","coordinates":[116.002918,39.483997]},"properties":{"province":"河北省","city":"保定市","county":"涿州市","community":"涿州市名流一品小区","full_address":"河北省保定市涿州市涿州市名流一品小区","info":""}},{"type":"Feature","geometry":{"type":"Point","coordinates":[116.01856,39.493293]},"properties":{"province":"河北省","city":"保定市","county":"涿州市","community":"涿州市名流风景洋房小区","full_address":"河北省保定市涿州市涿州市名流风景洋房小区","info":""}},{"type":"Feature","geometry":{"type":"Point","coordinates":[115.993058,39.474723]},"properties":{"province":"河北省","city":"保定市","county":"涿州市","community":"涿州市云景城小区","full_address":"河北省保定市涿州市涿州市云景城小区","info":""}},{"type":"Feature","geometry":{"type":"Point","coordinates":[115.926447,39.479199]},"properties":{"province":"河北省","city":"保定市","county":"涿州市","community":"涿州市东城坊镇南庄村","full_address":"河北省保定市涿州市涿州市东城坊镇南庄村","info":""}},{"type":"Feature","geometry":{"type":"Point","coordinates":[117.776904,40.95381]},"properties":{"province":"河北省","city":"承德市","county":"双滦区","community":"锦绣城一区除11号楼以外的区域","full_address":"河北省承德市双滦区锦绣城一区除11号楼以外的区域","info":""}},{"type":"Feature","geometry":{"type":"Point","coordinates":[117.753059,40.959505]},"properties":{"province":"河北省","city":"承德市","county":"双滦区","community":"双塔山镇大龙庙村回迁楼除3号楼外其他楼宇","full_address":"河北省承德市双滦区双塔山镇大龙庙村回迁楼除3号楼外其他楼宇","info":""}},{"type":"Feature","geometry":{"type":"Point","coordinates":[117.711873,40.93777]},"properties":{"province":"河北省","city":"承德市","county":"双滦区","community":"西地镇八里庄村10组","full_address":"河北省承德市双滦区西地镇八里庄村10组","info":""}},{"type":"Feature","geometry":{"type":"Point","coordinates":[117.944974,40.895261]},"properties":{"province":"河北省","city":"承德市","county":"高新区","community":"冯营子村乡村大锅台（凤凰御景店）","full_address":"河北省承德市高新区冯营子村乡村大锅台（凤凰御景店）","info":""}},{"type":"Feature","geometry":{"type":"Point","coordinates":[117.952082,40.892476]},"properties":{"province":"河北省","city":"承德市","county":"高新区","community":"润园朗园小区除朗园30号楼以外其他楼栋","full_address":"河北省承德市高新区润园朗园小区除朗园30号楼以外其他楼栋","info":""}},{"type":"Feature","geometry":{"type":"Point","coordinates":[116.826839,40.043865]},"properties":{"province":"河北省","city":"廊坊市","county":"三河市","community":"嘉都小区（31号楼除外）","full_address":"河北省廊坊市三河市嘉都小区（31号楼除外）","info":""}},{"type":"Feature","geometry":{"type":"Point","coordinates":[118.954627,42.265186]},"properties":{"province":"内蒙古自治区","city":"赤峰市","county":"红山区","community":"哈达街西段路北118号所有经营场所","full_address":"内蒙古自治区赤峰市红山区哈达街西段路北118号所有经营场所","info":""}},{"type":"Feature","geometry":{"type":"Point","coordinates":[119.477596,42.582123]},"properties":{"province":"内蒙古自治区","city":"赤峰市","county":"松山区","community":"哈拉道口学区中学","full_address":"内蒙古自治区赤峰市松山区哈拉道口学区中学","info":""}},{"type":"Feature","geometry":{"type":"Point","coordinates":[119.344696,42.433139]},"properties":{"province":"内蒙古自治区","city":"赤峰市","county":"松山区","community":"安庆镇西域宾馆","full_address":"内蒙古自治区赤峰市松山区安庆镇西域宾馆","info":""}},{"type":"Feature","geometry":{"type":"Point","coordinates":[118.927627,42.283484]},"properties":{"province":"内蒙古自治区","city":"赤峰市","county":"松山区","community":"松山二中","full_address":"内蒙古自治区赤峰市松山区松山二中","info":""}},{"type":"Feature","geometry":{"type":"Point","coordinates":[118.936548,42.286352]},"properties":{"province":"内蒙古自治区","city":"赤峰市","county":"松山区","community":"向阳幼儿园","full_address":"内蒙古自治区赤峰市松山区向阳幼儿园","info":""}},{"type":"Feature","geometry":{"type":"Point","coordinates":[118.924246,42.273449]},"properties":{"province":"内蒙古自治区","city":"赤峰市","county":"松山区","community":"玉龙大街以北、契丹大街以南、松洲路以东、松城路以西整个片区除三个高风险区以外的区域","full_address":"内蒙古自治区赤峰市松山区玉龙大街以北、契丹大街以南、松洲路以东、松城路以西整个片区除三个高风险区以外的区域","info":""}},{"type":"Feature","geometry":{"type":"Point","coordinates":[118.929019,42.268288]},"properties":{"province":"内蒙古自治区","city":"赤峰市","county":"松山区","community":"松洲街道天王商务楼","full_address":"内蒙古自治区赤峰市松山区松洲街道天王商务楼","info":""}},{"type":"Feature","geometry":{"type":"Point","coordinates":[118.93418,42.28548]},"properties":{"province":"内蒙古自治区","city":"赤峰市","county":"松山区","community":"振兴街道永业广场","full_address":"内蒙古自治区赤峰市松山区振兴街道永业广场","info":""}},{"type":"Feature","geometry":{"type":"Point","coordinates":[119.343347,42.431247]},"properties":{"province":"内蒙古自治区","city":"赤峰市","county":"松山区","community":"安庆镇小北道村馨安小区","full_address":"内蒙古自治区赤峰市松山区安庆镇小北道村馨安小区","info":""}},{"type":"Feature","geometry":{"type":"Point","coordinates":[120.097964,43.877284]},"properties":{"province":"内蒙古自治区","city":"赤峰市","county":"阿鲁科尔沁旗","community":"天山镇天元大街东桥东路北天山实验小学","full_address":"内蒙古自治区赤峰市阿鲁科尔沁旗天山镇天元大街东桥东路北天山实验小学","info":""}},{"type":"Feature","geometry":{"type":"Point","coordinates":[120.355676,43.771317]},"properties":{"province":"内蒙古自治区","city":"赤峰市","county":"阿鲁科尔沁旗","community":"天山口镇柳家段村","full_address":"内蒙古自治区赤峰市阿鲁科尔沁旗天山口镇柳家段村","info":""}},{"type":"Feature","geometry":{"type":"Point","coordinates":[120.109355,43.808673]},"properties":{"province":"内蒙古自治区","city":"赤峰市","county":"阿鲁科尔沁旗","community":"天山口镇八家村","full_address":"内蒙古自治区赤峰市阿鲁科尔沁旗天山口镇八家村","info":""}},{"type":"Feature","geometry":{"type":"Point","coordinates":[120.055312,43.872946]},"properties":{"province":"内蒙古自治区","city":"赤峰市","county":"阿鲁科尔沁旗","community":"汉林西街南天山一中","full_address":"内蒙古自治区赤峰市阿鲁科尔沁旗汉林西街南天山一中","info":""}},{"type":"Feature","geometry":{"type":"Point","coordinates":[119.65428,42.733059]},"properties":{"province":"内蒙古自治区","city":"赤峰市","county":"翁牛特旗","community":"乌敦套海镇强盛幼儿园","full_address":"内蒙古自治区赤峰市翁牛特旗乌敦套海镇强盛幼儿园","info":""}},{"type":"Feature","geometry":{"type":"Point","coordinates":[119.65202,42.724166]},"properties":{"province":"内蒙古自治区","city":"赤峰市","county":"翁牛特旗","community":"乌敦套海镇中心小学","full_address":"内蒙古自治区赤峰市翁牛特旗乌敦套海镇中心小学","info":""}},{"type":"Feature","geometry":{"type":"Point","coordinates":[119.65789,42.73294]},"properties":{"province":"内蒙古自治区","city":"赤峰市","county":"翁牛特旗","community":"乌敦套海镇龙泉花园","full_address":"内蒙古自治区赤峰市翁牛特旗乌敦套海镇龙泉花园","info":""}},{"type":"Feature","geometry":{"type":"Point","coordinates":[119.657082,42.731061]},"properties":{"province":"内蒙古自治区","city":"赤峰市","county":"翁牛特旗","community":"乌敦套海镇中学","full_address":"内蒙古自治区赤峰市翁牛特旗乌敦套海镇中学","info":""}},{"type":"Feature","geometry":{"type":"Point","coordinates":[119.654878,42.730804]},"properties":{"province":"内蒙古自治区","city":"赤峰市","county":"翁牛特旗","community":"乌敦套海镇新城大街临街商厅","full_address":"内蒙古自治区赤峰市翁牛特旗乌敦套海镇新城大街临街商厅","info":""}},{"type":"Feature","geometry":{"type":"Point","coordinates":[119.654893,42.747034]},"properties":{"province":"内蒙古自治区","city":"赤峰市","county":"翁牛特旗","community":"乌敦套海镇新北村","full_address":"内蒙古自治区赤峰市翁牛特旗乌敦套海镇新北村","info":""}},{"type":"Feature","geometry":{"type":"Point","coordinates":[119.660583,42.73194]},"properties":{"province":"内蒙古自治区","city":"赤峰市","county":"翁牛特旗","community":"乌敦套海镇湖畔新苑小区","full_address":"内蒙古自治区赤峰市翁牛特旗乌敦套海镇湖畔新苑小区","info":""}},{"type":"Feature","geometry":{"type":"Point","coordinates":[119.655994,42.730547]},"properties":{"province":"内蒙古自治区","city":"赤峰市","county":"翁牛特旗","community":"乌敦套海镇御鑫家园小区","full_address":"内蒙古自治区赤峰市翁牛特旗乌敦套海镇御鑫家园小区","info":""}},{"type":"Feature","geometry":{"type":"Point","coordinates":[119.017597,42.935484]},"properties":{"province":"内蒙古自治区","city":"赤峰市","county":"翁牛特旗","community":"乌敦套海镇滨湖一期小区","full_address":"内蒙古自治区赤峰市翁牛特旗乌敦套海镇滨湖一期小区","info":""}},{"type":"Feature","geometry":{"type":"Point","coordinates":[119.659349,42.732368]},"properties":{"province":"内蒙古自治区","city":"赤峰市","county":"翁牛特旗","community":"乌敦套海镇供销社家属院","full_address":"内蒙古自治区赤峰市翁牛特旗乌敦套海镇供销社家属院","info":""}},{"type":"Feature","geometry":{"type":"Point","coordinates":[119.659349,42.732368]},"properties":{"province":"内蒙古自治区","city":"赤峰市","county":"翁牛特旗","community":"乌敦套海镇林场家属院","full_address":"内蒙古自治区赤峰市翁牛特旗乌敦套海镇林场家属院","info":""}},{"type":"Feature","geometry":{"type":"Point","coordinates":[119.656467,42.730462]},"properties":{"province":"内蒙古自治区","city":"赤峰市","county":"翁牛特旗","community":"乌敦套海镇新城居委会道班家属院平房区","full_address":"内蒙古自治区赤峰市翁牛特旗乌敦套海镇新城居委会道班家属院平房区","info":""}},{"type":"Feature","geometry":{"type":"Point","coordinates":[119.645367,42.611918]},"properties":{"province":"内蒙古自治区","city":"赤峰市","county":"翁牛特旗","community":"乌敦套海镇太湖山村","full_address":"内蒙古自治区赤峰市翁牛特旗乌敦套海镇太湖山村","info":""}},{"type":"Feature","geometry":{"type":"Point","coordinates":[119.648407,42.801648]},"properties":{"province":"内蒙古自治区","city":"赤峰市","county":"翁牛特旗","community":"乌敦套海镇新府村","full_address":"内蒙古自治区赤峰市翁牛特旗乌敦套海镇新府村","info":""}},{"type":"Feature","geometry":{"type":"Point","coordinates":[119.584607,42.74222]},"properties":{"province":"内蒙古自治区","city":"赤峰市","county":"翁牛特旗","community":"乌敦套海镇五牌子村","full_address":"内蒙古自治区赤峰市翁牛特旗乌敦套海镇五牌子村","info":""}},{"type":"Feature","geometry":{"type":"Point","coordinates":[119.679975,42.681907]},"properties":{"province":"内蒙古自治区","city":"赤峰市","county":"翁牛特旗","community":"乌敦套海镇三十家子村","full_address":"内蒙古自治区赤峰市翁牛特旗乌敦套海镇三十家子村","info":""}},{"type":"Feature","geometry":{"type":"Point","coordinates":[119.831752,42.914444]},"properties":{"province":"内蒙古自治区","city":"赤峰市","county":"翁牛特旗","community":"乌敦套海镇那吉来村","full_address":"内蒙古自治区赤峰市翁牛特旗乌敦套海镇那吉来村","info":""}},{"type":"Feature","geometry":{"type":"Point","coordinates":[119.464949,42.68886]},"properties":{"province":"内蒙古自治区","city":"赤峰市","county":"翁牛特旗","community":"乌敦套海镇北井村","full_address":"内蒙古自治区赤峰市翁牛特旗乌敦套海镇北井村","info":""}},{"type":"Feature","geometry":{"type":"Point","coordinates":[119.731239,42.799793]},"properties":{"province":"内蒙古自治区","city":"赤峰市","county":"翁牛特旗","community":"乌敦套海镇下府村","full_address":"内蒙古自治区赤峰市翁牛特旗乌敦套海镇下府村","info":""}},{"type":"Feature","geometry":{"type":"Point","coordinates":[119.017597,42.935484]},"properties":{"province":"内蒙古自治区","city":"赤峰市","county":"翁牛特旗","community":"吉祥家园小区","full_address":"内蒙古自治区赤峰市翁牛特旗吉祥家园小区","info":""}},{"type":"Feature","geometry":{"type":"Point","coordinates":[119.017597,42.935484]},"properties":{"province":"内蒙古自治区","city":"赤峰市","county":"翁牛特旗","community":"农业小区","full_address":"内蒙古自治区赤峰市翁牛特旗农业小区","info":""}},{"type":"Feature","geometry":{"type":"Point","coordinates":[119.019687,42.940332]},"properties":{"province":"内蒙古自治区","city":"赤峰市","county":"翁牛特旗","community":"国税小区1号、2号、3号、4号楼","full_address":"内蒙古自治区赤峰市翁牛特旗国税小区1号、2号、3号、4号楼","info":""}},{"type":"Feature","geometry":{"type":"Point","coordinates":[119.016018,42.940028]},"properties":{"province":"内蒙古自治区","city":"赤峰市","county":"翁牛特旗","community":"车站小区","full_address":"内蒙古自治区赤峰市翁牛特旗车站小区","info":""}},{"type":"Feature","geometry":{"type":"Point","coordinates":[119.00658,42.936188]},"properties":{"province":"内蒙古自治区","city":"赤峰市","county":"翁牛特旗","community":"开发办家属楼","full_address":"内蒙古自治区赤峰市翁牛特旗开发办家属楼","info":""}},{"type":"Feature","geometry":{"type":"Point","coordinates":[119.015848,42.941167]},"properties":{"province":"内蒙古自治区","city":"赤峰市","county":"翁牛特旗","community":"玉龙公馆","full_address":"内蒙古自治区赤峰市翁牛特旗玉龙公馆","info":""}},{"type":"Feature","geometry":{"type":"Point","coordinates":[119.016196,42.941418]},"properties":{"province":"内蒙古自治区","city":"赤峰市","county":"翁牛特旗","community":"邮电小区","full_address":"内蒙古自治区赤峰市翁牛特旗邮电小区","info":""}},{"type":"Feature","geometry":{"type":"Point","coordinates":[119.016016,42.941711]},"properties":{"province":"内蒙古自治区","city":"赤峰市","county":"翁牛特旗","community":"邮政小区","full_address":"内蒙古自治区赤峰市翁牛特旗邮政小区","info":""}},{"type":"Feature","geometry":{"type":"Point","coordinates":[119.015422,42.942174]},"properties":{"province":"内蒙古自治区","city":"赤峰市","county":"翁牛特旗","community":"金地人家5号楼","full_address":"内蒙古自治区赤峰市翁牛特旗金地人家5号楼","info":""}},{"type":"Feature","geometry":{"type":"Point","coordinates":[119.015473,42.939576]},"properties":{"province":"内蒙古自治区","city":"赤峰市","county":"翁牛特旗","community":"玉龙家园","full_address":"内蒙古自治区赤峰市翁牛特旗玉龙家园","info":""}},{"type":"Feature","geometry":{"type":"Point","coordinates":[119.025422,42.930424]},"properties":{"province":"内蒙古自治区","city":"赤峰市","county":"翁牛特旗","community":"乌丹第一幼儿园东侧平房区","full_address":"内蒙古自治区赤峰市翁牛特旗乌丹第一幼儿园东侧平房区","info":""}},{"type":"Feature","geometry":{"type":"Point","coordinates":[118.999735,42.939248]},"properties":{"province":"内蒙古自治区","city":"赤峰市","county":"翁牛特旗","community":"民政家园","full_address":"内蒙古自治区赤峰市翁牛特旗民政家园","info":""}},{"type":"Feature","geometry":{"type":"Point","coordinates":[119.000123,42.937821]},"properties":{"province":"内蒙古自治区","city":"赤峰市","county":"翁牛特旗","community":"兴和家园小区","full_address":"内蒙古自治区赤峰市翁牛特旗兴和家园小区","info":""}},{"type":"Feature","geometry":{"type":"Point","coordinates":[118.998215,42.940216]},"properties":{"province":"内蒙古自治区","city":"赤峰市","county":"翁牛特旗","community":"天和盛景小区","full_address":"内蒙古自治区赤峰市翁牛特旗天和盛景小区","info":""}},{"type":"Feature","geometry":{"type":"Point","coordinates":[117.427224,49.601739]},"properties":{"province":"内蒙古自治区","city":"呼伦贝尔市","county":"满洲里市","community":"尚都国际小区","full_address":"内蒙古自治区呼伦贝尔市满洲里市尚都国际小区","info":""}},{"type":"Feature","geometry":{"type":"Point","coordinates":[116.10221,43.952801]},"properties":{"province":"内蒙古自治区","city":"锡林郭勒盟","county":"锡林浩特市","community":"双拥小区街面房富祥汽车电器电路修理店","full_address":"内蒙古自治区锡林郭勒盟锡林浩特市双拥小区街面房富祥汽车电器电路修理店","info":""}},{"type":"Feature","geometry":{"type":"Point","coordinates":[116.106498,43.945991]},"properties":{"province":"内蒙古自治区","city":"锡林郭勒盟","county":"锡林浩特市","community":"109干休所对面思宁汽车钣金喷漆店","full_address":"内蒙古自治区锡林郭勒盟锡林浩特市109干休所对面思宁汽车钣金喷漆店","info":""}},{"type":"Feature","geometry":{"type":"Point","coordinates":[116.086032,43.933411]},"properties":{"province":"内蒙古自治区","city":"锡林郭勒盟","county":"锡林浩特市","community":"二水厂家属楼","full_address":"内蒙古自治区锡林郭勒盟锡林浩特市二水厂家属楼","info":""}},{"type":"Feature","geometry":{"type":"Point","coordinates":[116.063667,43.944167]},"properties":{"province":"内蒙古自治区","city":"锡林郭勒盟","county":"锡林浩特市","community":"大业金河湾B区","full_address":"内蒙古自治区锡林郭勒盟锡林浩特市大业金河湾B区","info":""}},{"type":"Feature","geometry":{"type":"Point","coordinates":[116.065901,43.942026]},"properties":{"province":"内蒙古自治区","city":"锡林郭勒盟","county":"锡林浩特市","community":"大业金河湾D区","full_address":"内蒙古自治区锡林郭勒盟锡林浩特市大业金河湾D区","info":""}},{"type":"Feature","geometry":{"type":"Point","coordinates":[116.061952,43.938945]},"properties":{"province":"内蒙古自治区","city":"锡林郭勒盟","county":"锡林浩特市","community":"南方小镇小区","full_address":"内蒙古自治区锡林郭勒盟锡林浩特市南方小镇小区","info":""}},{"type":"Feature","geometry":{"type":"Point","coordinates":[116.10715,43.964987]},"properties":{"province":"内蒙古自治区","city":"锡林郭勒盟","county":"锡林浩特市","community":"幸福社区小区","full_address":"内蒙古自治区锡林郭勒盟锡林浩特市幸福社区小区","info":""}},{"type":"Feature","geometry":{"type":"Point","coordinates":[116.096464,43.958625]},"properties":{"province":"内蒙古自治区","city":"锡林郭勒盟","county":"锡林浩特市","community":"长安丽景小区","full_address":"内蒙古自治区锡林郭勒盟锡林浩特市长安丽景小区","info":""}},{"type":"Feature","geometry":{"type":"Point","coordinates":[116.099189,43.949954]},"properties":{"province":"内蒙古自治区","city":"锡林郭勒盟","county":"锡林浩特市","community":"玉玺小区","full_address":"内蒙古自治区锡林郭勒盟锡林浩特市玉玺小区","info":""}},{"type":"Feature","geometry":{"type":"Point","coordinates":[116.109495,43.961153]},"properties":{"province":"内蒙古自治区","city":"锡林郭勒盟","county":"锡林浩特市","community":"公园首府小区","full_address":"内蒙古自治区锡林郭勒盟锡林浩特市公园首府小区","info":""}},{"type":"Feature","geometry":{"type":"Point","coordinates":[116.086017,43.927285]},"properties":{"province":"内蒙古自治区","city":"锡林郭勒盟","county":"锡林浩特市","community":"都市上苑小区","full_address":"内蒙古自治区锡林郭勒盟锡林浩特市都市上苑小区","info":""}},{"type":"Feature","geometry":{"type":"Point","coordinates":[116.107063,43.932285]},"properties":{"province":"内蒙古自治区","city":"锡林郭勒盟","county":"锡林浩特市","community":"万泰家园","full_address":"内蒙古自治区锡林郭勒盟锡林浩特市万泰家园","info":""}},{"type":"Feature","geometry":{"type":"Point","coordinates":[116.103649,43.934393]},"properties":{"province":"内蒙古自治区","city":"锡林郭勒盟","county":"锡林浩特市","community":"理想家园小区","full_address":"内蒙古自治区锡林郭勒盟锡林浩特市理想家园小区","info":""}},{"type":"Feature","geometry":{"type":"Point","coordinates":[116.066722,43.918701]},"properties":{"province":"内蒙古自治区","city":"锡林郭勒盟","county":"锡林浩特市","community":"城上城小区","full_address":"内蒙古自治区锡林郭勒盟锡林浩特市城上城小区","info":""}},{"type":"Feature","geometry":{"type":"Point","coordinates":[116.044258,43.913998]},"properties":{"province":"内蒙古自治区","city":"锡林郭勒盟","county":"锡林浩特市","community":"方悦名都A区","full_address":"内蒙古自治区锡林郭勒盟锡林浩特市方悦名都A区","info":""}},{"type":"Feature","geometry":{"type":"Point","coordinates":[116.053522,43.920278]},"properties":{"province":"内蒙古自治区","city":"锡林郭勒盟","county":"锡林浩特市","community":"方悦名都D区","full_address":"内蒙古自治区锡林郭勒盟锡林浩特市方悦名都D区","info":""}},{"type":"Feature","geometry":{"type":"Point","coordinates":[116.063497,43.910066]},"properties":{"province":"内蒙古自治区","city":"锡林郭勒盟","county":"锡林浩特市","community":"鑫泰苑小区","full_address":"内蒙古自治区锡林郭勒盟锡林浩特市鑫泰苑小区","info":""}},{"type":"Feature","geometry":{"type":"Point","coordinates":[116.096672,43.952335]},"properties":{"province":"内蒙古自治区","city":"锡林郭勒盟","county":"锡林浩特市","community":"康盛嘉苑小区","full_address":"内蒙古自治区锡林郭勒盟锡林浩特市康盛嘉苑小区","info":""}},{"type":"Feature","geometry":{"type":"Point","coordinates":[116.077806,43.923931]},"properties":{"province":"内蒙古自治区","city":"锡林郭勒盟","county":"锡林浩特市","community":"广达欣城小区","full_address":"内蒙古自治区锡林郭勒盟锡林浩特市广达欣城小区","info":""}},{"type":"Feature","geometry":{"type":"Point","coordinates":[116.112065,43.947463]},"properties":{"province":"内蒙古自治区","city":"锡林郭勒盟","county":"锡林浩特市","community":"额办小区","full_address":"内蒙古自治区锡林郭勒盟锡林浩特市额办小区","info":""}},{"type":"Feature","geometry":{"type":"Point","coordinates":[116.086032,43.933411]},"properties":{"province":"内蒙古自治区","city":"锡林郭勒盟","county":"锡林浩特市","community":"康裕新苑小区","full_address":"内蒙古自治区锡林郭勒盟锡林浩特市康裕新苑小区","info":""}},{"type":"Feature","geometry":{"type":"Point","coordinates":[116.065052,43.920037]},"properties":{"province":"内蒙古自治区","city":"锡林郭勒盟","county":"锡林浩特市","community":"富丽华庭小区","full_address":"内蒙古自治区锡林郭勒盟锡林浩特市富丽华庭小区","info":""}},{"type":"Feature","geometry":{"type":"Point","coordinates":[116.064547,43.915543]},"properties":{"province":"内蒙古自治区","city":"锡林郭勒盟","county":"锡林浩特市","community":"溪林湾小区","full_address":"内蒙古自治区锡林郭勒盟锡林浩特市溪林湾小区","info":""}},{"type":"Feature","geometry":{"type":"Point","coordinates":[116.077469,43.952523]},"properties":{"province":"内蒙古自治区","city":"锡林郭勒盟","county":"锡林浩特市","community":"紫藤花园小区","full_address":"内蒙古自治区锡林郭勒盟锡林浩特市紫藤花园小区","info":""}},{"type":"Feature","geometry":{"type":"Point","coordinates":[116.086032,43.933411]},"properties":{"province":"内蒙古自治区","city":"锡林郭勒盟","county":"锡林浩特市","community":"信合小区","full_address":"内蒙古自治区锡林郭勒盟锡林浩特市信合小区","info":""}},{"type":"Feature","geometry":{"type":"Point","coordinates":[123.426424,41.797444]},"properties":{"province":"辽宁省","city":"沈阳市","county":"沈河区","community":"风雨坛街道进华社区义安小区内除高风险区外的其他楼宇","full_address":"辽宁省沈阳市沈河区风雨坛街道进华社区义安小区内除高风险区外的其他楼宇","info":""}},{"type":"Feature","geometry":{"type":"Point","coordinates":[123.427351,41.799031]},"properties":{"province":"辽宁省","city":"沈阳市","county":"沈河区","community":"风雨坛街道进华社区六纬路46号单体楼","full_address":"辽宁省沈阳市沈河区风雨坛街道进华社区六纬路46号单体楼","info":""}},{"type":"Feature","geometry":{"type":"Point","coordinates":[123.427938,41.799151]},"properties":{"province":"辽宁省","city":"沈阳市","county":"沈河区","community":"风雨坛街道进华社区涵泰商务大厦","full_address":"辽宁省沈阳市沈河区风雨坛街道进华社区涵泰商务大厦","info":""}},{"type":"Feature","geometry":{"type":"Point","coordinates":[123.438293,41.793888]},"properties":{"province":"辽宁省","city":"沈阳市","county":"沈河区","community":"朱剪炉街道迎新社区大西路316号单体楼","full_address":"辽宁省沈阳市沈河区朱剪炉街道迎新社区大西路316号单体楼","info":""}},{"type":"Feature","geometry":{"type":"Point","coordinates":[123.444356,41.801568]},"properties":{"province":"辽宁省","city":"沈阳市","county":"沈河区","community":"朱剪炉街道宝石社区小西路38号单体楼","full_address":"辽宁省沈阳市沈河区朱剪炉街道宝石社区小西路38号单体楼","info":""}},{"type":"Feature","geometry":{"type":"Point","coordinates":[123.389951,41.800657]},"properties":{"province":"辽宁省","city":"沈阳市","county":"铁西区","community":"北至北一东路，南至北二东路，东至沈大高速铁路线，西至云峰北街区域，除高风险区以外区域","full_address":"辽宁省沈阳市铁西区北至北一东路，南至北二东路，东至沈大高速铁路线，西至云峰北街区域，除高风险区以外区域","info":""}},{"type":"Feature","geometry":{"type":"Point","coordinates":[125.660809,43.532061]},"properties":{"province":"吉林省","city":"长春市","county":"双阳区","community":"云山街道城市嘉园二期66号楼","full_address":"吉林省长春市双阳区云山街道城市嘉园二期66号楼","info":""}},{"type":"Feature","geometry":{"type":"Point","coordinates":[125.684608,43.526568]},"properties":{"province":"吉林省","city":"长春市","county":"双阳区","community":"云山街道东桥社区苗圃","full_address":"吉林省长春市双阳区云山街道东桥社区苗圃","info":""}},{"type":"Feature","geometry":{"type":"Point","coordinates":[123.205323,47.338665]},"properties":{"province":"黑龙江省","city":"齐齐哈尔市","county":"龙江县","community":"世纪九鼎小区5号楼","full_address":"黑龙江省齐齐哈尔市龙江县世纪九鼎小区5号楼","info":""}},{"type":"Feature","geometry":{"type":"Point","coordinates":[125.123578,46.592079]},"properties":{"province":"黑龙江省","city":"大庆市","county":"萨尔图区","community":"东安街道东安新村三区东安小区（不含3-38号楼）","full_address":"黑龙江省大庆市萨尔图区东安街道东安新村三区东安小区（不含3-38号楼）","info":""}},{"type":"Feature","geometry":{"type":"Point","coordinates":[125.107146,46.607646]},"properties":{"province":"黑龙江省","city":"大庆市","county":"萨尔图区","community":"绿园街道北辰一区1-43号楼","full_address":"黑龙江省大庆市萨尔图区绿园街道北辰一区1-43号楼","info":""}},{"type":"Feature","geometry":{"type":"Point","coordinates":[125.115627,46.601515]},"properties":{"province":"黑龙江省","city":"大庆市","county":"萨尔图区","community":"东风街道东风新村新源小区B组团2-56号楼","full_address":"黑龙江省大庆市萨尔图区东风街道东风新村新源小区B组团2-56号楼","info":""}},{"type":"Feature","geometry":{"type":"Point","coordinates":[125.10019,46.602059]},"properties":{"province":"黑龙江省","city":"大庆市","county":"萨尔图区","community":"东风街道东风新村新星小区E组团内高风险区域以外其他区域","full_address":"黑龙江省大庆市萨尔图区东风街道东风新村新星小区E组团内高风险区域以外其他区域","info":""}},{"type":"Feature","geometry":{"type":"Point","coordinates":[125.1102,46.578954]},"properties":{"province":"黑龙江省","city":"大庆市","county":"萨尔图区","community":"万宝街道万宝一区","full_address":"黑龙江省大庆市萨尔图区万宝街道万宝一区","info":""}},{"type":"Feature","geometry":{"type":"Point","coordinates":[125.104112,46.57616]},"properties":{"province":"黑龙江省","city":"大庆市","county":"萨尔图区","community":"万宝街道万宝二区","full_address":"黑龙江省大庆市萨尔图区万宝街道万宝二区","info":""}},{"type":"Feature","geometry":{"type":"Point","coordinates":[125.027769,46.601347]},"properties":{"province":"黑龙江省","city":"大庆市","county":"萨尔图区","community":"会战街道利民苑小区（不含9号楼）","full_address":"黑龙江省大庆市萨尔图区会战街道利民苑小区（不含9号楼）","info":""}},{"type":"Feature","geometry":{"type":"Point","coordinates":[125.106512,46.598914]},"properties":{"province":"黑龙江省","city":"大庆市","county":"萨尔图区","community":"东风街道新源小区E组团2-9号楼","full_address":"黑龙江省大庆市萨尔图区东风街道新源小区E组团2-9号楼","info":""}},{"type":"Feature","geometry":{"type":"Point","coordinates":[125.108714,46.589929]},"properties":{"province":"黑龙江省","city":"大庆市","county":"萨尔图区","community":"东风街道文华小区8-4号楼","full_address":"黑龙江省大庆市萨尔图区东风街道文华小区8-4号楼","info":""}},{"type":"Feature","geometry":{"type":"Point","coordinates":[125.111517,46.601413]},"properties":{"province":"黑龙江省","city":"大庆市","county":"萨尔图区","community":"东风街道东风新村新源小区A组团2-26号楼","full_address":"黑龙江省大庆市萨尔图区东风街道东风新村新源小区A组团2-26号楼","info":""}},{"type":"Feature","geometry":{"type":"Point","coordinates":[125.128509,46.624688]},"properties":{"province":"黑龙江省","city":"大庆市","county":"萨尔图区","community":"东安街道东风新村安惠小区A组团3-13号楼","full_address":"黑龙江省大庆市萨尔图区东安街道东风新村安惠小区A组团3-13号楼","info":""}},{"type":"Feature","geometry":{"type":"Point","coordinates":[125.126251,46.610971]},"properties":{"province":"黑龙江省","city":"大庆市","county":"萨尔图区","community":"绿园街道绿色家园小区S15号楼","full_address":"黑龙江省大庆市萨尔图区绿园街道绿色家园小区S15号楼","info":""}},{"type":"Feature","geometry":{"type":"Point","coordinates":[125.112562,46.602968]},"properties":{"province":"黑龙江省","city":"大庆市","county":"萨尔图区","community":"东风街道东风新村新源小区F组团南、西、北区内高风险区域以外其他区域（南、西、北区组成全域）","full_address":"黑龙江省大庆市萨尔图区东风街道东风新村新源小区F组团南、西、北区内高风险区域以外其他区域（南、西、北区组成全域）","info":""}},{"type":"Feature","geometry":{"type":"Point","coordinates":[125.122312,46.620644]},"properties":{"province":"黑龙江省","city":"大庆市","county":"萨尔图区","community":"格林街道香逸名苑小区一二期B5号楼","full_address":"黑龙江省大庆市萨尔图区格林街道香逸名苑小区一二期B5号楼","info":""}},{"type":"Feature","geometry":{"type":"Point","coordinates":[125.106441,46.596359]},"properties":{"province":"黑龙江省","city":"大庆市","county":"萨尔图区","community":"东风街道东风新村新星小区A组团（一区）1-3号楼、1-14号楼","full_address":"黑龙江省大庆市萨尔图区东风街道东风新村新星小区A组团（一区）1-3号楼、1-14号楼","info":""}},{"type":"Feature","geometry":{"type":"Point","coordinates":[125.161362,46.589081]},"properties":{"province":"黑龙江省","city":"大庆市","county":"萨尔图区","community":"黎明街道博学大街联想科技城小区（不含B7号楼、C5号楼及周边商服、B2号楼、B3号楼、C2号楼及周边商服）","full_address":"黑龙江省大庆市萨尔图区黎明街道博学大街联想科技城小区（不含B7号楼、C5号楼及周边商服、B2号楼、B3号楼、C2号楼及周边商服）","info":""}},{"type":"Feature","geometry":{"type":"Point","coordinates":[125.099163,46.578353]},"properties":{"province":"黑龙江省","city":"大庆市","county":"萨尔图区","community":"万宝街道奥维馨苑小区含周边商服（不含213号楼）","full_address":"黑龙江省大庆市萨尔图区万宝街道奥维馨苑小区含周边商服（不含213号楼）","info":""}},{"type":"Feature","geometry":{"type":"Point","coordinates":[125.130808,46.610154]},"properties":{"province":"黑龙江省","city":"大庆市","county":"萨尔图区","community":"黎明街道学伟大街沿湖城翠江湾A座","full_address":"黑龙江省大庆市萨尔图区黎明街道学伟大街沿湖城翠江湾A座","info":""}},{"type":"Feature","geometry":{"type":"Point","coordinates":[125.162294,46.631382]},"properties":{"province":"黑龙江省","city":"大庆市","county":"萨尔图区","community":"黎明街道生态大街爱莲堡花园小区","full_address":"黑龙江省大庆市萨尔图区黎明街道生态大街爱莲堡花园小区","info":""}},{"type":"Feature","geometry":{"type":"Point","coordinates":[125.138442,46.623346]},"properties":{"province":"黑龙江省","city":"大庆市","county":"萨尔图区","community":"黎明街道东至火炬新街，南至世纪大道，西至学伟大街，北至科技路的合围区域（不含区域内高风险区域和人民医院）","full_address":"黑龙江省大庆市萨尔图区黎明街道东至火炬新街，南至世纪大道，西至学伟大街，北至科技路的合围区域（不含区域内高风险区域和人民医院）","info":""}},{"type":"Feature","geometry":{"type":"Point","coordinates":[125.129342,46.578254]},"properties":{"province":"黑龙江省","city":"大庆市","county":"萨尔图区","community":"黎明街道东至学伟大街，南至世纪大道，西至建行街，北至纬二路的合围区域（不含区域内高风险区域）","full_address":"黑龙江省大庆市萨尔图区黎明街道东至学伟大街，南至世纪大道，西至建行街，北至纬二路的合围区域（不含区域内高风险区域）","info":""}},{"type":"Feature","geometry":{"type":"Point","coordinates":[125.16289,46.613439]},"properties":{"province":"黑龙江省","city":"大庆市","county":"萨尔图区","community":"黎明街道恒祥街银河太阳城小区全域","full_address":"黑龙江省大庆市萨尔图区黎明街道恒祥街银河太阳城小区全域","info":""}},{"type":"Feature","geometry":{"type":"Point","coordinates":[124.874717,46.702411]},"properties":{"province":"黑龙江省","city":"大庆市","county":"萨尔图区","community":"黎明街道秀水路150号高端装备制造园B13号厂房（大庆博翼物流有限公司）","full_address":"黑龙江省大庆市萨尔图区黎明街道秀水路150号高端装备制造园B13号厂房（大庆博翼物流有限公司）","info":""}},{"type":"Feature","geometry":{"type":"Point","coordinates":[125.130176,46.603604]},"properties":{"province":"黑龙江省","city":"大庆市","county":"萨尔图区","community":"黎明街道学伟大街沿湖城御景湾C座","full_address":"黑龙江省大庆市萨尔图区黎明街道学伟大街沿湖城御景湾C座","info":""}},{"type":"Feature","geometry":{"type":"Point","coordinates":[125.161675,46.588765]},"properties":{"province":"黑龙江省","city":"大庆市","county":"萨尔图区","community":"黎明街道博学大街联想科技城小区B2号楼、B3号楼","full_address":"黑龙江省大庆市萨尔图区黎明街道博学大街联想科技城小区B2号楼、B3号楼","info":""}},{"type":"Feature","geometry":{"type":"Point","coordinates":[125.175201,46.576547]},"properties":{"province":"黑龙江省","city":"大庆市","county":"萨尔图区","community":"黎明街道新发街兴荣工业园厂房南侧围栏边三个板房（东经125.181938，北纬46.574525）","full_address":"黑龙江省大庆市萨尔图区黎明街道新发街兴荣工业园厂房南侧围栏边三个板房（东经125.181938，北纬46.574525）","info":""}},{"type":"Feature","geometry":{"type":"Point","coordinates":[125.14705,46.565503]},"properties":{"province":"黑龙江省","city":"大庆市","county":"萨尔图区","community":"黎明街道安萨路丽青公寓小区","full_address":"黑龙江省大庆市萨尔图区黎明街道安萨路丽青公寓小区","info":""}},{"type":"Feature","geometry":{"type":"Point","coordinates":[125.158813,46.596529]},"properties":{"province":"黑龙江省","city":"大庆市","county":"萨尔图区","community":"黎明街道博学大街新城御景B01号楼","full_address":"黑龙江省大庆市萨尔图区黎明街道博学大街新城御景B01号楼","info":""}},{"type":"Feature","geometry":{"type":"Point","coordinates":[125.175201,46.576547]},"properties":{"province":"黑龙江省","city":"大庆市","county":"萨尔图区","community":"黎明街道新发街兴荣工业园厂房本体南半部分","full_address":"黑龙江省大庆市萨尔图区黎明街道新发街兴荣工业园厂房本体南半部分","info":""}},{"type":"Feature","geometry":{"type":"Point","coordinates":[125.127805,46.620281]},"properties":{"province":"黑龙江省","city":"大庆市","county":"萨尔图区","community":"格林街道格林小镇小区二期C05号楼","full_address":"黑龙江省大庆市萨尔图区格林街道格林小镇小区二期C05号楼","info":""}},{"type":"Feature","geometry":{"type":"Point","coordinates":[125.121194,46.614231]},"properties":{"province":"黑龙江省","city":"大庆市","county":"萨尔图区","community":"绿园街道学伟兰德湖壹号小区D2号楼、D13号楼","full_address":"黑龙江省大庆市萨尔图区绿园街道学伟兰德湖壹号小区D2号楼、D13号楼","info":""}},{"type":"Feature","geometry":{"type":"Point","coordinates":[125.14705,46.565503]},"properties":{"province":"黑龙江省","city":"大庆市","county":"萨尔图区","community":"黎明街道安萨路玖玺首府小区Y10号楼","full_address":"黑龙江省大庆市萨尔图区黎明街道安萨路玖玺首府小区Y10号楼","info":""}},{"type":"Feature","geometry":{"type":"Point","coordinates":[125.145966,46.570153]},"properties":{"province":"黑龙江省","city":"大庆市","county":"萨尔图区","community":"黎明街道新科路融创中央学府小区10号楼","full_address":"黑龙江省大庆市萨尔图区黎明街道新科路融创中央学府小区10号楼","info":""}},{"type":"Feature","geometry":{"type":"Point","coordinates":[125.12705,46.592927]},"properties":{"province":"黑龙江省","city":"大庆市","county":"萨尔图区","community":"东安街道广源步行街B5商服鑫顺祥招待所","full_address":"黑龙江省大庆市萨尔图区东安街道广源步行街B5商服鑫顺祥招待所","info":""}},{"type":"Feature","geometry":{"type":"Point","coordinates":[125.102462,46.596307]},"properties":{"province":"黑龙江省","city":"大庆市","county":"萨尔图区","community":"东风街道新星小区F组团全域","full_address":"黑龙江省大庆市萨尔图区东风街道新星小区F组团全域","info":""}},{"type":"Feature","geometry":{"type":"Point","coordinates":[125.099488,46.596265]},"properties":{"province":"黑龙江省","city":"大庆市","county":"萨尔图区","community":"万宝街道热源街交通银行所在楼栋（东风路与热源街交叉口）","full_address":"黑龙江省大庆市萨尔图区万宝街道热源街交通银行所在楼栋（东风路与热源街交叉口）","info":""}},{"type":"Feature","geometry":{"type":"Point","coordinates":[125.109389,46.548944]},"properties":{"province":"黑龙江省","city":"大庆市","county":"龙凤区","community":"三永街道澳龙小区内高风险区域以外其他区域","full_address":"黑龙江省大庆市龙凤区三永街道澳龙小区内高风险区域以外其他区域","info":""}},{"type":"Feature","geometry":{"type":"Point","coordinates":[125.125504,46.514835]},"properties":{"province":"黑龙江省","city":"大庆市","county":"龙凤区","community":"龙凤街道湿地福苑小区内高风险区域以外其他区域","full_address":"黑龙江省大庆市龙凤区龙凤街道湿地福苑小区内高风险区域以外其他区域","info":""}},{"type":"Feature","geometry":{"type":"Point","coordinates":[125.146681,46.54654]},"properties":{"province":"黑龙江省","city":"大庆市","county":"龙凤区","community":"湿地街道汇宏悦澜湾小区内除高风险区域以外其他区域","full_address":"黑龙江省大庆市龙凤区湿地街道汇宏悦澜湾小区内除高风险区域以外其他区域","info":""}},{"type":"Feature","geometry":{"type":"Point","coordinates":[125.112105,46.530118]},"properties":{"province":"黑龙江省","city":"大庆市","county":"龙凤区","community":"龙凤街道厂前北小区内除高风险区域以外其他区域","full_address":"黑龙江省大庆市龙凤区龙凤街道厂前北小区内除高风险区域以外其他区域","info":""}},{"type":"Feature","geometry":{"type":"Point","coordinates":[125.030114,46.528305]},"properties":{"province":"黑龙江省","city":"大庆市","county":"龙凤区","community":"龙凤镇向阳村向阳大屯所属全域","full_address":"黑龙江省大庆市龙凤区龙凤镇向阳村向阳大屯所属全域","info":""}},{"type":"Feature","geometry":{"type":"Point","coordinates":[125.143283,46.5507]},"properties":{"province":"黑龙江省","city":"大庆市","county":"龙凤区","community":"龙政街道东城领秀D区内高风险区域以外其他区域","full_address":"黑龙江省大庆市龙凤区龙政街道东城领秀D区内高风险区域以外其他区域","info":""}},{"type":"Feature","geometry":{"type":"Point","coordinates":[125.145911,46.5227]},"properties":{"province":"黑龙江省","city":"大庆市","county":"龙凤区","community":"龙凤镇铁东村三屯全域","full_address":"黑龙江省大庆市龙凤区龙凤镇铁东村三屯全域","info":""}},{"type":"Feature","geometry":{"type":"Point","coordinates":[125.139273,46.55541]},"properties":{"province":"黑龙江省","city":"大庆市","county":"龙凤区","community":"龙政街道东城领秀华彩园内除高风险区域以外其他区域","full_address":"黑龙江省大庆市龙凤区龙政街道东城领秀华彩园内除高风险区域以外其他区域","info":""}},{"type":"Feature","geometry":{"type":"Point","coordinates":[125.118714,46.575097]},"properties":{"province":"黑龙江省","city":"大庆市","county":"龙凤区","community":"三永街道瀚城名苑内除高风险区域以外其他区域","full_address":"黑龙江省大庆市龙凤区三永街道瀚城名苑内除高风险区域以外其他区域","info":""}},{"type":"Feature","geometry":{"type":"Point","coordinates":[125.144701,46.555263]},"properties":{"province":"黑龙江省","city":"大庆市","county":"龙凤区","community":"龙政街道滨海花园小区内除高风险区域以外其他区域","full_address":"黑龙江省大庆市龙凤区龙政街道滨海花园小区内除高风险区域以外其他区域","info":""}},{"type":"Feature","geometry":{"type":"Point","coordinates":[125.133459,46.558145]},"properties":{"province":"黑龙江省","city":"大庆市","county":"龙凤区","community":"东城领秀百邦超市南侧壁至刘涛牛羊肉店和叫了个鸡商服之间区域","full_address":"黑龙江省大庆市龙凤区东城领秀百邦超市南侧壁至刘涛牛羊肉店和叫了个鸡商服之间区域","info":""}},{"type":"Feature","geometry":{"type":"Point","coordinates":[125.136597,46.557522]},"properties":{"province":"黑龙江省","city":"大庆市","county":"龙凤区","community":"龙政街道东城领秀A区内除高风险区域以外其他区域","full_address":"黑龙江省大庆市龙凤区龙政街道东城领秀A区内除高风险区域以外其他区域","info":""}},{"type":"Feature","geometry":{"type":"Point","coordinates":[125.121023,46.54538]},"properties":{"province":"黑龙江省","city":"大庆市","county":"龙凤区","community":"三永街道瑞安花园小区内除高风险区域以外其他区域","full_address":"黑龙江省大庆市龙凤区三永街道瑞安花园小区内除高风险区域以外其他区域","info":""}},{"type":"Feature","geometry":{"type":"Point","coordinates":[125.162663,46.547458]},"properties":{"province":"黑龙江省","city":"大庆市","county":"龙凤区","community":"湿地街道欣凤学城A14号楼","full_address":"黑龙江省大庆市龙凤区湿地街道欣凤学城A14号楼","info":""}},{"type":"Feature","geometry":{"type":"Point","coordinates":[125.099632,46.576812]},"properties":{"province":"黑龙江省","city":"大庆市","county":"龙凤区","community":"三永街道昌升地区（万峰路以北，热源街以东，龙泽路以南，凤顺街以西包围范围）","full_address":"黑龙江省大庆市龙凤区三永街道昌升地区（万峰路以北，热源街以东，龙泽路以南，凤顺街以西包围范围）","info":""}},{"type":"Feature","geometry":{"type":"Point","coordinates":[125.117209,46.514509]},"properties":{"province":"黑龙江省","city":"大庆市","county":"龙凤区","community":"龙凤镇保田村全域","full_address":"黑龙江省大庆市龙凤区龙凤镇保田村全域","info":""}},{"type":"Feature","geometry":{"type":"Point","coordinates":[125.098022,46.517185]},"properties":{"province":"黑龙江省","city":"大庆市","county":"龙凤区","community":"东光街道凯旋城小区全域","full_address":"黑龙江省大庆市龙凤区东光街道凯旋城小区全域","info":""}},{"type":"Feature","geometry":{"type":"Point","coordinates":[125.116459,46.532626]},"properties":{"province":"黑龙江省","city":"大庆市","county":"龙凤区","community":"龙凤街道街园小区全域","full_address":"黑龙江省大庆市龙凤区龙凤街道街园小区全域","info":""}},{"type":"Feature","geometry":{"type":"Point","coordinates":[125.119564,46.520398]},"properties":{"province":"黑龙江省","city":"大庆市","county":"龙凤区","community":"龙凤街道24栋小区全域","full_address":"黑龙江省大庆市龙凤区龙凤街道24栋小区全域","info":""}},{"type":"Feature","geometry":{"type":"Point","coordinates":[125.120086,46.517854]},"properties":{"province":"黑龙江省","city":"大庆市","county":"龙凤区","community":"龙凤街道阳光俊园小区全域","full_address":"黑龙江省大庆市龙凤区龙凤街道阳光俊园小区全域","info":""}},{"type":"Feature","geometry":{"type":"Point","coordinates":[125.124989,46.52345]},"properties":{"province":"黑龙江省","city":"大庆市","county":"龙凤区","community":"龙凤街道龙华佳苑小区全域","full_address":"黑龙江省大庆市龙凤区龙凤街道龙华佳苑小区全域","info":""}},{"type":"Feature","geometry":{"type":"Point","coordinates":[125.095657,46.517587]},"properties":{"province":"黑龙江省","city":"大庆市","county":"龙凤区","community":"东光街道炼建小区全域","full_address":"黑龙江省大庆市龙凤区东光街道炼建小区全域","info":""}},{"type":"Feature","geometry":{"type":"Point","coordinates":[125.125311,46.525824]},"properties":{"province":"黑龙江省","city":"大庆市","county":"龙凤区","community":"龙凤街道龙滨苑小区全域","full_address":"黑龙江省大庆市龙凤区龙凤街道龙滨苑小区全域","info":""}},{"type":"Feature","geometry":{"type":"Point","coordinates":[125.13192,46.551731]},"properties":{"province":"黑龙江省","city":"大庆市","county":"龙凤区","community":"龙政街道东城领秀C区小区全域","full_address":"黑龙江省大庆市龙凤区龙政街道东城领秀C区小区全域","info":""}},{"type":"Feature","geometry":{"type":"Point","coordinates":[125.142019,46.557057]},"properties":{"province":"黑龙江省","city":"大庆市","county":"龙凤区","community":"龙政街道华溪龙城三期小区全域","full_address":"黑龙江省大庆市龙凤区龙政街道华溪龙城三期小区全域","info":""}},{"type":"Feature","geometry":{"type":"Point","coordinates":[125.147373,46.573558]},"properties":{"province":"黑龙江省","city":"大庆市","county":"龙凤区","community":"兴化街道乙烯五区小区全域","full_address":"黑龙江省大庆市龙凤区兴化街道乙烯五区小区全域","info":""}},{"type":"Feature","geometry":{"type":"Point","coordinates":[125.147373,46.573558]},"properties":{"province":"黑龙江省","city":"大庆市","county":"龙凤区","community":"兴化街道乙烯九区小区全域","full_address":"黑龙江省大庆市龙凤区兴化街道乙烯九区小区全域","info":""}},{"type":"Feature","geometry":{"type":"Point","coordinates":[125.212365,46.472128]},"properties":{"province":"黑龙江省","city":"大庆市","county":"龙凤区","community":"卧里屯街道筑安二委小区全域","full_address":"黑龙江省大庆市龙凤区卧里屯街道筑安二委小区全域","info":""}},{"type":"Feature","geometry":{"type":"Point","coordinates":[125.119822,46.529999]},"properties":{"province":"黑龙江省","city":"大庆市","county":"龙凤区","community":"卧里屯街道陆达商住楼小区全域","full_address":"黑龙江省大庆市龙凤区卧里屯街道陆达商住楼小区全域","info":""}},{"type":"Feature","geometry":{"type":"Point","coordinates":[125.124989,46.52345]},"properties":{"province":"黑龙江省","city":"大庆市","county":"龙凤区","community":"龙凤镇永泉佳苑小区全域","full_address":"黑龙江省大庆市龙凤区龙凤镇永泉佳苑小区全域","info":""}},{"type":"Feature","geometry":{"type":"Point","coordinates":[125.233883,46.462011]},"properties":{"province":"黑龙江省","city":"大庆市","county":"龙凤区","community":"龙凤镇英勇村全域","full_address":"黑龙江省大庆市龙凤区龙凤镇英勇村全域","info":""}},{"type":"Feature","geometry":{"type":"Point","coordinates":[124.892934,46.621343]},"properties":{"province":"黑龙江省","city":"大庆市","county":"龙凤区","community":"东光街道怡园小区全域","full_address":"黑龙江省大庆市龙凤区东光街道怡园小区全域","info":""}},{"type":"Feature","geometry":{"type":"Point","coordinates":[125.114822,46.531264]},"properties":{"province":"黑龙江省","city":"大庆市","county":"龙凤区","community":"龙凤镇湖韵新村小区全域","full_address":"黑龙江省大庆市龙凤区龙凤镇湖韵新村小区全域","info":""}},{"type":"Feature","geometry":{"type":"Point","coordinates":[125.086931,46.547934]},"properties":{"province":"黑龙江省","city":"大庆市","county":"龙凤区","community":"东光街道冠庆小区全域","full_address":"黑龙江省大庆市龙凤区东光街道冠庆小区全域","info":""}},{"type":"Feature","geometry":{"type":"Point","coordinates":[125.092566,46.541332]},"properties":{"province":"黑龙江省","city":"大庆市","county":"龙凤区","community":"东光街道龙北小区全域","full_address":"黑龙江省大庆市龙凤区东光街道龙北小区全域","info":""}},{"type":"Feature","geometry":{"type":"Point","coordinates":[125.115713,46.536134]},"properties":{"province":"黑龙江省","city":"大庆市","county":"龙凤区","community":"龙凤街道凤祥小区全域","full_address":"黑龙江省大庆市龙凤区龙凤街道凤祥小区全域","info":""}},{"type":"Feature","geometry":{"type":"Point","coordinates":[125.041044,46.513427]},"properties":{"province":"黑龙江省","city":"大庆市","county":"龙凤区","community":"光明园区内除高风险区域以外其他区域","full_address":"黑龙江省大庆市龙凤区光明园区内除高风险区域以外其他区域","info":""}},{"type":"Feature","geometry":{"type":"Point","coordinates":[125.09723,46.542562]},"properties":{"province":"黑龙江省","city":"大庆市","county":"龙凤区","community":"龙凤街道凤阳一区内除高风险区域以外其他区域","full_address":"黑龙江省大庆市龙凤区龙凤街道凤阳一区内除高风险区域以外其他区域","info":""}},{"type":"Feature","geometry":{"type":"Point","coordinates":[125.122163,46.526375]},"properties":{"province":"黑龙江省","city":"大庆市","county":"龙凤区","community":"龙凤街道建成小区内除高风险区域以外其他区域","full_address":"黑龙江省大庆市龙凤区龙凤街道建成小区内除高风险区域以外其他区域","info":""}},{"type":"Feature","geometry":{"type":"Point","coordinates":[125.108027,46.535235]},"properties":{"province":"黑龙江省","city":"大庆市","county":"龙凤区","community":"龙凤街道凤阳三区内除高风险区域以外其他区域","full_address":"黑龙江省大庆市龙凤区龙凤街道凤阳三区内除高风险区域以外其他区域","info":""}},{"type":"Feature","geometry":{"type":"Point","coordinates":[125.115138,46.548694]},"properties":{"province":"黑龙江省","city":"大庆市","county":"龙凤区","community":"三永街道御湖湾小区内除高风险区域以外其他区域","full_address":"黑龙江省大庆市龙凤区三永街道御湖湾小区内除高风险区域以外其他区域","info":""}},{"type":"Feature","geometry":{"type":"Point","coordinates":[125.141947,46.557775]},"properties":{"province":"黑龙江省","city":"大庆市","county":"龙凤区","community":"龙凤街道二物业小区全域","full_address":"黑龙江省大庆市龙凤区龙凤街道二物业小区全域","info":""}},{"type":"Feature","geometry":{"type":"Point","coordinates":[125.117977,46.534987]},"properties":{"province":"黑龙江省","city":"大庆市","county":"龙凤区","community":"龙凤街道铁路小区全域","full_address":"黑龙江省大庆市龙凤区龙凤街道铁路小区全域","info":""}},{"type":"Feature","geometry":{"type":"Point","coordinates":[125.12049,46.531206]},"properties":{"province":"黑龙江省","city":"大庆市","county":"龙凤区","community":"龙凤街道建安小区全域","full_address":"黑龙江省大庆市龙凤区龙凤街道建安小区全域","info":""}},{"type":"Feature","geometry":{"type":"Point","coordinates":[125.120132,46.52892]},"properties":{"province":"黑龙江省","city":"大庆市","county":"龙凤区","community":"龙凤街道龙安新苑小区全域","full_address":"黑龙江省大庆市龙凤区龙凤街道龙安新苑小区全域","info":""}},{"type":"Feature","geometry":{"type":"Point","coordinates":[125.077147,46.512851]},"properties":{"province":"黑龙江省","city":"大庆市","county":"龙凤区","community":"东光街道沁园小区全域","full_address":"黑龙江省大庆市龙凤区东光街道沁园小区全域","info":""}},{"type":"Feature","geometry":{"type":"Point","coordinates":[125.037014,46.512401]},"properties":{"province":"黑龙江省","city":"大庆市","county":"龙凤区","community":"东光街道光明小区全域","full_address":"黑龙江省大庆市龙凤区东光街道光明小区全域","info":""}},{"type":"Feature","geometry":{"type":"Point","coordinates":[125.113178,46.533183]},"properties":{"province":"黑龙江省","city":"大庆市","county":"龙凤区","community":"龙凤街道热电一村小区全域","full_address":"黑龙江省大庆市龙凤区龙凤街道热电一村小区全域","info":""}},{"type":"Feature","geometry":{"type":"Point","coordinates":[125.12049,46.531206]},"properties":{"province":"黑龙江省","city":"大庆市","county":"龙凤区","community":"龙凤街道龙化小区全域","full_address":"黑龙江省大庆市龙凤区龙凤街道龙化小区全域","info":""}},{"type":"Feature","geometry":{"type":"Point","coordinates":[125.108201,46.5249]},"properties":{"province":"黑龙江省","city":"大庆市","county":"龙凤区","community":"龙凤街道万隆家园小区全域","full_address":"黑龙江省大庆市龙凤区龙凤街道万隆家园小区全域","info":""}},{"type":"Feature","geometry":{"type":"Point","coordinates":[125.117326,46.522197]},"properties":{"province":"黑龙江省","city":"大庆市","county":"龙凤区","community":"龙凤街道大家乐小区全域","full_address":"黑龙江省大庆市龙凤区龙凤街道大家乐小区全域","info":""}},{"type":"Feature","geometry":{"type":"Point","coordinates":[125.124989,46.52345]},"properties":{"province":"黑龙江省","city":"大庆市","county":"龙凤区","community":"龙凤街道龙凤佳苑小区全域","full_address":"黑龙江省大庆市龙凤区龙凤街道龙凤佳苑小区全域","info":""}},{"type":"Feature","geometry":{"type":"Point","coordinates":[125.131705,46.523667]},"properties":{"province":"黑龙江省","city":"大庆市","county":"龙凤区","community":"龙凤街道吉祥馨苑小区全域","full_address":"黑龙江省大庆市龙凤区龙凤街道吉祥馨苑小区全域","info":""}},{"type":"Feature","geometry":{"type":"Point","coordinates":[125.143826,46.541136]},"properties":{"province":"黑龙江省","city":"大庆市","county":"龙凤区","community":"湿地街道恒大绿洲小区全域","full_address":"黑龙江省大庆市龙凤区湿地街道恒大绿洲小区全域","info":""}},{"type":"Feature","geometry":{"type":"Point","coordinates":[125.168386,46.545918]},"properties":{"province":"黑龙江省","city":"大庆市","county":"龙凤区","community":"湿地街道居然花园小区全域","full_address":"黑龙江省大庆市龙凤区湿地街道居然花园小区全域","info":""}},{"type":"Feature","geometry":{"type":"Point","coordinates":[125.121671,46.532166]},"properties":{"province":"黑龙江省","city":"大庆市","county":"龙凤区","community":"龙凤街道龙祥小区全域","full_address":"黑龙江省大庆市龙凤区龙凤街道龙祥小区全域","info":""}},{"type":"Feature","geometry":{"type":"Point","coordinates":[125.138014,46.5607]},"properties":{"province":"黑龙江省","city":"大庆市","county":"龙凤区","community":"龙政街道华溪龙城二期小区全域","full_address":"黑龙江省大庆市龙凤区龙政街道华溪龙城二期小区全域","info":""}},{"type":"Feature","geometry":{"type":"Point","coordinates":[125.114015,46.519621]},"properties":{"province":"黑龙江省","city":"大庆市","county":"龙凤区","community":"龙凤镇中心小学全域","full_address":"黑龙江省大庆市龙凤区龙凤镇中心小学全域","info":""}},{"type":"Feature","geometry":{"type":"Point","coordinates":[125.160122,46.548026]},"properties":{"province":"黑龙江省","city":"大庆市","county":"龙凤区","community":"湿地街道欣凤学城一期全域","full_address":"黑龙江省大庆市龙凤区湿地街道欣凤学城一期全域","info":""}},{"type":"Feature","geometry":{"type":"Point","coordinates":[125.152298,46.552874]},"properties":{"province":"黑龙江省","city":"大庆市","county":"龙凤区","community":"龙政街道云水清园全域","full_address":"黑龙江省大庆市龙凤区龙政街道云水清园全域","info":""}},{"type":"Feature","geometry":{"type":"Point","coordinates":[125.111948,46.529326]},"properties":{"province":"黑龙江省","city":"大庆市","county":"龙凤区","community":"龙凤街道厂前16栋小区全域","full_address":"黑龙江省大庆市龙凤区龙凤街道厂前16栋小区全域","info":""}},{"type":"Feature","geometry":{"type":"Point","coordinates":[125.113822,46.530627]},"properties":{"province":"黑龙江省","city":"大庆市","county":"龙凤区","community":"龙凤街道厂前小区全域","full_address":"黑龙江省大庆市龙凤区龙凤街道厂前小区全域","info":""}},{"type":"Feature","geometry":{"type":"Point","coordinates":[125.064681,46.56098]},"properties":{"province":"黑龙江省","city":"大庆市","county":"龙凤区","community":"东光街道东光小区全域","full_address":"黑龙江省大庆市龙凤区东光街道东光小区全域","info":""}},{"type":"Feature","geometry":{"type":"Point","coordinates":[125.064681,46.56098]},"properties":{"province":"黑龙江省","city":"大庆市","county":"龙凤区","community":"东光街道东光小区对面第二毛纺厂厂区全域","full_address":"黑龙江省大庆市龙凤区东光街道东光小区对面第二毛纺厂厂区全域","info":""}},{"type":"Feature","geometry":{"type":"Point","coordinates":[125.131112,46.586689]},"properties":{"province":"黑龙江省","city":"大庆市","county":"龙凤区","community":"三永街道瀚城景苑小区全域","full_address":"黑龙江省大庆市龙凤区三永街道瀚城景苑小区全域","info":""}},{"type":"Feature","geometry":{"type":"Point","coordinates":[124.894798,46.571456]},"properties":{"province":"黑龙江省","city":"大庆市","county":"让胡路区","community":"东湖街道东湖小区11区内除高风险区域以外其他区域","full_address":"黑龙江省大庆市让胡路区东湖街道东湖小区11区内除高风险区域以外其他区域","info":""}},{"type":"Feature","geometry":{"type":"Point","coordinates":[124.894798,46.571456]},"properties":{"province":"黑龙江省","city":"大庆市","county":"让胡路区","community":"东湖街道东湖小区8区内除高风险区域以外其他区域","full_address":"黑龙江省大庆市让胡路区东湖街道东湖小区8区内除高风险区域以外其他区域","info":""}},{"type":"Feature","geometry":{"type":"Point","coordinates":[124.891245,46.603198]},"properties":{"province":"黑龙江省","city":"大庆市","county":"让胡路区","community":"西宾街道银亿阳光城A区内除高风险区域以外其他区域","full_address":"黑龙江省大庆市让胡路区西宾街道银亿阳光城A区内除高风险区域以外其他区域","info":""}},{"type":"Feature","geometry":{"type":"Point","coordinates":[124.877877,46.665027]},"properties":{"province":"黑龙江省","city":"大庆市","county":"让胡路区","community":"北湖街道北湖馨苑小区30号楼","full_address":"黑龙江省大庆市让胡路区北湖街道北湖馨苑小区30号楼","info":""}},{"type":"Feature","geometry":{"type":"Point","coordinates":[124.881702,46.613341]},"properties":{"province":"黑龙江省","city":"大庆市","county":"让胡路区","community":"西宾街道远望大街72号楼栋","full_address":"黑龙江省大庆市让胡路区西宾街道远望大街72号楼栋","info":""}},{"type":"Feature","geometry":{"type":"Point","coordinates":[127.493629,50.2458]},"properties":{"province":"黑龙江省","city":"黑河市","county":"爱辉区","community":"兴安街道金融社区兴林家园小区区林业2号楼","full_address":"黑龙江省黑河市爱辉区兴安街道金融社区兴林家园小区区林业2号楼","info":""}},{"type":"Feature","geometry":{"type":"Point","coordinates":[127.507225,50.245307]},"properties":{"province":"黑龙江省","city":"黑河市","county":"爱辉区","community":"黑河市第六小学教学楼","full_address":"黑龙江省黑河市爱辉区黑河市第六小学教学楼","info":""}},{"type":"Feature","geometry":{"type":"Point","coordinates":[127.516792,50.235275]},"properties":{"province":"黑龙江省","city":"黑河市","county":"爱辉区","community":"警苑小区2号楼附属门市、警苑小区1号楼、警苑小区1号楼附属门市","full_address":"黑龙江省黑河市爱辉区警苑小区2号楼附属门市、警苑小区1号楼、警苑小区1号楼附属门市","info":""}},{"type":"Feature","geometry":{"type":"Point","coordinates":[127.524507,50.235899]},"properties":{"province":"黑龙江省","city":"黑河市","county":"爱辉区","community":"花园街道博文社区亮城家园小区除七号楼以外楼宇(含小区邻街门市)","full_address":"黑龙江省黑河市爱辉区花园街道博文社区亮城家园小区除七号楼以外楼宇(含小区邻街门市)","info":""}},{"type":"Feature","geometry":{"type":"Point","coordinates":[127.519015,50.229901]},"properties":{"province":"黑龙江省","city":"黑河市","county":"爱辉区","community":"花园街道喇嘛台社区信誉花园小区三期(不含16号楼)及邻街门市","full_address":"黑龙江省黑河市爱辉区花园街道喇嘛台社区信誉花园小区三期(不含16号楼)及邻街门市","info":""}},{"type":"Feature","geometry":{"type":"Point","coordinates":[127.514624,50.244979]},"properties":{"province":"黑龙江省","city":"黑河市","county":"爱辉区","community":"花园街道金兰社区友谊嘉苑高层(不含3单元)及附属门市","full_address":"黑龙江省黑河市爱辉区花园街道金兰社区友谊嘉苑高层(不含3单元)及附属门市","info":""}},{"type":"Feature","geometry":{"type":"Point","coordinates":[127.515289,50.245983]},"properties":{"province":"黑龙江省","city":"黑河市","county":"爱辉区","community":"花园街道金兰社区友谊嘉苑9号楼及附属门市","full_address":"黑龙江省黑河市爱辉区花园街道金兰社区友谊嘉苑9号楼及附属门市","info":""}},{"type":"Feature","geometry":{"type":"Point","coordinates":[127.515434,50.245218]},"properties":{"province":"黑龙江省","city":"黑河市","county":"爱辉区","community":"花园街道金兰社区友谊嘉苑6号楼B座","full_address":"黑龙江省黑河市爱辉区花园街道金兰社区友谊嘉苑6号楼B座","info":""}},{"type":"Feature","geometry":{"type":"Point","coordinates":[126.507392,48.240573]},"properties":{"province":"黑龙江省","city":"黑河市","county":"爱辉区","community":"花园街道武庙屯社区水务移动小区水务1号楼及附属门市","full_address":"黑龙江省黑河市爱辉区花园街道武庙屯社区水务移动小区水务1号楼及附属门市","info":""}},{"type":"Feature","geometry":{"type":"Point","coordinates":[126.507392,48.240573]},"properties":{"province":"黑龙江省","city":"黑河市","county":"爱辉区","community":"花园街道武庙屯社区水务移动小区移动楼及附属门市","full_address":"黑龙江省黑河市爱辉区花园街道武庙屯社区水务移动小区移动楼及附属门市","info":""}},{"type":"Feature","geometry":{"type":"Point","coordinates":[125.336662,46.414936]},"properties":{"province":"黑龙江省","city":"绥化市","county":"安达市","community":"牛都名苑小区8号楼4单元","full_address":"黑龙江省绥化市安达市牛都名苑小区8号楼4单元","info":""}},{"type":"Feature","geometry":{"type":"Point","coordinates":[125.325346,46.415991]},"properties":{"province":"黑龙江省","city":"绥化市","county":"安达市","community":"滨东华府小区B区5号楼10号商服陈家放心肉店","full_address":"黑龙江省绥化市安达市滨东华府小区B区5号楼10号商服陈家放心肉店","info":""}},{"type":"Feature","geometry":{"type":"Point","coordinates":[125.352968,46.415411]},"properties":{"province":"黑龙江省","city":"绥化市","county":"安达市","community":"生态小镇小区6号楼1单元","full_address":"黑龙江省绥化市安达市生态小镇小区6号楼1单元","info":""}},{"type":"Feature","geometry":{"type":"Point","coordinates":[125.349291,46.413016]},"properties":{"province":"黑龙江省","city":"绥化市","county":"安达市","community":"福和城小区20号楼5单元","full_address":"黑龙江省绥化市安达市福和城小区20号楼5单元","info":""}},{"type":"Feature","geometry":{"type":"Point","coordinates":[125.371551,46.403182]},"properties":{"province":"黑龙江省","city":"绥化市","county":"安达市","community":"十一道街天聪驾校南孙某某经营生猪暂存点","full_address":"黑龙江省绥化市安达市十一道街天聪驾校南孙某某经营生猪暂存点","info":""}},{"type":"Feature","geometry":{"type":"Point","coordinates":[125.329339,46.412945]},"properties":{"province":"黑龙江省","city":"绥化市","county":"安达市","community":"现代华庭一期2号楼4单元","full_address":"黑龙江省绥化市安达市现代华庭一期2号楼4单元","info":""}},{"type":"Feature","geometry":{"type":"Point","coordinates":[125.340519,46.418337]},"properties":{"province":"黑龙江省","city":"绥化市","county":"安达市","community":"升平小区9号楼4单元","full_address":"黑龙江省绥化市安达市升平小区9号楼4单元","info":""}},{"type":"Feature","geometry":{"type":"Point","coordinates":[125.366478,46.408398]},"properties":{"province":"黑龙江省","city":"绥化市","county":"安达市","community":"安达镇繁荣村吉利屯生猪存放点","full_address":"黑龙江省绥化市安达市安达镇繁荣村吉利屯生猪存放点","info":""}},{"type":"Feature","geometry":{"type":"Point","coordinates":[125.327438,46.414583]},"properties":{"province":"黑龙江省","city":"绥化市","county":"安达市","community":"格林嘉园小区7号楼2单元","full_address":"黑龙江省绥化市安达市格林嘉园小区7号楼2单元","info":""}},{"type":"Feature","geometry":{"type":"Point","coordinates":[125.329918,46.403849]},"properties":{"province":"黑龙江省","city":"绥化市","county":"安达市","community":"卧里屯镇瑞德家园小区5号楼2单元","full_address":"黑龙江省绥化市安达市卧里屯镇瑞德家园小区5号楼2单元","info":""}},{"type":"Feature","geometry":{"type":"Point","coordinates":[121.458184,31.259443]},"properties":{"province":"上海市","city":"上海市","county":"静安区","community":"芷江西路街道中山北路814弄","full_address":"上海市上海市静安区芷江西路街道中山北路814弄","info":""}},{"type":"Feature","geometry":{"type":"Point","coordinates":[121.438949,31.258117]},"properties":{"province":"上海市","city":"上海市","county":"普陀区","community":"宜川路街道交通路1913弄1-10号、15-18号","full_address":"上海市上海市普陀区宜川路街道交通路1913弄1-10号、15-18号","info":""}},{"type":"Feature","geometry":{"type":"Point","coordinates":[118.834036,32.111012]},"properties":{"province":"江苏省","city":"南京市","county":"栖霞区","community":"迈皋桥街道郑远元修脚房连锁加盟店（迈皋桥街道合作村92-60-112号）","full_address":"江苏省南京市栖霞区迈皋桥街道郑远元修脚房连锁加盟店（迈皋桥街道合作村92-60-112号）","info":""}},{"type":"Feature","geometry":{"type":"Point","coordinates":[118.089394,24.444733]},"properties":{"province":"福建省","city":"厦门市","county":"思明区","community":"厦港街道巡司顶社区部分区域（厦港新村11、13、15、17、19、21、23、25、27、29、31、33、35、37、39、41号、厦港新村5-1号；巡司顶巷1、23、25号；巡司顶巷4-2、4-4、4-5、4-6、4-7、4-8、4-10、4-11号；巡司顶巷6号（海龙小区）；巡司顶巷10、12、6-1、6-2、6-3、6-4号；思明南路483、485、487号；巡司顶巷3、5、7、9、16号；永福宫巷1、3、5、7、9、10、11、12、13、15、17、19、21、23、25、27号；思明南路479号；巡司顶巷16-1、16-2、16-3、16-4、16-5号）","full_address":"福建省厦门市思明区厦港街道巡司顶社区部分区域（厦港新村11、13、15、17、19、21、23、25、27、29、31、33、35、37、39、41号、厦港新村5-1号；巡司顶巷1、23、25号；巡司顶巷4-2、4-4、4-5、4-6、4-7、4-8、4-10、4-11号；巡司顶巷6号（海龙小区）；巡司顶巷10、12、6-1、6-2、6-3、6-4号；思明南路483、485、487号；巡司顶巷3、5、7、9、16号；永福宫巷1、3、5、7、9、10、11、12、13、15、17、19、21、23、25、27号；思明南路479号；巡司顶巷16-1、16-2、16-3、16-4、16-5号）","info":""}},{"type":"Feature","geometry":{"type":"Point","coordinates":[118.083627,24.47751]},"properties":{"province":"福建省","city":"厦门市","county":"思明区","community":"湖滨北路28号建业大厦1-2层裙楼潮福城大酒楼","full_address":"福建省厦门市思明区湖滨北路28号建业大厦1-2层裙楼潮福城大酒楼","info":""}},{"type":"Feature","geometry":{"type":"Point","coordinates":[117.060903,28.263315]},"properties":{"province":"江西省","city":"鹰潭市","county":"月湖区","community":"梅园街道晨宇云轩小区二栋","full_address":"江西省鹰潭市月湖区梅园街道晨宇云轩小区二栋","info":""}},{"type":"Feature","geometry":{"type":"Point","coordinates":[116.828912,28.187984]},"properties":{"province":"江西省","city":"鹰潭市","county":"余江区","community":"邓埠街道磨仂洲5号院","full_address":"江西省鹰潭市余江区邓埠街道磨仂洲5号院","info":""}},{"type":"Feature","geometry":{"type":"Point","coordinates":[117.050147,28.261363]},"properties":{"province":"江西省","city":"鹰潭市","county":"信江新区","community":"夏埠乡滨江社区恒大绿洲二期26栋三单元","full_address":"江西省鹰潭市信江新区夏埠乡滨江社区恒大绿洲二期26栋三单元","info":""}},{"type":"Feature","geometry":{"type":"Point","coordinates":[117.050147,28.261363]},"properties":{"province":"江西省","city":"鹰潭市","county":"信江新区","community":"夏埠乡滨江社区恒大绿洲二期22栋一单元","full_address":"江西省鹰潭市信江新区夏埠乡滨江社区恒大绿洲二期22栋一单元","info":""}},{"type":"Feature","geometry":{"type":"Point","coordinates":[117.050355,28.262199]},"properties":{"province":"江西省","city":"鹰潭市","county":"信江新区","community":"夏埠乡滨江社区恒大绿洲学府里1栋","full_address":"江西省鹰潭市信江新区夏埠乡滨江社区恒大绿洲学府里1栋","info":""}},{"type":"Feature","geometry":{"type":"Point","coordinates":[116.020279,26.471363]},"properties":{"province":"江西省","city":"赣州市","county":"宁都县","community":"梅江镇老学坪（新菜市场）","full_address":"江西省赣州市宁都县梅江镇老学坪（新菜市场）","info":""}},{"type":"Feature","geometry":{"type":"Point","coordinates":[116.013621,26.470996]},"properties":{"province":"江西省","city":"赣州市","county":"宁都县","community":"京豪宾馆","full_address":"江西省赣州市宁都县京豪宾馆","info":""}},{"type":"Feature","geometry":{"type":"Point","coordinates":[116.005394,26.485254]},"properties":{"province":"江西省","city":"赣州市","county":"宁都县","community":"易堂学校","full_address":"江西省赣州市宁都县易堂学校","info":""}},{"type":"Feature","geometry":{"type":"Point","coordinates":[116.013621,26.470996]},"properties":{"province":"江西省","city":"赣州市","county":"宁都县","community":"兴达米业","full_address":"江西省赣州市宁都县兴达米业","info":""}},{"type":"Feature","geometry":{"type":"Point","coordinates":[116.025288,26.460853]},"properties":{"province":"江西省","city":"赣州市","county":"宁都县","community":"新庄村卫生室","full_address":"江西省赣州市宁都县新庄村卫生室","info":""}},{"type":"Feature","geometry":{"type":"Point","coordinates":[116.024834,26.460821]},"properties":{"province":"江西省","city":"赣州市","county":"宁都县","community":"新庄菜市场","full_address":"江西省赣州市宁都县新庄菜市场","info":""}},{"type":"Feature","geometry":{"type":"Point","coordinates":[116.007824,26.466785]},"properties":{"province":"江西省","city":"赣州市","county":"宁都县","community":"香江国际","full_address":"江西省赣州市宁都县香江国际","info":""}},{"type":"Feature","geometry":{"type":"Point","coordinates":[116.007681,26.44105]},"properties":{"province":"江西省","city":"赣州市","county":"宁都县","community":"体育馆","full_address":"江西省赣州市宁都县体育馆","info":""}},{"type":"Feature","geometry":{"type":"Point","coordinates":[116.020003,26.469182]},"properties":{"province":"江西省","city":"赣州市","county":"宁都县","community":"宁师附小","full_address":"江西省赣州市宁都县宁师附小","info":""}},{"type":"Feature","geometry":{"type":"Point","coordinates":[116.345367,26.339736]},"properties":{"province":"江西省","city":"赣州市","county":"宁都县","community":"宁都二中","full_address":"江西省赣州市宁都县宁都二中","info":""}},{"type":"Feature","geometry":{"type":"Point","coordinates":[116.000093,26.49097]},"properties":{"province":"江西省","city":"赣州市","county":"宁都县","community":"梅江镇中梁江都府","full_address":"江西省赣州市宁都县梅江镇中梁江都府","info":""}},{"type":"Feature","geometry":{"type":"Point","coordinates":[116.021965,26.468166]},"properties":{"province":"江西省","city":"赣州市","county":"宁都县","community":"梅江镇三环北路巴罗娜酒庄","full_address":"江西省赣州市宁都县梅江镇三环北路巴罗娜酒庄","info":""}},{"type":"Feature","geometry":{"type":"Point","coordinates":[116.015767,26.474079]},"properties":{"province":"江西省","city":"赣州市","county":"宁都县","community":"梅江镇名门家苑","full_address":"江西省赣州市宁都县梅江镇名门家苑","info":""}},{"type":"Feature","geometry":{"type":"Point","coordinates":[116.019877,26.472049]},"properties":{"province":"江西省","city":"赣州市","county":"宁都县","community":"梅江镇美食街","full_address":"江西省赣州市宁都县梅江镇美食街","info":""}},{"type":"Feature","geometry":{"type":"Point","coordinates":[116.00655,26.470614]},"properties":{"province":"江西省","city":"赣州市","county":"宁都县","community":"梅江镇凌云菜市场","full_address":"江西省赣州市宁都县梅江镇凌云菜市场","info":""}},{"type":"Feature","geometry":{"type":"Point","coordinates":[116.01575,26.476751]},"properties":{"province":"江西省","city":"赣州市","county":"宁都县","community":"梅江镇红山岭小区","full_address":"江西省赣州市宁都县梅江镇红山岭小区","info":""}},{"type":"Feature","geometry":{"type":"Point","coordinates":[116.009322,26.480066]},"properties":{"province":"江西省","city":"赣州市","county":"宁都县","community":"梅江镇第五幼儿园","full_address":"江西省赣州市宁都县梅江镇第五幼儿园","info":""}},{"type":"Feature","geometry":{"type":"Point","coordinates":[116.007282,26.486927]},"properties":{"province":"江西省","city":"赣州市","county":"宁都县","community":"梅江镇背村","full_address":"江西省赣州市宁都县梅江镇背村","info":""}},{"type":"Feature","geometry":{"type":"Point","coordinates":[116.02247,26.485235]},"properties":{"province":"江西省","city":"赣州市","county":"宁都县","community":"梅江镇北门村熊屋山","full_address":"江西省赣州市宁都县梅江镇北门村熊屋山","info":""}},{"type":"Feature","geometry":{"type":"Point","coordinates":[116.00606,26.50084]},"properties":{"province":"江西省","city":"赣州市","county":"宁都县","community":"梅江迳口完小","full_address":"江西省赣州市宁都县梅江迳口完小","info":""}},{"type":"Feature","geometry":{"type":"Point","coordinates":[116.012588,26.463255]},"properties":{"province":"江西省","city":"赣州市","county":"宁都县","community":"京都豪庭","full_address":"江西省赣州市宁都县京都豪庭","info":""}},{"type":"Feature","geometry":{"type":"Point","coordinates":[116.025577,26.467202]},"properties":{"province":"江西省","city":"赣州市","county":"宁都县","community":"河东中学","full_address":"江西省赣州市宁都县河东中学","info":""}},{"type":"Feature","geometry":{"type":"Point","coordinates":[116.013693,26.458571]},"properties":{"province":"江西省","city":"赣州市","county":"宁都县","community":"梅江镇新庄华夏农业公司后门月生排","full_address":"江西省赣州市宁都县梅江镇新庄华夏农业公司后门月生排","info":""}},{"type":"Feature","geometry":{"type":"Point","coordinates":[116.018002,26.465872]},"properties":{"province":"江西省","city":"赣州市","county":"宁都县","community":"梅江镇城南二路","full_address":"江西省赣州市宁都县梅江镇城南二路","info":""}},{"type":"Feature","geometry":{"type":"Point","coordinates":[114.907075,25.847726]},"properties":{"province":"江西省","city":"赣州市","county":"经开区","community":"锦绣星城小区","full_address":"江西省赣州市经开区锦绣星城小区","info":""}},{"type":"Feature","geometry":{"type":"Point","coordinates":[114.905292,25.847489]},"properties":{"province":"江西省","city":"赣州市","county":"经开区","community":"锦绣星城嘉苑小区","full_address":"江西省赣州市经开区锦绣星城嘉苑小区","info":""}},{"type":"Feature","geometry":{"type":"Point","coordinates":[114.90277,25.830053]},"properties":{"province":"江西省","city":"赣州市","county":"经开区","community":"台湾城小区","full_address":"江西省赣州市经开区台湾城小区","info":""}},{"type":"Feature","geometry":{"type":"Point","coordinates":[114.907832,25.839977]},"properties":{"province":"江西省","city":"赣州市","county":"经开区","community":"七一九社区南区","full_address":"江西省赣州市经开区七一九社区南区","info":""}},{"type":"Feature","geometry":{"type":"Point","coordinates":[114.904804,25.838071]},"properties":{"province":"江西省","city":"赣州市","county":"经开区","community":"景荣嘉苑小区","full_address":"江西省赣州市经开区景荣嘉苑小区","info":""}},{"type":"Feature","geometry":{"type":"Point","coordinates":[114.903072,25.850489]},"properties":{"province":"江西省","city":"赣州市","county":"经开区","community":"水韵嘉城C区","full_address":"江西省赣州市经开区水韵嘉城C区","info":""}},{"type":"Feature","geometry":{"type":"Point","coordinates":[114.89908,25.858315]},"properties":{"province":"江西省","city":"赣州市","county":"经开区","community":"杨梅新村","full_address":"江西省赣州市经开区杨梅新村","info":""}},{"type":"Feature","geometry":{"type":"Point","coordinates":[114.899169,25.832587]},"properties":{"province":"江西省","city":"赣州市","county":"经开区","community":"金星新村","full_address":"江西省赣州市经开区金星新村","info":""}},{"type":"Feature","geometry":{"type":"Point","coordinates":[114.981546,25.826862]},"properties":{"province":"江西省","city":"赣州市","county":"经开区","community":"田心新村西区","full_address":"江西省赣州市经开区田心新村西区","info":""}},{"type":"Feature","geometry":{"type":"Point","coordinates":[115.434183,27.31576]},"properties":{"province":"江西省","city":"吉安市","county":"永丰县","community":"永丰县人民医院","full_address":"江西省吉安市永丰县永丰县人民医院","info":""}},{"type":"Feature","geometry":{"type":"Point","coordinates":[115.415104,27.321707]},"properties":{"province":"江西省","city":"吉安市","county":"永丰县","community":"恩江镇国际都会","full_address":"江西省吉安市永丰县恩江镇国际都会","info":""}},{"type":"Feature","geometry":{"type":"Point","coordinates":[115.433178,27.318042]},"properties":{"province":"江西省","city":"吉安市","county":"永丰县","community":"恩江镇中南海爱好文具总店","full_address":"江西省吉安市永丰县恩江镇中南海爱好文具总店","info":""}},{"type":"Feature","geometry":{"type":"Point","coordinates":[115.435283,27.31894]},"properties":{"province":"江西省","city":"吉安市","county":"永丰县","community":"恩江镇五交童衣世界","full_address":"江西省吉安市永丰县恩江镇五交童衣世界","info":""}},{"type":"Feature","geometry":{"type":"Point","coordinates":[115.435037,27.313966]},"properties":{"province":"江西省","city":"吉安市","county":"永丰县","community":"恩江镇状元华府全聚福中式快餐店","full_address":"江西省吉安市永丰县恩江镇状元华府全聚福中式快餐店","info":""}},{"type":"Feature","geometry":{"type":"Point","coordinates":[115.452717,27.301133]},"properties":{"province":"江西省","city":"吉安市","county":"永丰县","community":"恩江镇卫生院","full_address":"江西省吉安市永丰县恩江镇卫生院","info":""}},{"type":"Feature","geometry":{"type":"Point","coordinates":[115.420312,27.321229]},"properties":{"province":"江西省","city":"吉安市","county":"永丰县","community":"恩江镇花园村水陂头新村B栋屯田小燕餐馆","full_address":"江西省吉安市永丰县恩江镇花园村水陂头新村B栋屯田小燕餐馆","info":""}},{"type":"Feature","geometry":{"type":"Point","coordinates":[115.441889,27.288578]},"properties":{"province":"江西省","city":"吉安市","county":"永丰县","community":"恩江镇桥南贯岭百佳超市","full_address":"江西省吉安市永丰县恩江镇桥南贯岭百佳超市","info":""}},{"type":"Feature","geometry":{"type":"Point","coordinates":[115.744466,26.991108]},"properties":{"province":"江西省","city":"吉安市","county":"永丰县","community":"恩江镇希望苑小区","full_address":"江西省吉安市永丰县恩江镇希望苑小区","info":""}},{"type":"Feature","geometry":{"type":"Point","coordinates":[115.599319,26.891566]},"properties":{"province":"江西省","city":"吉安市","county":"永丰县","community":"恩江镇相聚阁大酒店","full_address":"江西省吉安市永丰县恩江镇相聚阁大酒店","info":""}},{"type":"Feature","geometry":{"type":"Point","coordinates":[115.43469,27.320895]},"properties":{"province":"江西省","city":"吉安市","county":"永丰县","community":"恩江镇国光超市","full_address":"江西省吉安市永丰县恩江镇国光超市","info":""}},{"type":"Feature","geometry":{"type":"Point","coordinates":[115.430904,27.328463]},"properties":{"province":"江西省","city":"吉安市","county":"永丰县","community":"恩江镇万尚和景壹号院","full_address":"江西省吉安市永丰县恩江镇万尚和景壹号院","info":""}},{"type":"Feature","geometry":{"type":"Point","coordinates":[115.427718,27.319366]},"properties":{"province":"江西省","city":"吉安市","county":"永丰县","community":"恩江镇永丰欧阳修大道联通营业厅","full_address":"江西省吉安市永丰县恩江镇永丰欧阳修大道联通营业厅","info":""}},{"type":"Feature","geometry":{"type":"Point","coordinates":[115.429942,27.314584]},"properties":{"province":"江西省","city":"吉安市","county":"永丰县","community":"恩江镇万尚大酒店","full_address":"江西省吉安市永丰县恩江镇万尚大酒店","info":""}},{"type":"Feature","geometry":{"type":"Point","coordinates":[115.43845,27.317192]},"properties":{"province":"江西省","city":"吉安市","county":"永丰县","community":"恩江镇永丰县妇幼保健院","full_address":"江西省吉安市永丰县恩江镇永丰县妇幼保健院","info":""}},{"type":"Feature","geometry":{"type":"Point","coordinates":[115.430904,27.328463]},"properties":{"province":"江西省","city":"吉安市","county":"永丰县","community":"恩江镇永丰县亚马逊自助餐","full_address":"江西省吉安市永丰县恩江镇永丰县亚马逊自助餐","info":""}},{"type":"Feature","geometry":{"type":"Point","coordinates":[115.429961,27.309651]},"properties":{"province":"江西省","city":"吉安市","county":"永丰县","community":"恩江镇万尚坎上坎火锅店","full_address":"江西省吉安市永丰县恩江镇万尚坎上坎火锅店","info":""}},{"type":"Feature","geometry":{"type":"Point","coordinates":[115.424689,27.318284]},"properties":{"province":"江西省","city":"吉安市","county":"永丰县","community":"恩江镇人社局旁好永福早餐店","full_address":"江西省吉安市永丰县恩江镇人社局旁好永福早餐店","info":""}},{"type":"Feature","geometry":{"type":"Point","coordinates":[115.426289,27.323855]},"properties":{"province":"江西省","city":"吉安市","county":"永丰县","community":"恩江镇实验学校正大门对面麻辣烫店","full_address":"江西省吉安市永丰县恩江镇实验学校正大门对面麻辣烫店","info":""}},{"type":"Feature","geometry":{"type":"Point","coordinates":[115.420041,27.284539]},"properties":{"province":"江西省","city":"吉安市","county":"永丰县","community":"恩江镇岭上村礼堂","full_address":"江西省吉安市永丰县恩江镇岭上村礼堂","info":""}},{"type":"Feature","geometry":{"type":"Point","coordinates":[115.430904,27.328463]},"properties":{"province":"江西省","city":"吉安市","county":"永丰县","community":"恩江镇万尚广场","full_address":"江西省吉安市永丰县恩江镇万尚广场","info":""}},{"type":"Feature","geometry":{"type":"Point","coordinates":[115.430904,27.328463]},"properties":{"province":"江西省","city":"吉安市","county":"永丰县","community":"恩江镇豪德亨牛排店","full_address":"江西省吉安市永丰县恩江镇豪德亨牛排店","info":""}},{"type":"Feature","geometry":{"type":"Point","coordinates":[115.427622,27.313726]},"properties":{"province":"江西省","city":"吉安市","county":"永丰县","community":"恩江镇全民健身中心旁大金空调店","full_address":"江西省吉安市永丰县恩江镇全民健身中心旁大金空调店","info":""}},{"type":"Feature","geometry":{"type":"Point","coordinates":[115.430904,27.328463]},"properties":{"province":"江西省","city":"吉安市","county":"永丰县","community":"恩江镇尹家坪菜市场","full_address":"江西省吉安市永丰县恩江镇尹家坪菜市场","info":""}},{"type":"Feature","geometry":{"type":"Point","coordinates":[115.433566,27.323948]},"properties":{"province":"江西省","city":"吉安市","county":"永丰县","community":"恩江镇跃进西路哈喽宝贝店","full_address":"江西省吉安市永丰县恩江镇跃进西路哈喽宝贝店","info":""}},{"type":"Feature","geometry":{"type":"Point","coordinates":[115.431984,27.320814]},"properties":{"province":"江西省","city":"吉安市","county":"永丰县","community":"恩江镇开吉社区隔壁南昌瓦罐汤店","full_address":"江西省吉安市永丰县恩江镇开吉社区隔壁南昌瓦罐汤店","info":""}},{"type":"Feature","geometry":{"type":"Point","coordinates":[115.424006,27.322981]},"properties":{"province":"江西省","city":"吉安市","county":"永丰县","community":"恩江镇尹家坪农贸市场后面早阳餐早餐店","full_address":"江西省吉安市永丰县恩江镇尹家坪农贸市场后面早阳餐早餐店","info":""}},{"type":"Feature","geometry":{"type":"Point","coordinates":[115.430904,27.328463]},"properties":{"province":"江西省","city":"吉安市","county":"永丰县","community":"恩江镇花园小区A栋7单元金秀茶馆","full_address":"江西省吉安市永丰县恩江镇花园小区A栋7单元金秀茶馆","info":""}},{"type":"Feature","geometry":{"type":"Point","coordinates":[115.430904,27.328463]},"properties":{"province":"江西省","city":"吉安市","county":"永丰县","community":"恩江镇南洋超市","full_address":"江西省吉安市永丰县恩江镇南洋超市","info":""}},{"type":"Feature","geometry":{"type":"Point","coordinates":[115.460254,27.31863]},"properties":{"province":"江西省","city":"吉安市","county":"永丰县","community":"佐龙乡瑶上村竹山村","full_address":"江西省吉安市永丰县佐龙乡瑶上村竹山村","info":""}},{"type":"Feature","geometry":{"type":"Point","coordinates":[114.934152,27.006643]},"properties":{"province":"江西省","city":"吉安市","county":"经开区","community":"地质铭都小区","full_address":"江西省吉安市经开区地质铭都小区","info":""}},{"type":"Feature","geometry":{"type":"Point","coordinates":[114.933124,27.001375]},"properties":{"province":"江西省","city":"吉安市","county":"经开区","community":"梨塘居民点","full_address":"江西省吉安市经开区梨塘居民点","info":""}},{"type":"Feature","geometry":{"type":"Point","coordinates":[114.93375,27.004438]},"properties":{"province":"江西省","city":"吉安市","county":"经开区","community":"庐贤雅居小区","full_address":"江西省吉安市经开区庐贤雅居小区","info":""}},{"type":"Feature","geometry":{"type":"Point","coordinates":[114.928285,27.007679]},"properties":{"province":"江西省","city":"吉安市","county":"经开区","community":"银图豪庭","full_address":"江西省吉安市经开区银图豪庭","info":""}},{"type":"Feature","geometry":{"type":"Point","coordinates":[120.43084,36.30755]},"properties":{"province":"山东省","city":"青岛市","county":"城阳区","community":"城阳街道办事处御景尚都小区32号楼","full_address":"山东省青岛市城阳区城阳街道办事处御景尚都小区32号楼","info":""}},{"type":"Feature","geometry":{"type":"Point","coordinates":[120.399866,36.305191]},"properties":{"province":"山东省","city":"青岛市","county":"城阳区","community":"城阳街道办事处银盛泰国际商务港","full_address":"山东省青岛市城阳区城阳街道办事处银盛泰国际商务港","info":""}},{"type":"Feature","geometry":{"type":"Point","coordinates":[120.87536,36.38353]},"properties":{"province":"山东省","city":"青岛市","county":"即墨区","community":"岘山路兰州拉面馆（绿城店）","full_address":"山东省青岛市即墨区岘山路兰州拉面馆（绿城店）","info":""}},{"type":"Feature","geometry":{"type":"Point","coordinates":[120.266216,36.390007]},"properties":{"province":"山东省","city":"青岛市","county":"即墨区","community":"大信镇润霖优选超市","full_address":"山东省青岛市即墨区大信镇润霖优选超市","info":""}},{"type":"Feature","geometry":{"type":"Point","coordinates":[120.443014,36.417281]},"properties":{"province":"山东省","city":"青岛市","county":"即墨区","community":"楼子疃如海超市","full_address":"山东省青岛市即墨区楼子疃如海超市","info":""}},{"type":"Feature","geometry":{"type":"Point","coordinates":[120.443362,36.352509]},"properties":{"province":"山东省","city":"青岛市","county":"即墨区","community":"环秀街道办事处后东城村","full_address":"山东省青岛市即墨区环秀街道办事处后东城村","info":""}},{"type":"Feature","geometry":{"type":"Point","coordinates":[120.40934,36.41162]},"properties":{"province":"山东省","city":"青岛市","county":"即墨区","community":"华山二路76号A-26小鱼尼莫亲子游泳俱乐部","full_address":"山东省青岛市即墨区华山二路76号A-26小鱼尼莫亲子游泳俱乐部","info":""}},{"type":"Feature","geometry":{"type":"Point","coordinates":[120.407411,36.375838]},"properties":{"province":"山东省","city":"青岛市","county":"即墨区","community":"岘山花城小区北门口刘广昌排骨鸡米饭","full_address":"山东省青岛市即墨区岘山花城小区北门口刘广昌排骨鸡米饭","info":""}},{"type":"Feature","geometry":{"type":"Point","coordinates":[120.408549,36.399672]},"properties":{"province":"山东省","city":"青岛市","county":"即墨区","community":"鹤山路即墨服装市场一层赵记肉夹馍馄饨馆","full_address":"山东省青岛市即墨区鹤山路即墨服装市场一层赵记肉夹馍馄饨馆","info":""}},{"type":"Feature","geometry":{"type":"Point","coordinates":[120.436634,36.373391]},"properties":{"province":"山东省","city":"青岛市","county":"即墨区","community":"文化路63号塔元楼区烤肉拌饭","full_address":"山东省青岛市即墨区文化路63号塔元楼区烤肉拌饭","info":""}},{"type":"Feature","geometry":{"type":"Point","coordinates":[120.388675,36.335851]},"properties":{"province":"山东省","city":"青岛市","county":"即墨区","community":"嵩山一路48-20号满江秋烤鱼餐厅","full_address":"山东省青岛市即墨区嵩山一路48-20号满江秋烤鱼餐厅","info":""}},{"type":"Feature","geometry":{"type":"Point","coordinates":[120.410835,36.372501]},"properties":{"province":"山东省","city":"青岛市","county":"即墨区","community":"岘山花城北门菜鸟驿站","full_address":"山东省青岛市即墨区岘山花城北门菜鸟驿站","info":""}},{"type":"Feature","geometry":{"type":"Point","coordinates":[120.448762,36.398394]},"properties":{"province":"山东省","city":"青岛市","county":"即墨区","community":"鹤山路444号海尚海谷子源母婴店","full_address":"山东省青岛市即墨区鹤山路444号海尚海谷子源母婴店","info":""}},{"type":"Feature","geometry":{"type":"Point","coordinates":[120.442176,36.39598]},"properties":{"province":"山东省","city":"青岛市","county":"即墨区","community":"鹤山路599号圣帝亚广场佳乐家超市","full_address":"山东省青岛市即墨区鹤山路599号圣帝亚广场佳乐家超市","info":""}},{"type":"Feature","geometry":{"type":"Point","coordinates":[120.390248,36.331588]},"properties":{"province":"山东省","city":"青岛市","county":"即墨区","community":"天山一路信和居小区5号德庄火锅","full_address":"山东省青岛市即墨区天山一路信和居小区5号德庄火锅","info":""}},{"type":"Feature","geometry":{"type":"Point","coordinates":[120.440518,36.404161]},"properties":{"province":"山东省","city":"青岛市","county":"即墨区","community":"店子山小区门口母鸡汤店","full_address":"山东省青岛市即墨区店子山小区门口母鸡汤店","info":""}},{"type":"Feature","geometry":{"type":"Point","coordinates":[120.426637,36.397978]},"properties":{"province":"山东省","city":"青岛市","county":"即墨区","community":"鹤山路939号新利群肯德基","full_address":"山东省青岛市即墨区鹤山路939号新利群肯德基","info":""}},{"type":"Feature","geometry":{"type":"Point","coordinates":[120.414505,36.387441]},"properties":{"province":"山东省","city":"青岛市","county":"即墨区","community":"文峰路888号瑞纳鳌园","full_address":"山东省青岛市即墨区文峰路888号瑞纳鳌园","info":""}},{"type":"Feature","geometry":{"type":"Point","coordinates":[120.472897,36.44086]},"properties":{"province":"山东省","city":"青岛市","county":"即墨区","community":"北安街道办事处农民经济适用房","full_address":"山东省青岛市即墨区北安街道办事处农民经济适用房","info":""}},{"type":"Feature","geometry":{"type":"Point","coordinates":[120.458802,36.381518]},"properties":{"province":"山东省","city":"青岛市","county":"即墨区","community":"文峰路180号中交中央公元D区","full_address":"山东省青岛市即墨区文峰路180号中交中央公元D区","info":""}},{"type":"Feature","geometry":{"type":"Point","coordinates":[120.403404,36.347407]},"properties":{"province":"山东省","city":"青岛市","county":"即墨区","community":"通济街道办事处圈子村","full_address":"山东省青岛市即墨区通济街道办事处圈子村","info":""}},{"type":"Feature","geometry":{"type":"Point","coordinates":[120.474209,36.405551]},"properties":{"province":"山东省","city":"青岛市","county":"即墨区","community":"潮海街道办事处流浩河三路136号君卓篮球俱乐部","full_address":"山东省青岛市即墨区潮海街道办事处流浩河三路136号君卓篮球俱乐部","info":""}},{"type":"Feature","geometry":{"type":"Point","coordinates":[120.423201,36.382023]},"properties":{"province":"山东省","city":"青岛市","county":"即墨区","community":"环秀街道办事处店子山三路268号高迪墨香郡科威国际不动产","full_address":"山东省青岛市即墨区环秀街道办事处店子山三路268号高迪墨香郡科威国际不动产","info":""}},{"type":"Feature","geometry":{"type":"Point","coordinates":[120.469652,36.393073]},"properties":{"province":"山东省","city":"青岛市","county":"即墨区","community":"通济街道西城社区","full_address":"山东省青岛市即墨区通济街道西城社区","info":""}},{"type":"Feature","geometry":{"type":"Point","coordinates":[120.469652,36.393073]},"properties":{"province":"山东省","city":"青岛市","county":"即墨区","community":"通济街道长辛社区","full_address":"山东省青岛市即墨区通济街道长辛社区","info":""}},{"type":"Feature","geometry":{"type":"Point","coordinates":[120.478636,36.392747]},"properties":{"province":"山东省","city":"青岛市","county":"即墨区","community":"通济街道河西社区","full_address":"山东省青岛市即墨区通济街道河西社区","info":""}},{"type":"Feature","geometry":{"type":"Point","coordinates":[120.469652,36.393073]},"properties":{"province":"山东省","city":"青岛市","county":"即墨区","community":"通济街道马山社区","full_address":"山东省青岛市即墨区通济街道马山社区","info":""}},{"type":"Feature","geometry":{"type":"Point","coordinates":[120.469652,36.393073]},"properties":{"province":"山东省","city":"青岛市","county":"即墨区","community":"通济街道德馨社区","full_address":"山东省青岛市即墨区通济街道德馨社区","info":""}},{"type":"Feature","geometry":{"type":"Point","coordinates":[120.469652,36.393073]},"properties":{"province":"山东省","city":"青岛市","county":"即墨区","community":"通济街道盛兴社区","full_address":"山东省青岛市即墨区通济街道盛兴社区","info":""}},{"type":"Feature","geometry":{"type":"Point","coordinates":[120.402279,36.40267]},"properties":{"province":"山东省","city":"青岛市","county":"即墨区","community":"通济街道八里庄社区","full_address":"山东省青岛市即墨区通济街道八里庄社区","info":""}},{"type":"Feature","geometry":{"type":"Point","coordinates":[120.469652,36.393073]},"properties":{"province":"山东省","city":"青岛市","county":"即墨区","community":"通济街道山东社区","full_address":"山东省青岛市即墨区通济街道山东社区","info":""}},{"type":"Feature","geometry":{"type":"Point","coordinates":[120.469652,36.393073]},"properties":{"province":"山东省","city":"青岛市","county":"即墨区","community":"通济街道阁里社区","full_address":"山东省青岛市即墨区通济街道阁里社区","info":""}},{"type":"Feature","geometry":{"type":"Point","coordinates":[120.175931,36.465727]},"properties":{"province":"山东省","city":"青岛市","county":"即墨区","community":"通济街道龙湾头社区","full_address":"山东省青岛市即墨区通济街道龙湾头社区","info":""}},{"type":"Feature","geometry":{"type":"Point","coordinates":[120.469652,36.393073]},"properties":{"province":"山东省","city":"青岛市","county":"即墨区","community":"通济街道城北社区","full_address":"山东省青岛市即墨区通济街道城北社区","info":""}},{"type":"Feature","geometry":{"type":"Point","coordinates":[120.402279,36.40267]},"properties":{"province":"山东省","city":"青岛市","county":"即墨区","community":"通济街道郭庄社区","full_address":"山东省青岛市即墨区通济街道郭庄社区","info":""}},{"type":"Feature","geometry":{"type":"Point","coordinates":[120.385158,36.337978]},"properties":{"province":"山东省","city":"青岛市","county":"即墨区","community":"通济新经济区福海村","full_address":"山东省青岛市即墨区通济新经济区福海村","info":""}},{"type":"Feature","geometry":{"type":"Point","coordinates":[120.385158,36.337978]},"properties":{"province":"山东省","city":"青岛市","county":"即墨区","community":"通济新经济区开元村","full_address":"山东省青岛市即墨区通济新经济区开元村","info":""}},{"type":"Feature","geometry":{"type":"Point","coordinates":[120.385158,36.337978]},"properties":{"province":"山东省","city":"青岛市","county":"即墨区","community":"通济新经济区华耀村","full_address":"山东省青岛市即墨区通济新经济区华耀村","info":""}},{"type":"Feature","geometry":{"type":"Point","coordinates":[120.385158,36.337978]},"properties":{"province":"山东省","city":"青岛市","county":"即墨区","community":"通济新经济区云溪村","full_address":"山东省青岛市即墨区通济新经济区云溪村","info":""}},{"type":"Feature","geometry":{"type":"Point","coordinates":[120.385158,36.337978]},"properties":{"province":"山东省","city":"青岛市","county":"即墨区","community":"通济新经济区里仁村","full_address":"山东省青岛市即墨区通济新经济区里仁村","info":""}},{"type":"Feature","geometry":{"type":"Point","coordinates":[120.478636,36.392747]},"properties":{"province":"山东省","city":"青岛市","county":"即墨区","community":"环秀街道墨河社区","full_address":"山东省青岛市即墨区环秀街道墨河社区","info":""}},{"type":"Feature","geometry":{"type":"Point","coordinates":[120.456645,36.369458]},"properties":{"province":"山东省","city":"青岛市","county":"即墨区","community":"环秀街道滨湖社区","full_address":"山东省青岛市即墨区环秀街道滨湖社区","info":""}},{"type":"Feature","geometry":{"type":"Point","coordinates":[120.459812,36.379682]},"properties":{"province":"山东省","city":"青岛市","county":"即墨区","community":"环秀街道观澜社区","full_address":"山东省青岛市即墨区环秀街道观澜社区","info":""}},{"type":"Feature","geometry":{"type":"Point","coordinates":[120.652928,36.342885]},"properties":{"province":"山东省","city":"青岛市","county":"即墨区","community":"环秀街道新民社区","full_address":"山东省青岛市即墨区环秀街道新民社区","info":""}},{"type":"Feature","geometry":{"type":"Point","coordinates":[120.469652,36.393073]},"properties":{"province":"山东省","city":"青岛市","county":"即墨区","community":"环秀街道华庭社区","full_address":"山东省青岛市即墨区环秀街道华庭社区","info":""}},{"type":"Feature","geometry":{"type":"Point","coordinates":[120.469652,36.393073]},"properties":{"province":"山东省","city":"青岛市","county":"即墨区","community":"环秀街道文化街社区","full_address":"山东省青岛市即墨区环秀街道文化街社区","info":""}},{"type":"Feature","geometry":{"type":"Point","coordinates":[120.469652,36.393073]},"properties":{"province":"山东省","city":"青岛市","county":"即墨区","community":"环秀街道健民街社区","full_address":"山东省青岛市即墨区环秀街道健民街社区","info":""}},{"type":"Feature","geometry":{"type":"Point","coordinates":[120.469652,36.393073]},"properties":{"province":"山东省","city":"青岛市","county":"即墨区","community":"环秀街道金茂社区","full_address":"山东省青岛市即墨区环秀街道金茂社区","info":""}},{"type":"Feature","geometry":{"type":"Point","coordinates":[120.452295,36.370654]},"properties":{"province":"山东省","city":"青岛市","county":"即墨区","community":"环秀街道官庄社区","full_address":"山东省青岛市即墨区环秀街道官庄社区","info":""}},{"type":"Feature","geometry":{"type":"Point","coordinates":[120.478636,36.392747]},"properties":{"province":"山东省","city":"青岛市","county":"即墨区","community":"环秀街道山前社区","full_address":"山东省青岛市即墨区环秀街道山前社区","info":""}},{"type":"Feature","geometry":{"type":"Point","coordinates":[120.469652,36.393073]},"properties":{"province":"山东省","city":"青岛市","county":"即墨区","community":"环秀街道滨河社区","full_address":"山东省青岛市即墨区环秀街道滨河社区","info":""}},{"type":"Feature","geometry":{"type":"Point","coordinates":[120.469652,36.393073]},"properties":{"province":"山东省","city":"青岛市","county":"即墨区","community":"环秀街道兴家疃社区","full_address":"山东省青岛市即墨区环秀街道兴家疃社区","info":""}},{"type":"Feature","geometry":{"type":"Point","coordinates":[120.455,36.37274]},"properties":{"province":"山东省","city":"青岛市","county":"即墨区","community":"环秀街道顺河社区","full_address":"山东省青岛市即墨区环秀街道顺河社区","info":""}},{"type":"Feature","geometry":{"type":"Point","coordinates":[120.493819,36.333136]},"properties":{"province":"山东省","city":"青岛市","county":"即墨区","community":"环秀街道叫儿埠社区","full_address":"山东省青岛市即墨区环秀街道叫儿埠社区","info":""}},{"type":"Feature","geometry":{"type":"Point","coordinates":[120.448362,36.452093]},"properties":{"province":"山东省","city":"青岛市","county":"即墨区","community":"北安街道宋化泉村","full_address":"山东省青岛市即墨区北安街道宋化泉村","info":""}},{"type":"Feature","geometry":{"type":"Point","coordinates":[120.453655,36.533721]},"properties":{"province":"山东省","city":"青岛市","county":"即墨区","community":"灵山街道西三泉村","full_address":"山东省青岛市即墨区灵山街道西三泉村","info":""}},{"type":"Feature","geometry":{"type":"Point","coordinates":[120.462538,36.393547]},"properties":{"province":"山东省","city":"青岛市","county":"即墨区","community":"潮海街道文富居小区B1南区","full_address":"山东省青岛市即墨区潮海街道文富居小区B1南区","info":""}},{"type":"Feature","geometry":{"type":"Point","coordinates":[120.447128,36.389639]},"properties":{"province":"山东省","city":"青岛市","county":"即墨区","community":"数字装备产业发展服务中心","full_address":"山东省青岛市即墨区数字装备产业发展服务中心","info":""}},{"type":"Feature","geometry":{"type":"Point","coordinates":[120.469652,36.393073]},"properties":{"province":"山东省","city":"青岛市","county":"即墨区","community":"大信街道信胜社区","full_address":"山东省青岛市即墨区大信街道信胜社区","info":""}},{"type":"Feature","geometry":{"type":"Point","coordinates":[120.469652,36.393073]},"properties":{"province":"山东省","city":"青岛市","county":"即墨区","community":"聚信社区","full_address":"山东省青岛市即墨区聚信社区","info":""}},{"type":"Feature","geometry":{"type":"Point","coordinates":[120.469652,36.393073]},"properties":{"province":"山东省","city":"青岛市","county":"即墨区","community":"信成社区","full_address":"山东省青岛市即墨区信成社区","info":""}},{"type":"Feature","geometry":{"type":"Point","coordinates":[120.521056,36.530153]},"properties":{"province":"山东省","city":"青岛市","county":"即墨区","community":"灵山街道洽泊村","full_address":"山东省青岛市即墨区灵山街道洽泊村","info":""}},{"type":"Feature","geometry":{"type":"Point","coordinates":[120.515076,36.413402]},"properties":{"province":"山东省","city":"青岛市","county":"即墨区","community":"天一仁和郡小区","full_address":"山东省青岛市即墨区天一仁和郡小区","info":""}},{"type":"Feature","geometry":{"type":"Point","coordinates":[120.469652,36.393073]},"properties":{"province":"山东省","city":"青岛市","county":"即墨区","community":"大信街道永乐社区","full_address":"山东省青岛市即墨区大信街道永乐社区","info":""}},{"type":"Feature","geometry":{"type":"Point","coordinates":[120.469652,36.393073]},"properties":{"province":"山东省","city":"青岛市","county":"即墨区","community":"大信街道向阳社区","full_address":"山东省青岛市即墨区大信街道向阳社区","info":""}},{"type":"Feature","geometry":{"type":"Point","coordinates":[120.460085,36.438736]},"properties":{"province":"山东省","city":"青岛市","county":"即墨区","community":"北安街道鑫源明居小区","full_address":"山东省青岛市即墨区北安街道鑫源明居小区","info":""}},{"type":"Feature","geometry":{"type":"Point","coordinates":[120.405701,36.376548]},"properties":{"province":"山东省","city":"青岛市","county":"即墨区","community":"通济街道淮涉河一路893号梧桐巷文旅中心","full_address":"山东省青岛市即墨区通济街道淮涉河一路893号梧桐巷文旅中心","info":""}},{"type":"Feature","geometry":{"type":"Point","coordinates":[120.371108,36.379055]},"properties":{"province":"山东省","city":"青岛市","county":"即墨区","community":"闫家岭民兴钢木制品厂","full_address":"山东省青岛市即墨区闫家岭民兴钢木制品厂","info":""}},{"type":"Feature","geometry":{"type":"Point","coordinates":[120.417323,36.450802]},"properties":{"province":"山东省","city":"青岛市","county":"即墨区","community":"北安街道周戈庄新村","full_address":"山东省青岛市即墨区北安街道周戈庄新村","info":""}},{"type":"Feature","geometry":{"type":"Point","coordinates":[120.441686,36.598272]},"properties":{"province":"山东省","city":"青岛市","county":"即墨区","community":"灵山街道刘家旺疃村","full_address":"山东省青岛市即墨区灵山街道刘家旺疃村","info":""}},{"type":"Feature","geometry":{"type":"Point","coordinates":[120.472574,36.439419]},"properties":{"province":"山东省","city":"青岛市","county":"即墨区","community":"北安街道辛和村","full_address":"山东省青岛市即墨区北安街道辛和村","info":""}},{"type":"Feature","geometry":{"type":"Point","coordinates":[120.472574,36.439419]},"properties":{"province":"山东省","city":"青岛市","county":"即墨区","community":"北安街道泉东新村","full_address":"山东省青岛市即墨区北安街道泉东新村","info":""}},{"type":"Feature","geometry":{"type":"Point","coordinates":[120.472574,36.439419]},"properties":{"province":"山东省","city":"青岛市","county":"即墨区","community":"北安街道营上村","full_address":"山东省青岛市即墨区北安街道营上村","info":""}},{"type":"Feature","geometry":{"type":"Point","coordinates":[120.394257,36.352093]},"properties":{"province":"山东省","city":"青岛市","county":"即墨区","community":"天山一路778号青岛永德聚氨酯有限公司","full_address":"山东省青岛市即墨区天山一路778号青岛永德聚氨酯有限公司","info":""}},{"type":"Feature","geometry":{"type":"Point","coordinates":[120.455014,36.391721]},"properties":{"province":"山东省","city":"青岛市","county":"即墨区","community":"振华街88号宝龙生活广场3F美吉姆","full_address":"山东省青岛市即墨区振华街88号宝龙生活广场3F美吉姆","info":""}},{"type":"Feature","geometry":{"type":"Point","coordinates":[120.313,36.36015]},"properties":{"province":"山东省","city":"青岛市","county":"即墨区","community":"灵山街道后山后村西养殖区","full_address":"山东省青岛市即墨区灵山街道后山后村西养殖区","info":""}},{"type":"Feature","geometry":{"type":"Point","coordinates":[109.485392,30.276544]},"properties":{"province":"湖北省","city":"恩施土家族苗族自治州","county":"恩施市","community":"舞阳坝街道金凤苑小区除1栋以外的其他区域","full_address":"湖北省恩施土家族苗族自治州恩施市舞阳坝街道金凤苑小区除1栋以外的其他区域","info":""}},{"type":"Feature","geometry":{"type":"Point","coordinates":[109.503048,30.279592]},"properties":{"province":"湖北省","city":"恩施土家族苗族自治州","county":"恩施市","community":"舞阳坝街道土桥坝制药厂宿舍区除12栋以外的其他区域","full_address":"湖北省恩施土家族苗族自治州恩施市舞阳坝街道土桥坝制药厂宿舍区除12栋以外的其他区域","info":""}},{"type":"Feature","geometry":{"type":"Point","coordinates":[109.473878,30.265268]},"properties":{"province":"湖北省","city":"恩施土家族苗族自治州","county":"恩施市","community":"舞阳坝街道蔡家河小区除7栋2单元以外的其他区域","full_address":"湖北省恩施土家族苗族自治州恩施市舞阳坝街道蔡家河小区除7栋2单元以外的其他区域","info":""}},{"type":"Feature","geometry":{"type":"Point","coordinates":[109.473878,30.265268]},"properties":{"province":"湖北省","city":"恩施土家族苗族自治州","county":"恩施市","community":"小渡船街道大帝新居小区除1单元以外的其他区域及底层商铺","full_address":"湖北省恩施土家族苗族自治州恩施市小渡船街道大帝新居小区除1单元以外的其他区域及底层商铺","info":""}},{"type":"Feature","geometry":{"type":"Point","coordinates":[109.473878,30.265268]},"properties":{"province":"湖北省","city":"恩施土家族苗族自治州","county":"恩施市","community":"六角亭街道首府壹品小区除7栋一单元以外的其他区域","full_address":"湖北省恩施土家族苗族自治州恩施市六角亭街道首府壹品小区除7栋一单元以外的其他区域","info":""}},{"type":"Feature","geometry":{"type":"Point","coordinates":[109.498383,30.309596]},"properties":{"province":"湖北省","city":"恩施土家族苗族自治州","county":"恩施市","community":"金子坝街道万福国际小区除7、8、9栋以外的其他区域及底层商铺","full_address":"湖北省恩施土家族苗族自治州恩施市金子坝街道万福国际小区除7、8、9栋以外的其他区域及底层商铺","info":""}},{"type":"Feature","geometry":{"type":"Point","coordinates":[109.495465,30.324921]},"properties":{"province":"湖北省","city":"恩施土家族苗族自治州","county":"恩施市","community":"金子坝街道花果山小区除9排4栋、5栋以外的其他区域","full_address":"湖北省恩施土家族苗族自治州恩施市金子坝街道花果山小区除9排4栋、5栋以外的其他区域","info":""}},{"type":"Feature","geometry":{"type":"Point","coordinates":[109.530849,30.289532]},"properties":{"province":"湖北省","city":"恩施土家族苗族自治州","county":"恩施市","community":"七里坪街道七里坪产业园除14栋以外的其他区域","full_address":"湖北省恩施土家族苗族自治州恩施市七里坪街道七里坪产业园除14栋以外的其他区域","info":""}},{"type":"Feature","geometry":{"type":"Point","coordinates":[114.142194,22.58058]},"properties":{"province":"广东省","city":"深圳市","county":"罗湖区","community":"东湖街道翠鹏社区鹏城花园一期7栋1单元","full_address":"广东省深圳市罗湖区东湖街道翠鹏社区鹏城花园一期7栋1单元","info":""}},{"type":"Feature","geometry":{"type":"Point","coordinates":[114.134713,22.549624]},