{"type":"FeatureCollection","features":[{"type":"Feature","geometry":{"type":"Point","coordinates":[116.475537,39.932297]},"properties":{"province":"北京市","city":"朝阳区","county":"六里屯街道","community":"六里屯北里10号楼及底商","full_address":"北京市朝阳区六里屯街道六里屯北里10号楼及底商","info":""}},{"type":"Feature","geometry":{"type":"Point","coordinates":[117.249782,39.125167]},"properties":{"province":"天津市","city":"天津市","county":"河东区","community":"上杭路街道来安里小区8、15、16、17、18号楼","full_address":"天津市天津市河东区上杭路街道来安里小区8、15、16、17、18号楼","info":""}},{"type":"Feature","geometry":{"type":"Point","coordinates":[117.266406,39.061247]},"properties":{"province":"天津市","city":"天津市","county":"河西区","community":"陈塘庄街云山里","full_address":"天津市天津市河西区陈塘庄街云山里","info":""}},{"type":"Feature","geometry":{"type":"Point","coordinates":[117.267806,39.066904]},"properties":{"province":"天津市","city":"天津市","county":"河西区","community":"陈塘庄街昆仑里1、3、5、7及旁边平房、9、11、13、15、47门","full_address":"天津市天津市河西区陈塘庄街昆仑里1、3、5、7及旁边平房、9、11、13、15、47门","info":""}},{"type":"Feature","geometry":{"type":"Point","coordinates":[117.259685,39.079179]},"properties":{"province":"天津市","city":"天津市","county":"河西区","community":"陈塘庄街世芳园3号楼","full_address":"天津市天津市河西区陈塘庄街世芳园3号楼","info":""}},{"type":"Feature","geometry":{"type":"Point","coordinates":[117.257322,39.056684]},"properties":{"province":"天津市","city":"天津市","county":"河西区","community":"东海街华江里1号楼、2号楼、6号楼、22号楼、23号楼、24号楼","full_address":"天津市天津市河西区东海街华江里1号楼、2号楼、6号楼、22号楼、23号楼、24号楼","info":""}},{"type":"Feature","geometry":{"type":"Point","coordinates":[117.154911,39.138166]},"properties":{"province":"天津市","city":"天津市","county":"南开区","community":"长虹街阳城里1、2、3号楼，嘉陵道街罗江西里4、5、6号楼","full_address":"天津市天津市南开区长虹街阳城里1、2、3号楼，嘉陵道街罗江西里4、5、6号楼","info":""}},{"type":"Feature","geometry":{"type":"Point","coordinates":[117.155951,39.133086]},"properties":{"province":"天津市","city":"天津市","county":"南开区","community":"长虹街武乡里4、5号楼","full_address":"天津市天津市南开区长虹街武乡里4、5号楼","info":""}},{"type":"Feature","geometry":{"type":"Point","coordinates":[117.10475,39.1265]},"properties":{"province":"天津市","city":"天津市","county":"西青区","community":"中北镇润姜家园小区A区3号楼","full_address":"天津市天津市西青区中北镇润姜家园小区A区3号楼","info":""}},{"type":"Feature","geometry":{"type":"Point","coordinates":[117.112894,39.130939]},"properties":{"province":"天津市","city":"天津市","county":"西青区","community":"中北镇中铁十八局宿舍2号楼","full_address":"天津市天津市西青区中北镇中铁十八局宿舍2号楼","info":""}},{"type":"Feature","geometry":{"type":"Point","coordinates":[117.271375,39.045307]},"properties":{"province":"天津市","city":"天津市","county":"津南区","community":"双林街泓沪园5号楼、6号楼、7号楼、8号楼","full_address":"天津市天津市津南区双林街泓沪园5号楼、6号楼、7号楼、8号楼","info":""}},{"type":"Feature","geometry":{"type":"Point","coordinates":[117.659324,39.052082]},"properties":{"province":"天津市","city":"天津市","county":"滨海新区","community":"新北街道首创国际小区45-56号楼","full_address":"天津市天津市滨海新区新北街道首创国际小区45-56号楼","info":""}},{"type":"Feature","geometry":{"type":"Point","coordinates":[126.533002,44.82321]},"properties":{"province":"吉林省","city":"长春市","county":"榆树市","community":"瑞达世纪铭城（含MD理发店、新世纪超市、玉兰源生鲜超市）","full_address":"吉林省长春市榆树市瑞达世纪铭城（含MD理发店、新世纪超市、玉兰源生鲜超市）","info":""}},{"type":"Feature","geometry":{"type":"Point","coordinates":[121.388062,31.290925]},"properties":{"province":"上海市","city":"上海市","county":"普陀区","community":"桃浦镇连亮路111弄","full_address":"上海市上海市普陀区桃浦镇连亮路111弄","info":""}},{"type":"Feature","geometry":{"type":"Point","coordinates":[121.415385,31.240225]},"properties":{"province":"上海市","city":"上海市","county":"普陀区","community":"曹杨新村街道曹杨路710弄","full_address":"上海市上海市普陀区曹杨新村街道曹杨路710弄","info":""}},{"type":"Feature","geometry":{"type":"Point","coordinates":[121.511549,31.304924]},"properties":{"province":"上海市","city":"上海市","county":"杨浦区","community":"五角场街道大学路沿街商铺区域及所在楼栋（大学路38-102号、191-265号、242-318号）","full_address":"上海市上海市杨浦区五角场街道大学路沿街商铺区域及所在楼栋（大学路38-102号、191-265号、242-318号）","info":""}},{"type":"Feature","geometry":{"type":"Point","coordinates":[121.481793,31.334987]},"properties":{"province":"上海市","city":"上海市","county":"宝山区","community":"淞南镇淞南八村（1-65号；200-214号）","full_address":"上海市上海市宝山区淞南镇淞南八村（1-65号；200-214号）","info":""}},{"type":"Feature","geometry":{"type":"Point","coordinates":[121.493486,31.401912]},"properties":{"province":"上海市","city":"上海市","county":"宝山区","community":"友谊路街道宝林路宝林三村","full_address":"上海市上海市宝山区友谊路街道宝林路宝林三村","info":""}},{"type":"Feature","geometry":{"type":"Point","coordinates":[121.645233,31.063329]},"properties":{"province":"上海市","city":"上海市","county":"浦东新区","community":"新场镇申江南路5700号","full_address":"上海市上海市浦东新区新场镇申江南路5700号","info":""}},{"type":"Feature","geometry":{"type":"Point","coordinates":[121.62745,31.11206]},"properties":{"province":"上海市","city":"上海市","county":"浦东新区","community":"周浦镇忘忧路135弄梧桐国际公寓（1-5号）","full_address":"上海市上海市浦东新区周浦镇忘忧路135弄梧桐国际公寓（1-5号）","info":""}},{"type":"Feature","geometry":{"type":"Point","coordinates":[121.317814,31.109308]},"properties":{"province":"上海市","city":"上海市","county":"松江区","community":"九亭镇同利路19-59号、36-68号","full_address":"上海市上海市松江区九亭镇同利路19-59号、36-68号","info":""}},{"type":"Feature","geometry":{"type":"Point","coordinates":[121.315067,31.014986]},"properties":{"province":"上海市","city":"上海市","county":"松江区","community":"车墩镇大官塘路180弄松南城善德苑","full_address":"上海市上海市松江区车墩镇大官塘路180弄松南城善德苑","info":""}},{"type":"Feature","geometry":{"type":"Point","coordinates":[117.275577,32.924317]},"properties":{"province":"安徽省","city":"蚌埠市","county":"禹会区","community":"北师大蚌埠附属学校","full_address":"安徽省蚌埠市禹会区北师大蚌埠附属学校","info":""}},{"type":"Feature","geometry":{"type":"Point","coordinates":[117.238981,33.097595]},"properties":{"province":"安徽省","city":"蚌埠市","county":"怀远县","community":"魏庄镇全域","full_address":"安徽省蚌埠市怀远县魏庄镇全域","info":""}},{"type":"Feature","geometry":{"type":"Point","coordinates":[117.209843,32.979325]},"properties":{"province":"安徽省","city":"蚌埠市","county":"怀远县","community":"榴城镇颐景花园小区","full_address":"安徽省蚌埠市怀远县榴城镇颐景花园小区","info":""}},{"type":"Feature","geometry":{"type":"Point","coordinates":[117.196651,32.970292]},"properties":{"province":"安徽省","city":"蚌埠市","county":"怀远县","community":"榴城镇新怀社区中央花园小区","full_address":"安徽省蚌埠市怀远县榴城镇新怀社区中央花园小区","info":""}},{"type":"Feature","geometry":{"type":"Point","coordinates":[117.087537,33.161662]},"properties":{"province":"安徽省","city":"蚌埠市","county":"怀远县","community":"淝河镇仁和村","full_address":"安徽省蚌埠市怀远县淝河镇仁和村","info":""}},{"type":"Feature","geometry":{"type":"Point","coordinates":[117.219528,32.970132]},"properties":{"province":"安徽省","city":"蚌埠市","county":"怀远县","community":"榴城镇新河社区文苑小区","full_address":"安徽省蚌埠市怀远县榴城镇新河社区文苑小区","info":""}},{"type":"Feature","geometry":{"type":"Point","coordinates":[117.167945,33.075557]},"properties":{"province":"安徽省","city":"蚌埠市","county":"怀远县","community":"古城镇刘桥村","full_address":"安徽省蚌埠市怀远县古城镇刘桥村","info":""}},{"type":"Feature","geometry":{"type":"Point","coordinates":[117.162499,33.080191]},"properties":{"province":"安徽省","city":"蚌埠市","county":"怀远县","community":"古城镇三岔路街道","full_address":"安徽省蚌埠市怀远县古城镇三岔路街道","info":""}},{"type":"Feature","geometry":{"type":"Point","coordinates":[117.136207,32.960033]},"properties":{"province":"安徽省","city":"蚌埠市","county":"怀远县","community":"荆山镇城西村","full_address":"安徽省蚌埠市怀远县荆山镇城西村","info":""}},{"type":"Feature","geometry":{"type":"Point","coordinates":[117.007065,32.936509]},"properties":{"province":"安徽省","city":"蚌埠市","county":"怀远县","community":"兰桥镇张坝村","full_address":"安徽省蚌埠市怀远县兰桥镇张坝村","info":""}},{"type":"Feature","geometry":{"type":"Point","coordinates":[116.933758,32.955596]},"properties":{"province":"安徽省","city":"蚌埠市","county":"怀远县","community":"兰桥镇兰桥村","full_address":"安徽省蚌埠市怀远县兰桥镇兰桥村","info":""}},{"type":"Feature","geometry":{"type":"Point","coordinates":[116.913917,33.252431]},"properties":{"province":"安徽省","city":"蚌埠市","county":"怀远县","community":"褚集镇褚集街道（东至S235省道，南至新兴路，西至振兴路，北至老街）围合区域含淮海粮库","full_address":"安徽省蚌埠市怀远县褚集镇褚集街道（东至S235省道，南至新兴路，西至振兴路，北至老街）围合区域含淮海粮库","info":""}},{"type":"Feature","geometry":{"type":"Point","coordinates":[117.096765,32.988018]},"properties":{"province":"安徽省","city":"蚌埠市","county":"怀远县","community":"荆山镇沈郢村磨盘组","full_address":"安徽省蚌埠市怀远县荆山镇沈郢村磨盘组","info":""}},{"type":"Feature","geometry":{"type":"Point","coordinates":[117.212522,32.972619]},"properties":{"province":"安徽省","city":"蚌埠市","county":"怀远县","community":"榴城镇榴城社区静心嘉苑小区","full_address":"安徽省蚌埠市怀远县榴城镇榴城社区静心嘉苑小区","info":""}},{"type":"Feature","geometry":{"type":"Point","coordinates":[117.196374,32.983295]},"properties":{"province":"安徽省","city":"蚌埠市","county":"怀远县","community":"榴城镇榴城社区远大未来西区","full_address":"安徽省蚌埠市怀远县榴城镇榴城社区远大未来西区","info":""}},{"type":"Feature","geometry":{"type":"Point","coordinates":[116.994096,33.635977]},"properties":{"province":"安徽省","city":"宿州市","county":"埇桥区","community":"东关街道铁路社区（含东关街道明珠花园小区）","full_address":"安徽省宿州市埇桥区东关街道铁路社区（含东关街道明珠花园小区）","info":""}},{"type":"Feature","geometry":{"type":"Point","coordinates":[117.006586,33.634132]},"properties":{"province":"安徽省","city":"宿州市","county":"埇桥区","community":"道东街道翠园社区华府春天小区","full_address":"安徽省宿州市埇桥区道东街道翠园社区华府春天小区","info":""}},{"type":"Feature","geometry":{"type":"Point","coordinates":[117.003687,33.638351]},"properties":{"province":"安徽省","city":"宿州市","county":"埇桥区","community":"道东街道河畔雅苑小区及附属门面","full_address":"安徽省宿州市埇桥区道东街道河畔雅苑小区及附属门面","info":""}},{"type":"Feature","geometry":{"type":"Point","coordinates":[117.00365,33.640141]},"properties":{"province":"安徽省","city":"宿州市","county":"埇桥区","community":"道东街道碧御豪庭小区及附属门面","full_address":"安徽省宿州市埇桥区道东街道碧御豪庭小区及附属门面","info":""}},{"type":"Feature","geometry":{"type":"Point","coordinates":[117.016468,33.632724]},"properties":{"province":"安徽省","city":"宿州市","county":"埇桥区","community":"沱河街道春光社区西苑小区","full_address":"安徽省宿州市埇桥区沱河街道春光社区西苑小区","info":""}},{"type":"Feature","geometry":{"type":"Point","coordinates":[116.999281,33.624407]},"properties":{"province":"安徽省","city":"宿州市","county":"埇桥区","community":"三里湾街道三里湾社区龙口路东七巷","full_address":"安徽省宿州市埇桥区三里湾街道三里湾社区龙口路东七巷","info":""}},{"type":"Feature","geometry":{"type":"Point","coordinates":[116.984252,33.639539]},"properties":{"province":"安徽省","city":"宿州市","county":"埇桥区","community":"埇桥街道城隍庙社区政治课堂小区","full_address":"安徽省宿州市埇桥区埇桥街道城隍庙社区政治课堂小区","info":""}},{"type":"Feature","geometry":{"type":"Point","coordinates":[116.96978,33.657644]},"properties":{"province":"安徽省","city":"宿州市","county":"埇桥区","community":"北关街道黄淮社区天鹅湾小区","full_address":"安徽省宿州市埇桥区北关街道黄淮社区天鹅湾小区","info":""}},{"type":"Feature","geometry":{"type":"Point","coordinates":[116.969003,33.651726]},"properties":{"province":"安徽省","city":"宿州市","county":"埇桥区","community":"西关街道环宇社区银河绿苑南区","full_address":"安徽省宿州市埇桥区西关街道环宇社区银河绿苑南区","info":""}},{"type":"Feature","geometry":{"type":"Point","coordinates":[117.050853,33.625787]},"properties":{"province":"安徽省","city":"宿州市","county":"埇桥区","community":"城东街道十里社区农场组","full_address":"安徽省宿州市埇桥区城东街道十里社区农场组","info":""}},{"type":"Feature","geometry":{"type":"Point","coordinates":[116.991534,33.642969]},"properties":{"province":"安徽省","city":"宿州市","county":"埇桥区","community":"东关街道北苑社区同科城市花园小区","full_address":"安徽省宿州市埇桥区东关街道北苑社区同科城市花园小区","info":""}},{"type":"Feature","geometry":{"type":"Point","coordinates":[116.991539,33.629493]},"properties":{"province":"安徽省","city":"宿州市","county":"埇桥区","community":"东关街道观李社区宿怀路线务小区","full_address":"安徽省宿州市埇桥区东关街道观李社区宿怀路线务小区","info":""}},{"type":"Feature","geometry":{"type":"Point","coordinates":[116.987392,33.634802]},"properties":{"province":"安徽省","city":"宿州市","county":"埇桥区","community":"道东街道东方社区沈苑小区","full_address":"安徽省宿州市埇桥区道东街道东方社区沈苑小区","info":""}},{"type":"Feature","geometry":{"type":"Point","coordinates":[116.947296,33.624906]},"properties":{"province":"安徽省","city":"宿州市","county":"埇桥区","community":"三八街道三里社区名宿华府小区","full_address":"安徽省宿州市埇桥区三八街道三里社区名宿华府小区","info":""}},{"type":"Feature","geometry":{"type":"Point","coordinates":[117.014653,33.63122]},"properties":{"province":"安徽省","city":"宿州市","county":"埇桥区","community":"沱河街道韩池孜社区韩池孜村（曙光南路以东、汴河路以南、韩池孜路以西、道东粮库围墙以北合围区域）","full_address":"安徽省宿州市埇桥区沱河街道韩池孜社区韩池孜村（曙光南路以东、汴河路以南、韩池孜路以西、道东粮库围墙以北合围区域）","info":""}},{"type":"Feature","geometry":{"type":"Point","coordinates":[116.182093,33.4961]},"properties":{"province":"安徽省","city":"亳州市","county":"涡阳县","community":"星园街道潘寨社区孙前自然村（原周王行政村孙前自然村）","full_address":"安徽省亳州市涡阳县星园街道潘寨社区孙前自然村（原周王行政村孙前自然村）","info":""}},{"type":"Feature","geometry":{"type":"Point","coordinates":[116.137837,33.463348]},"properties":{"province":"安徽省","city":"亳州市","county":"涡阳县","community":"公吉寺镇马寨行政村谢楼自然村（原王庄行政村谢楼自然村）","full_address":"安徽省亳州市涡阳县公吉寺镇马寨行政村谢楼自然村（原王庄行政村谢楼自然村）","info":""}},{"type":"Feature","geometry":{"type":"Point","coordinates":[116.055502,33.516969]},"properties":{"province":"安徽省","city":"亳州市","county":"涡阳县","community":"花沟镇花沟社区第二居民组","full_address":"安徽省亳州市涡阳县花沟镇花沟社区第二居民组","info":""}},{"type":"Feature","geometry":{"type":"Point","coordinates":[116.128622,33.49874]},"properties":{"province":"安徽省","city":"亳州市","county":"涡阳县","community":"花沟镇孙小桥行政村李楼自然村","full_address":"安徽省亳州市涡阳县花沟镇孙小桥行政村李楼自然村","info":""}},{"type":"Feature","geometry":{"type":"Point","coordinates":[116.201904,33.496227]},"properties":{"province":"安徽省","city":"亳州市","county":"涡阳县","community":"城关街道孙楼社区同福楼","full_address":"安徽省亳州市涡阳县城关街道孙楼社区同福楼","info":""}},{"type":"Feature","geometry":{"type":"Point","coordinates":[116.214652,33.505162]},"properties":{"province":"安徽省","city":"亳州市","county":"涡阳县","community":"城关街道团结社区阜阳商厦","full_address":"安徽省亳州市涡阳县城关街道团结社区阜阳商厦","info":""}},{"type":"Feature","geometry":{"type":"Point","coordinates":[116.120666,33.362246]},"properties":{"province":"安徽省","city":"亳州市","county":"利辛县","community":"纪王场乡三和社区胡寨庄","full_address":"安徽省亳州市利辛县纪王场乡三和社区胡寨庄","info":""}},{"type":"Feature","geometry":{"type":"Point","coordinates":[116.111031,33.321405]},"properties":{"province":"安徽省","city":"亳州市","county":"利辛县","community":"纪王场乡纪大寨村吴园庄","full_address":"安徽省亳州市利辛县纪王场乡纪大寨村吴园庄","info":""}},{"type":"Feature","geometry":{"type":"Point","coordinates":[116.166665,33.185396]},"properties":{"province":"安徽省","city":"亳州市","county":"利辛县","community":"西潘楼镇桥西村李寨庄","full_address":"安徽省亳州市利辛县西潘楼镇桥西村李寨庄","info":""}},{"type":"Feature","geometry":{"type":"Point","coordinates":[116.258062,33.257592]},"properties":{"province":"安徽省","city":"亳州市","county":"利辛县","community":"城北镇陆桃园村陆桃园庄","full_address":"安徽省亳州市利辛县城北镇陆桃园村陆桃园庄","info":""}},{"type":"Feature","geometry":{"type":"Point","coordinates":[116.20027,33.140806]},"properties":{"province":"安徽省","city":"亳州市","county":"利辛县","community":"城关镇新河社区师范附小家属院","full_address":"安徽省亳州市利辛县城关镇新河社区师范附小家属院","info":""}},{"type":"Feature","geometry":{"type":"Point","coordinates":[116.20027,33.140806]},"properties":{"province":"安徽省","city":"亳州市","county":"利辛县","community":"城关镇新河社区师范附小家属院对面邻里快递点","full_address":"安徽省亳州市利辛县城关镇新河社区师范附小家属院对面邻里快递点","info":""}},{"type":"Feature","geometry":{"type":"Point","coordinates":[116.216705,33.134757]},"properties":{"province":"安徽省","city":"亳州市","county":"利辛县","community":"城关镇新河社区师范附小家属院对面宿记饮食店","full_address":"安徽省亳州市利辛县城关镇新河社区师范附小家属院对面宿记饮食店","info":""}},{"type":"Feature","geometry":{"type":"Point","coordinates":[115.711074,33.839801]},"properties":{"province":"安徽省","city":"亳州市","county":"利辛县","community":"城北镇陈营村刘庄","full_address":"安徽省亳州市利辛县城北镇陈营村刘庄","info":""}},{"type":"Feature","geometry":{"type":"Point","coordinates":[116.30727,33.24606]},"properties":{"province":"安徽省","city":"亳州市","county":"利辛县","community":"望疃镇玉光村王土楼庄","full_address":"安徽省亳州市利辛县望疃镇玉光村王土楼庄","info":""}},{"type":"Feature","geometry":{"type":"Point","coordinates":[116.206937,33.155989]},"properties":{"province":"安徽省","city":"亳州市","county":"利辛县","community":"城关镇春店社区二队皇家置业小区商住楼南楼3单元","full_address":"安徽省亳州市利辛县城关镇春店社区二队皇家置业小区商住楼南楼3单元","info":""}},{"type":"Feature","geometry":{"type":"Point","coordinates":[116.210141,33.1614]},"properties":{"province":"安徽省","city":"亳州市","county":"利辛县","community":"城关镇金龙商贸港D区10栋（1层、2层）","full_address":"安徽省亳州市利辛县城关镇金龙商贸港D区10栋（1层、2层）","info":""}},{"type":"Feature","geometry":{"type":"Point","coordinates":[116.221263,33.350034]},"properties":{"province":"安徽省","city":"亳州市","county":"利辛县","community":"旧城镇盛新村盛老楼庄","full_address":"安徽省亳州市利辛县旧城镇盛新村盛老楼庄","info":""}},{"type":"Feature","geometry":{"type":"Point","coordinates":[116.237837,33.236467]},"properties":{"province":"安徽省","city":"亳州市","county":"利辛县","community":"城北镇陆楼村后刘庄","full_address":"安徽省亳州市利辛县城北镇陆楼村后刘庄","info":""}},{"type":"Feature","geometry":{"type":"Point","coordinates":[116.210384,33.133558]},"properties":{"province":"安徽省","city":"亳州市","county":"利辛县","community":"城关镇复兴路垃圾中转站","full_address":"安徽省亳州市利辛县城关镇复兴路垃圾中转站","info":""}},{"type":"Feature","geometry":{"type":"Point","coordinates":[116.22087,33.135162]},"properties":{"province":"安徽省","city":"亳州市","county":"利辛县","community":"城关镇宝璋医院","full_address":"安徽省亳州市利辛县城关镇宝璋医院","info":""}},{"type":"Feature","geometry":{"type":"Point","coordinates":[115.88323,28.67891]},"properties":{"province":"江西省","city":"南昌市","county":"东湖区","community":"滕王阁街道下凤凰坡16号、26号、30号居民楼及店面、章江路99号","full_address":"江西省南昌市东湖区滕王阁街道下凤凰坡16号、26号、30号居民楼及店面、章江路99号","info":""}},{"type":"Feature","geometry":{"type":"Point","coordinates":[115.894718,28.670065]},"properties":{"province":"江西省","city":"南昌市","county":"西湖区","community":"孺子路社区校厂北3、4、5、6栋、干家前街155号、干家前街157号","full_address":"江西省南昌市西湖区孺子路社区校厂北3、4、5、6栋、干家前街155号、干家前街157号","info":""}},{"type":"Feature","geometry":{"type":"Point","coordinates":[115.911556,28.661299]},"properties":{"province":"江西省","city":"南昌市","county":"西湖区","community":"南站街道站南街19号、27号、33号、35号","full_address":"江西省南昌市西湖区南站街道站南街19号、27号、33号、35号","info":""}},{"type":"Feature","geometry":{"type":"Point","coordinates":[115.902516,28.646035]},"properties":{"province":"江西省","city":"南昌市","county":"青云谱区","community":"京山街道建祥社区建设路225号1栋、2栋","full_address":"江西省南昌市青云谱区京山街道建祥社区建设路225号1栋、2栋","info":""}},{"type":"Feature","geometry":{"type":"Point","coordinates":[115.934205,28.661798]},"properties":{"province":"江西省","city":"南昌市","county":"青山湖区","community":"顺外路东华苑小区2栋和3栋","full_address":"江西省南昌市青山湖区顺外路东华苑小区2栋和3栋","info":""}},{"type":"Feature","geometry":{"type":"Point","coordinates":[115.930688,28.677908]},"properties":{"province":"江西省","city":"南昌市","county":"青山湖区","community":"上坊路342号科学院宿舍小区3栋","full_address":"江西省南昌市青山湖区上坊路342号科学院宿舍小区3栋","info":""}},{"type":"Feature","geometry":{"type":"Point","coordinates":[115.928947,28.666456]},"properties":{"province":"江西省","city":"南昌市","county":"青山湖区","community":"顺化门社区洪都中大道169号北区宿舍","full_address":"江西省南昌市青山湖区顺化门社区洪都中大道169号北区宿舍","info":""}},{"type":"Feature","geometry":{"type":"Point","coordinates":[115.435956,35.248293]},"properties":{"province":"山东省","city":"菏泽市","county":"牡丹区","community":"西城街道翰林豪庭小区4号楼","full_address":"山东省菏泽市牡丹区西城街道翰林豪庭小区4号楼","info":""}},{"type":"Feature","geometry":{"type":"Point","coordinates":[115.414074,35.241994]},"properties":{"province":"山东省","city":"菏泽市","county":"牡丹区","community":"西城街道景韵苑小区57号楼","full_address":"山东省菏泽市牡丹区西城街道景韵苑小区57号楼","info":""}},{"type":"Feature","geometry":{"type":"Point","coordinates":[115.393708,35.201834]},"properties":{"province":"山东省","city":"菏泽市","county":"牡丹区","community":"何楼街道武寺村","full_address":"山东省菏泽市牡丹区何楼街道武寺村","info":""}},{"type":"Feature","geometry":{"type":"Point","coordinates":[115.25975,34.857536]},"properties":{"province":"山东省","city":"菏泽市","county":"曹县","community":"楼庄镇楼庄村东村","full_address":"山东省菏泽市曹县楼庄镇楼庄村东村","info":""}},{"type":"Feature","geometry":{"type":"Point","coordinates":[115.255941,34.865448]},"properties":{"province":"山东省","city":"菏泽市","county":"曹县","community":"楼庄镇忠义寨村","full_address":"山东省菏泽市曹县楼庄镇忠义寨村","info":""}},{"type":"Feature","geometry":{"type":"Point","coordinates":[115.251378,34.871052]},"properties":{"province":"山东省","city":"菏泽市","county":"曹县","community":"楼庄镇王楼村","full_address":"山东省菏泽市曹县楼庄镇王楼村","info":""}},{"type":"Feature","geometry":{"type":"Point","coordinates":[115.244639,34.876842]},"properties":{"province":"山东省","city":"菏泽市","county":"曹县","community":"楼庄镇西谢集村","full_address":"山东省菏泽市曹县楼庄镇西谢集村","info":""}},{"type":"Feature","geometry":{"type":"Point","coordinates":[115.253076,34.869791]},"properties":{"province":"山东省","city":"菏泽市","county":"曹县","community":"楼庄镇韩庄村","full_address":"山东省菏泽市曹县楼庄镇韩庄村","info":""}},{"type":"Feature","geometry":{"type":"Point","coordinates":[115.288784,34.861347]},"properties":{"province":"山东省","city":"菏泽市","county":"曹县","community":"楼庄镇塔湾村","full_address":"山东省菏泽市曹县楼庄镇塔湾村","info":""}},{"type":"Feature","geometry":{"type":"Point","coordinates":[115.28742,34.858397]},"properties":{"province":"山东省","city":"菏泽市","county":"曹县","community":"楼庄镇南塔湾村宝宝乐幼儿园","full_address":"山东省菏泽市曹县楼庄镇南塔湾村宝宝乐幼儿园","info":""}},{"type":"Feature","geometry":{"type":"Point","coordinates":[115.256967,34.818347]},"properties":{"province":"河南省","city":"开封市","county":"兰考县","community":"许河乡张油坊村","full_address":"河南省开封市兰考县许河乡张油坊村","info":""}},{"type":"Feature","geometry":{"type":"Point","coordinates":[115.256352,34.825952]},"properties":{"province":"河南省","city":"开封市","county":"兰考县","community":"许河乡周庄寨村","full_address":"河南省开封市兰考县许河乡周庄寨村","info":""}},{"type":"Feature","geometry":{"type":"Point","coordinates":[113.589945,33.371668]},"properties":{"province":"河南省","city":"平顶山市","county":"舞钢市","community":"枣林镇瑞森鲜易进出口有限公司","full_address":"河南省平顶山市舞钢市枣林镇瑞森鲜易进出口有限公司","info":""}},{"type":"Feature","geometry":{"type":"Point","coordinates":[113.6673,33.383191]},"properties":{"province":"河南省","city":"平顶山市","county":"舞钢市","community":"枣林镇迎宾大道以西、黄庄村口以北区域","full_address":"河南省平顶山市舞钢市枣林镇迎宾大道以西、黄庄村口以北区域","info":""}},{"type":"Feature","geometry":{"type":"Point","coordinates":[113.602257,33.374779]},"properties":{"province":"河南省","city":"平顶山市","county":"舞钢市","community":"枣林镇张卜庄村","full_address":"河南省平顶山市舞钢市枣林镇张卜庄村","info":""}},{"type":"Feature","geometry":{"type":"Point","coordinates":[113.584943,33.374845]},"properties":{"province":"河南省","city":"平顶山市","county":"舞钢市","community":"枣林镇黄庄村","full_address":"河南省平顶山市舞钢市枣林镇黄庄村","info":""}},{"type":"Feature","geometry":{"type":"Point","coordinates":[113.593181,33.366249]},"properties":{"province":"河南省","city":"平顶山市","county":"舞钢市","community":"枣林镇枣林村","full_address":"河南省平顶山市舞钢市枣林镇枣林村","info":""}},{"type":"Feature","geometry":{"type":"Point","coordinates":[113.5373,33.32916]},"properties":{"province":"河南省","city":"平顶山市","county":"舞钢市","community":"枣林镇逸锦超市","full_address":"河南省平顶山市舞钢市枣林镇逸锦超市","info":""}},{"type":"Feature","geometry":{"type":"Point","coordinates":[113.555612,33.377955]},"properties":{"province":"河南省","city":"平顶山市","county":"舞钢市","community":"枣林镇韦庄村庆丽超市","full_address":"河南省平顶山市舞钢市枣林镇韦庄村庆丽超市","info":""}},{"type":"Feature","geometry":{"type":"Point","coordinates":[113.637663,33.363492]},"properties":{"province":"河南省","city":"平顶山市","county":"舞钢市","community":"枣林镇李堂村","full_address":"河南省平顶山市舞钢市枣林镇李堂村","info":""}},{"type":"Feature","geometry":{"type":"Point","coordinates":[113.616649,33.366461]},"properties":{"province":"河南省","city":"平顶山市","county":"舞钢市","community":"枣林镇后李村","full_address":"河南省平顶山市舞钢市枣林镇后李村","info":""}},{"type":"Feature","geometry":{"type":"Point","coordinates":[115.319299,34.812747]},"properties":{"province":"河南省","city":"商丘市","county":"民权县","community":"北关镇安李庄村","full_address":"河南省商丘市民权县北关镇安李庄村","info":""}},{"type":"Feature","geometry":{"type":"Point","coordinates":[114.112639,22.561391]},"properties":{"province":"广东省","city":"深圳市","county":"罗湖区","community":"笋岗街道“桃花园2-3-5栋、16栋”围合区域","full_address":"广东省深圳市罗湖区笋岗街道“桃花园2-3-5栋、16栋”围合区域","info":""}},{"type":"Feature","geometry":{"type":"Point","coordinates":[114.061817,22.513617]},"properties":{"province":"广东省","city":"深圳市","county":"福田区","community":"福保街道的圆梦园怡轩阁A单元、帝涛豪园第2栋、菩提路118号宿舍A单元","full_address":"广东省深圳市福田区福保街道的圆梦园怡轩阁A单元、帝涛豪园第2栋、菩提路118号宿舍A单元","info":""}},{"type":"Feature","geometry":{"type":"Point","coordinates":[114.053614,22.508736]},"properties":{"province":"广东省","city":"深圳市","county":"福田区","community":"福保街道福源花园二期D1栋","full_address":"广东省深圳市福田区福保街道福源花园二期D1栋","info":""}},{"type":"Feature","geometry":{"type":"Point","coordinates":[114.059851,22.510592]},"properties":{"province":"广东省","city":"深圳市","county":"福田区","community":"福保街道朗庭豪园","full_address":"广东省深圳市福田区福保街道朗庭豪园","info":""}},{"type":"Feature","geometry":{"type":"Point","coordinates":[114.058373,22.510125]},"properties":{"province":"广东省","city":"深圳市","county":"福田区","community":"福保街道帝涛豪园第1栋","full_address":"广东省深圳市福田区福保街道帝涛豪园第1栋","info":""}},{"type":"Feature","geometry":{"type":"Point","coordinates":[114.044108,22.55427]},"properties":{"province":"广东省","city":"深圳市","county":"福田区","community":"莲花街道万科金色家园第1-5栋","full_address":"广东省深圳市福田区莲花街道万科金色家园第1-5栋","info":""}},{"type":"Feature","geometry":{"type":"Point","coordinates":[114.043523,22.519757]},"properties":{"province":"广东省","city":"深圳市","county":"福田区","community":"沙头街道沙尾社区沙尾东村第10-13栋、第18-22栋","full_address":"广东省深圳市福田区沙头街道沙尾社区沙尾东村第10-13栋、第18-22栋","info":""}},{"type":"Feature","geometry":{"type":"Point","coordinates":[114.091544,22.538228]},"properties":{"province":"广东省","city":"深圳市","county":"福田区","community":"南园街道南园社区统建商住楼丁栋（不含裙楼部分）","full_address":"广东省深圳市福田区南园街道南园社区统建商住楼丁栋（不含裙楼部分）","info":""}},{"type":"Feature","geometry":{"type":"Point","coordinates":[114.092888,22.537251]},"properties":{"province":"广东省","city":"深圳市","county":"福田区","community":"南园街道沙埔头村东第57号-58号、第61号-64号","full_address":"广东省深圳市福田区南园街道沙埔头村东第57号-58号、第61号-64号","info":""}},{"type":"Feature","geometry":{"type":"Point","coordinates":[114.026098,22.526858]},"properties":{"province":"广东省","city":"深圳市","county":"福田区","community":"沙头街道下沙村三坊第9栋-13栋、第23栋-30栋、第41栋-47栋、第61栋","full_address":"广东省深圳市福田区沙头街道下沙村三坊第9栋-13栋、第23栋-30栋、第41栋-47栋、第61栋","info":""}},{"type":"Feature","geometry":{"type":"Point","coordinates":[114.055927,22.525172]},"properties":{"province":"广东省","city":"深圳市","county":"福田区","community":"福保街道明月社区天健阳光华苑B座","full_address":"广东省深圳市福田区福保街道明月社区天健阳光华苑B座","info":""}},{"type":"Feature","geometry":{"type":"Point","coordinates":[114.027835,22.522525]},"properties":{"province":"广东省","city":"深圳市","county":"福田区","community":"沙头街道鸿景湾名苑A座海逸阁","full_address":"广东省深圳市福田区沙头街道鸿景湾名苑A座海逸阁","info":""}},{"type":"Feature","geometry":{"type":"Point","coordinates":[113.97093,22.53218]},"properties":{"province":"广东省","city":"深圳市","county":"南山区","community":"沙河街道白石洲村东三坊、东四坊","full_address":"广东省深圳市南山区沙河街道白石洲村东三坊、东四坊","info":""}},{"type":"Feature","geometry":{"type":"Point","coordinates":[113.956745,22.559471]},"properties":{"province":"广东省","city":"深圳市","county":"南山区","community":"西丽街道松坪村三期东区","full_address":"广东省深圳市南山区西丽街道松坪村三期东区","info":""}},{"type":"Feature","geometry":{"type":"Point","coordinates":[113.93775,22.541192]},"properties":{"province":"广东省","city":"深圳市","county":"南山区","community":"粤海街道帝景园二期A、B单元","full_address":"广东省深圳市南山区粤海街道帝景园二期A、B单元","info":""}},{"type":"Feature","geometry":{"type":"Point","coordinates":[113.945845,22.554696]},"properties":{"province":"广东省","city":"深圳市","county":"南山区","community":"西丽街道科苑新区13栋","full_address":"广东省深圳市南山区西丽街道科苑新区13栋","info":""}},{"type":"Feature","geometry":{"type":"Point","coordinates":[113.840279,22.61228]},"properties":{"province":"广东省","city":"深圳市","county":"宝安区","community":"航城街道三围社区宝安大道5005号汇庭居","full_address":"广东省深圳市宝安区航城街道三围社区宝安大道5005号汇庭居","info":""}},{"type":"Feature","geometry":{"type":"Point","coordinates":[113.879372,22.559049]},"properties":{"province":"广东省","city":"深圳市","county":"宝安区","community":"新安街道海裕社区幸福海岸花园小区8栋A、B、C座","full_address":"广东省深圳市宝安区新安街道海裕社区幸福海岸花园小区8栋A、B、C座","info":""}},{"type":"Feature","geometry":{"type":"Point","coordinates":[114.113373,22.59756]},"properties":{"province":"广东省","city":"深圳市","county":"龙岗区","community":"布吉街道布吉社区横向南街13号、百花一路东四巷6号和7号、百花一路东三巷6号和7号","full_address":"广东省深圳市龙岗区布吉街道布吉社区横向南街13号、百花一路东四巷6号和7号、百花一路东三巷6号和7号","info":""}},{"type":"Feature","geometry":{"type":"Point","coordinates":[114.060828,22.638613]},"properties":{"province":"广东省","city":"深圳市","county":"龙岗区","community":"坂田街道坂田社区黄金山七巷12、13、14号","full_address":"广东省深圳市龙岗区坂田街道坂田社区黄金山七巷12、13、14号","info":""}},{"type":"Feature","geometry":{"type":"Point","coordinates":[114.183676,22.650978]},"properties":{"province":"广东省","city":"深圳市","county":"龙岗区","community":"横岗街道怡锦社区天颂雅苑2栋","full_address":"广东省深圳市龙岗区横岗街道怡锦社区天颂雅苑2栋","info":""}},{"type":"Feature","geometry":{"type":"Point","coordinates":[114.081291,22.65049]},"properties":{"province":"广东省","city":"深圳市","county":"龙岗区","community":"坂田街道新雪社区下雪村后山西二巷三号和四号，西三巷二号、三号和四号","full_address":"广东省深圳市龙岗区坂田街道新雪社区下雪村后山西二巷三号和四号，西三巷二号、三号和四号","info":""}},{"type":"Feature","geometry":{"type":"Point","coordinates":[114.067992,22.636679]},"properties":{"province":"广东省","city":"深圳市","county":"龙岗区","community":"坂田街道坂田社区吉华路534号楼栋","full_address":"广东省深圳市龙岗区坂田街道坂田社区吉华路534号楼栋","info":""}},{"type":"Feature","geometry":{"type":"Point","coordinates":[114.395133,22.743435]},"properties":{"province":"广东省","city":"深圳市","county":"坪山区","community":"坑梓街道金沙社区长隆二区一巷1、2、3号，长隆二区二巷1、2、3号","full_address":"广东省深圳市坪山区坑梓街道金沙社区长隆二区一巷1、2、3号，长隆二区二巷1、2、3号","info":""}},{"type":"Feature","geometry":{"type":"Point","coordinates":[114.419769,22.630873]},"properties":{"province":"广东省","city":"深圳市","county":"大鹏新区","community":"葵涌街道海语山林1栋AB单元","full_address":"广东省深圳市大鹏新区葵涌街道海语山林1栋AB单元","info":""}},{"type":"Feature","geometry":{"type":"Point","coordinates":[113.128692,23.035373]},"properties":{"province":"广东省","city":"佛山市","county":"禅城区","community":"祖庙街道佛平路34号、36号","full_address":"广东省佛山市禅城区祖庙街道佛平路34号、36号","info":""}},{"type":"Feature","geometry":{"type":"Point","coordinates":[114.325949,22.806648]},"properties":{"province":"广东省","city":"惠州市","county":"惠阳区","community":"新圩镇牧云溪谷四期","full_address":"广东省惠州市惠阳区新圩镇牧云溪谷四期","info":""}},{"type":"Feature","geometry":{"type":"Point","coordinates":[113.867442,23.135038]},"properties":{"province":"广东省","city":"惠州市","county":"博罗县","community":"石湾镇一品中央小区、蒸旺小笼包所在及左右两栋居民楼","full_address":"广东省惠州市博罗县石湾镇一品中央小区、蒸旺小笼包所在及左右两栋居民楼","info":""}},{"type":"Feature","geometry":{"type":"Point","coordinates":[109.166177,21.489755]},"properties":{"province":"广西壮族自治区","city":"北海市","county":"海城区","community":"高德街道北海大道以北、上海路以东、河南路以西、湖海路（规划路）以南（绿馨园、北海市市场监管局除外）","full_address":"广西壮族自治区北海市海城区高德街道北海大道以北、上海路以东、河南路以西、湖海路（规划路）以南（绿馨园、北海市市场监管局除外）","info":""}},{"type":"Feature","geometry":{"type":"Point","coordinates":[109.173429,21.488759]},"properties":{"province":"广西壮族自治区","city":"北海市","county":"海城区","community":"高德街道马栏村委会海枫和苑","full_address":"广西壮族自治区北海市海城区高德街道马栏村委会海枫和苑","info":""}},{"type":"Feature","geometry":{"type":"Point","coordinates":[109.156555,21.478396]},"properties":{"province":"广西壮族自治区","city":"北海市","county":"海城区","community":"西南大道以北 、河南路以西、上海路以东、北海大道以南（除民兵训练基地、妇幼保健院、市公安局）","full_address":"广西壮族自治区北海市海城区西南大道以北 、河南路以西、上海路以东、北海大道以南（除民兵训练基地、妇幼保健院、市公安局）","info":""}},{"type":"Feature","geometry":{"type":"Point","coordinates":[109.12775,21.472768]},"properties":{"province":"广西壮族自治区","city":"北海市","county":"海城区","community":"高德街道马栏村委会高德教育住宅小区第1排7幢第10至12号","full_address":"广西壮族自治区北海市海城区高德街道马栏村委会高德教育住宅小区第1排7幢第10至12号","info":""}},{"type":"Feature","geometry":{"type":"Point","coordinates":[109.369695,21.526371]},"properties":{"province":"广西壮族自治区","city":"北海市","county":"海城区","community":"高德街道开江村委会向海大道蔡屋村16号","full_address":"广西壮族自治区北海市海城区高德街道开江村委会向海大道蔡屋村16号","info":""}},{"type":"Feature","geometry":{"type":"Point","coordinates":[109.168536,21.51578]},"properties":{"province":"广西壮族自治区","city":"北海市","county":"海城区","community":"高德街道庙山社区、沙脚社区","full_address":"广西壮族自治区北海市海城区高德街道庙山社区、沙脚社区","info":""}},{"type":"Feature","geometry":{"type":"Point","coordinates":[109.169492,21.485289]},"properties":{"province":"广西壮族自治区","city":"北海市","county":"海城区","community":"高德街道马栏村委会南珠大道50号南珠园第二排5到7号、猛鸡特村","full_address":"广西壮族自治区北海市海城区高德街道马栏村委会南珠大道50号南珠园第二排5到7号、猛鸡特村","info":""}},{"type":"Feature","geometry":{"type":"Point","coordinates":[109.157149,21.49188]},"properties":{"province":"广西壮族自治区","city":"北海市","county":"海城区","community":"高德街道高农村委会回建区一期C106-108号","full_address":"广西壮族自治区北海市海城区高德街道高农村委会回建区一期C106-108号","info":""}},{"type":"Feature","geometry":{"type":"Point","coordinates":[109.184583,21.478787]},"properties":{"province":"广西壮族自治区","city":"北海市","county":"海城区","community":"高德街道马栏村委会马栏四队黄某娟家","full_address":"广西壮族自治区北海市海城区高德街道马栏村委会马栏四队黄某娟家","info":""}},{"type":"Feature","geometry":{"type":"Point","coordinates":[109.112717,21.461843]},"properties":{"province":"广西壮族自治区","city":"北海市","county":"海城区","community":"西街街道平安街社区恒大新城","full_address":"广西壮族自治区北海市海城区西街街道平安街社区恒大新城","info":""}},{"type":"Feature","geometry":{"type":"Point","coordinates":[109.110198,21.475013]},"properties":{"province":"广西壮族自治区","city":"北海市","county":"海城区","community":"海角街道四川路万家兴B栋","full_address":"广西壮族自治区北海市海城区海角街道四川路万家兴B栋","info":""}},{"type":"Feature","geometry":{"type":"Point","coordinates":[109.149044,21.479134]},"properties":{"province":"广西壮族自治区","city":"北海市","county":"海城区","community":"上海路以西、北海大道以北、湖南路以东、北部湾路以南（保持主干道路通行）","full_address":"广西壮族自治区北海市海城区上海路以西、北海大道以北、湖南路以东、北部湾路以南（保持主干道路通行）","info":""}},{"type":"Feature","geometry":{"type":"Point","coordinates":[109.137,21.470211]},"properties":{"province":"广西壮族自治区","city":"北海市","county":"海城区","community":"北海大道以南、重庆路以北、上海路以西、山湖海东墙以东（保持主干道路通行）","full_address":"广西壮族自治区北海市海城区北海大道以南、重庆路以北、上海路以西、山湖海东墙以东（保持主干道路通行）","info":""}},{"type":"Feature","geometry":{"type":"Point","coordinates":[109.144328,21.462619]},"properties":{"province":"广西壮族自治区","city":"北海市","county":"海城区","community":"驿马街道西南大道以南、广东路以东、圣煌广场东墙以西、铁路明渠以北（除北海市公共汽车有限公司）","full_address":"广西壮族自治区北海市海城区驿马街道西南大道以南、广东路以东、圣煌广场东墙以西、铁路明渠以北（除北海市公共汽车有限公司）","info":""}},{"type":"Feature","geometry":{"type":"Point","coordinates":[109.166287,21.473268]},"properties":{"province":"广西壮族自治区","city":"北海市","county":"海城区","community":"驿马街道重庆路以南、上海路以西、西南大道以北、湖南路以东（除看守所、蜀海善府小区、太平洋广场）","full_address":"广西壮族自治区北海市海城区驿马街道重庆路以南、上海路以西、西南大道以北、湖南路以东（除看守所、蜀海善府小区、太平洋广场）","info":""}},{"type":"Feature","geometry":{"type":"Point","coordinates":[109.142629,21.467862]},"properties":{"province":"广西壮族自治区","city":"北海市","county":"海城区","community":"驿马街道重庆路与湖南路交汇处逢时商场花园","full_address":"广西壮族自治区北海市海城区驿马街道重庆路与湖南路交汇处逢时商场花园","info":""}},{"type":"Feature","geometry":{"type":"Point","coordinates":[109.147556,21.46275]},"properties":{"province":"广西壮族自治区","city":"北海市","county":"海城区","community":"驿马街道驿马村委会半坡一区3号、半坡二区12号、17号","full_address":"广西壮族自治区北海市海城区驿马街道驿马村委会半坡一区3号、半坡二区12号、17号","info":""}},{"type":"Feature","geometry":{"type":"Point","coordinates":[109.139773,21.47706]},"properties":{"province":"广西壮族自治区","city":"北海市","county":"海城区","community":"驿马街道湖海路社区翟屋村53号、西一巷13号","full_address":"广西壮族自治区北海市海城区驿马街道湖海路社区翟屋村53号、西一巷13号","info":""}},{"type":"Feature","geometry":{"type":"Point","coordinates":[109.150741,21.461107]},"properties":{"province":"广西壮族自治区","city":"北海市","county":"海城区","community":"驿马街道驿马村委会牛角塘二区3巷","full_address":"广西壮族自治区北海市海城区驿马街道驿马村委会牛角塘二区3巷","info":""}},{"type":"Feature","geometry":{"type":"Point","coordinates":[109.126948,21.467307]},"properties":{"province":"广西壮族自治区","city":"北海市","county":"海城区","community":"驿马街道西塘社区陈文村路天成公寓","full_address":"广西壮族自治区北海市海城区驿马街道西塘社区陈文村路天成公寓","info":""}},{"type":"Feature","geometry":{"type":"Point","coordinates":[109.123111,21.460375]},"properties":{"province":"广西壮族自治区","city":"北海市","county":"海城区","community":"驿马街道其仓村东区97号","full_address":"广西壮族自治区北海市海城区驿马街道其仓村东区97号","info":""}},{"type":"Feature","geometry":{"type":"Point","coordinates":[109.135296,21.486802]},"properties":{"province":"广西壮族自治区","city":"北海市","county":"海城区","community":"东街街道北部湾东社区谭屋村","full_address":"广西壮族自治区北海市海城区东街街道北部湾东社区谭屋村","info":""}},{"type":"Feature","geometry":{"type":"Point","coordinates":[109.09887,21.457573]},"properties":{"province":"广西壮族自治区","city":"北海市","county":"海城区","community":"东街街道大囊7巷","full_address":"广西壮族自治区北海市海城区东街街道大囊7巷","info":""}},{"type":"Feature","geometry":{"type":"Point","coordinates":[109.130548,21.484915]},"properties":{"province":"广西壮族自治区","city":"北海市","county":"海城区","community":"东街街道茶亭路社区北部湾东路9号东大金星花苑2栋","full_address":"广西壮族自治区北海市海城区东街街道茶亭路社区北部湾东路9号东大金星花苑2栋","info":""}},{"type":"Feature","geometry":{"type":"Point","coordinates":[109.13298,21.477701]},"properties":{"province":"广西壮族自治区","city":"北海市","county":"海城区","community":"东街街道铜鼓里社区工商银行宿舍9栋","full_address":"广西壮族自治区北海市海城区东街街道铜鼓里社区工商银行宿舍9栋","info":""}},{"type":"Feature","geometry":{"type":"Point","coordinates":[109.125879,21.483245]},"properties":{"province":"广西壮族自治区","city":"北海市","county":"海城区","community":"中街街道新安街社区居委会光明里一至三巷","full_address":"广西壮族自治区北海市海城区中街街道新安街社区居委会光明里一至三巷","info":""}},{"type":"Feature","geometry":{"type":"Point","coordinates":[109.112708,21.48041]},"properties":{"province":"广西壮族自治区","city":"北海市","county":"海城区","community":"中街街道幸福里社区居委会新建四巷22至24号","full_address":"广西壮族自治区北海市海城区中街街道幸福里社区居委会新建四巷22至24号","info":""}},{"type":"Feature","geometry":{"type":"Point","coordinates":[109.169476,21.503913]},"properties":{"province":"广西壮族自治区","city":"北海市","county":"海城区","community":"高德街道开江村委会143号","full_address":"广西壮族自治区北海市海城区高德街道开江村委会143号","info":""}},{"type":"Feature","geometry":{"type":"Point","coordinates":[109.112308,21.457897]},"properties":{"province":"广西壮族自治区","city":"北海市","county":"海城区","community":"驿马街道白屋社区居委会四川南路以东亚村太保公寓","full_address":"广西壮族自治区北海市海城区驿马街道白屋社区居委会四川南路以东亚村太保公寓","info":""}},{"type":"Feature","geometry":{"type":"Point","coordinates":[109.14831,21.494117]},"properties":{"province":"广西壮族自治区","city":"北海市","county":"海城区","community":"高德街道高德一居社区高德西里四巷","full_address":"广西壮族自治区北海市海城区高德街道高德一居社区高德西里四巷","info":""}},{"type":"Feature","geometry":{"type":"Point","coordinates":[109.125706,21.45652]},"properties":{"province":"广西壮族自治区","city":"北海市","county":"海城区","community":"驿马街道白屋社区城市丽景","full_address":"广西壮族自治区北海市海城区驿马街道白屋社区城市丽景","info":""}},{"type":"Feature","geometry":{"type":"Point","coordinates":[109.10942,21.480956]},"properties":{"province":"广西壮族自治区","city":"北海市","county":"海城区","community":"海角街道天赐碧园13栋","full_address":"广西壮族自治区北海市海城区海角街道天赐碧园13栋","info":""}},{"type":"Feature","geometry":{"type":"Point","coordinates":[109.126178,21.477741]},"properties":{"province":"广西壮族自治区","city":"北海市","county":"海城区","community":"中街街道体育路名座小区8栋","full_address":"广西壮族自治区北海市海城区中街街道体育路名座小区8栋","info":""}},{"type":"Feature","geometry":{"type":"Point","coordinates":[109.129269,21.48208]},"properties":{"province":"广西壮族自治区","city":"北海市","county":"海城区","community":"东街街道振业小区4栋","full_address":"广西壮族自治区北海市海城区东街街道振业小区4栋","info":""}},{"type":"Feature","geometry":{"type":"Point","coordinates":[109.12638,21.47762]},"properties":{"province":"广西壮族自治区","city":"北海市","county":"海城区","community":"中街街道广东路油行村一巷20号左右各5间房","full_address":"广西壮族自治区北海市海城区中街街道广东路油行村一巷20号左右各5间房","info":""}},{"type":"Feature","geometry":{"type":"Point","coordinates":[109.101577,21.449556]},"properties":{"province":"广西壮族自治区","city":"北海市","county":"海城区","community":"驿马街道金湾银畔2栋","full_address":"广西壮族自治区北海市海城区驿马街道金湾银畔2栋","info":""}},{"type":"Feature","geometry":{"type":"Point","coordinates":[109.169476,21.503913]},"properties":{"province":"广西壮族自治区","city":"北海市","county":"海城区","community":"高德街道开江村委会屋仔村","full_address":"广西壮族自治区北海市海城区高德街道开江村委会屋仔村","info":""}},{"type":"Feature","geometry":{"type":"Point","coordinates":[109.082006,21.472601]},"properties":{"province":"广西壮族自治区","city":"北海市","county":"海城区","community":"地角街道昆明路社区地角沙坡一巷18-20号","full_address":"广西壮族自治区北海市海城区地角街道昆明路社区地角沙坡一巷18-20号","info":""}},{"type":"Feature","geometry":{"type":"Point","coordinates":[109.095603,21.456371]},"properties":{"province":"广西壮族自治区","city":"北海市","county":"海城区","community":"地角街道银湾社区西藏路中皇花园三巷12号周边5间房","full_address":"广西壮族自治区北海市海城区地角街道银湾社区西藏路中皇花园三巷12号周边5间房","info":""}},{"type":"Feature","geometry":{"type":"Point","coordinates":[109.138328,21.476389]},"properties":{"province":"广西壮族自治区","city":"北海市","county":"海城区","community":"东街街道湖海路社区居委会吉兴花园1栋","full_address":"广西壮族自治区北海市海城区东街街道湖海路社区居委会吉兴花园1栋","info":""}},{"type":"Feature","geometry":{"type":"Point","coordinates":[109.135075,21.474006]},"properties":{"province":"广西壮族自治区","city":"北海市","county":"海城区","community":"东街街道铜鼓新村建行宿舍1栋","full_address":"广西壮族自治区北海市海城区东街街道铜鼓新村建行宿舍1栋","info":""}},{"type":"Feature","geometry":{"type":"Point","coordinates":[109.107511,21.474134]},"properties":{"province":"广西壮族自治区","city":"北海市","county":"海城区","community":"中街街道北部湾西社区居委会三中东里三栋","full_address":"广西壮族自治区北海市海城区中街街道北部湾西社区居委会三中东里三栋","info":""}},{"type":"Feature","geometry":{"type":"Point","coordinates":[109.120748,21.454508]},"properties":{"province":"广西壮族自治区","city":"北海市","county":"海城区","community":"驿马街道站前路格林香海怡海轩2A","full_address":"广西壮族自治区北海市海城区驿马街道站前路格林香海怡海轩2A","info":""}},{"type":"Feature","geometry":{"type":"Point","coordinates":[109.106596,21.447776]},"properties":{"province":"广西壮族自治区","city":"北海市","county":"海城区","community":"海角街道云南路60号碧海新城小区1栋","full_address":"广西壮族自治区北海市海城区海角街道云南路60号碧海新城小区1栋","info":""}},{"type":"Feature","geometry":{"type":"Point","coordinates":[109.146471,21.489781]},"properties":{"province":"广西壮族自治区","city":"北海市","county":"海城区","community":"高德街道上海中路社区海语城小区6栋、11栋、17栋、19栋","full_address":"广西壮族自治区北海市海城区高德街道上海中路社区海语城小区6栋、11栋、17栋、19栋","info":""}},{"type":"Feature","geometry":{"type":"Point","coordinates":[109.165499,21.480503]},"properties":{"province":"广西壮族自治区","city":"北海市","county":"海城区","community":"高德街道马栏村委会北海大道东华美公寓","full_address":"广西壮族自治区北海市海城区高德街道马栏村委会北海大道东华美公寓","info":""}},{"type":"Feature","geometry":{"type":"Point","coordinates":[109.192212,21.524315]},"properties":{"province":"广西壮族自治区","city":"北海市","county":"海城区","community":"高德街道吉林路社区北海大道同和泊湾27栋","full_address":"广西壮族自治区北海市海城区高德街道吉林路社区北海大道同和泊湾27栋","info":""}},{"type":"Feature","geometry":{"type":"Point","coordinates":[109.145513,21.494473]},"properties":{"province":"广西壮族自治区","city":"北海市","county":"海城区","community":"高德街道上海北路社区星海湾花园帝海阁","full_address":"广西壮族自治区北海市海城区高德街道上海北路社区星海湾花园帝海阁","info":""}},{"type":"Feature","geometry":{"type":"Point","coordinates":[109.157307,21.496931]},"properties":{"province":"广西壮族自治区","city":"北海市","county":"海城区","community":"高德街道高农村委会新业花园四栋","full_address":"广西壮族自治区北海市海城区高德街道高农村委会新业花园四栋","info":""}},{"type":"Feature","geometry":{"type":"Point","coordinates":[109.122547,21.475613]},"properties":{"province":"广西壮族自治区","city":"北海市","county":"海城区","community":"中街街道公园路社区文明南路二巷36号、38号、40号、三巷47号、49号、51号","full_address":"广西壮族自治区北海市海城区中街街道公园路社区文明南路二巷36号、38号、40号、三巷47号、49号、51号","info":""}},{"type":"Feature","geometry":{"type":"Point","coordinates":[109.112708,21.48041]},"properties":{"province":"广西壮族自治区","city":"北海市","county":"海城区","community":"中街街道幸福里社区担水巷51号二楼","full_address":"广西壮族自治区北海市海城区中街街道幸福里社区担水巷51号二楼","info":""}},{"type":"Feature","geometry":{"type":"Point","coordinates":[109.105994,21.461073]},"properties":{"province":"广西壮族自治区","city":"北海市","county":"海城区","community":"西街街道云南南路社区石化路银苑小区39栋","full_address":"广西壮族自治区北海市海城区西街街道云南南路社区石化路银苑小区39栋","info":""}},{"type":"Feature","geometry":{"type":"Point","coordinates":[109.099803,21.476772]},"properties":{"province":"广西壮族自治区","city":"北海市","county":"海城区","community":"海角街道海角大道社区海角路云海小区3栋","full_address":"广西壮族自治区北海市海城区海角街道海角大道社区海角路云海小区3栋","info":""}},{"type":"Feature","geometry":{"type":"Point","coordinates":[109.160896,21.44696]},"properties":{"province":"广西壮族自治区","city":"北海市","county":"海城区","community":"驿马街道驿马村委会上海路园辉新都20栋","full_address":"广西壮族自治区北海市海城区驿马街道驿马村委会上海路园辉新都20栋","info":""}},{"type":"Feature","geometry":{"type":"Point","coordinates":[109.119,21.46581]},"properties":{"province":"广西壮族自治区","city":"北海市","county":"海城区","community":"驿马街道怡海新村社区嘉福文华苑5栋","full_address":"广西壮族自治区北海市海城区驿马街道怡海新村社区嘉福文华苑5栋","info":""}},{"type":"Feature","geometry":{"type":"Point","coordinates":[109.115216,21.464423]},"properties":{"province":"广西壮族自治区","city":"北海市","county":"海城区","community":"驿马街道怡海新村社区滨城大厦A栋","full_address":"广西壮族自治区北海市海城区驿马街道怡海新村社区滨城大厦A栋","info":""}},{"type":"Feature","geometry":{"type":"Point","coordinates":[109.121227,21.453329]},"properties":{"province":"广西壮族自治区","city":"北海市","county":"海城区","community":"驿马街道白屋社区格林香海华林居5栋","full_address":"广西壮族自治区北海市海城区驿马街道白屋社区格林香海华林居5栋","info":""}},{"type":"Feature","geometry":{"type":"Point","coordinates":[109.130244,21.461057]},"properties":{"province":"广西壮族自治区","city":"北海市","county":"海城区","community":"驿马街道西塘社区源丰路29号大成公寓b幢","full_address":"广西壮族自治区北海市海城区驿马街道西塘社区源丰路29号大成公寓b幢","info":""}},{"type":"Feature","geometry":{"type":"Point","coordinates":[109.123351,21.468253]},"properties":{"province":"广西壮族自治区","city":"北海市","county":"海城区","community":"中街街道塘仔里社区北海大道晏峰建材商城小区B栋","full_address":"广西壮族自治区北海市海城区中街街道塘仔里社区北海大道晏峰建材商城小区B栋","info":""}},{"type":"Feature","geometry":{"type":"Point","coordinates":[109.181333,21.532542]},"properties":{"province":"广西壮族自治区","city":"北海市","county":"海城区","community":"高德街道吉林路社区竹苑小区5幢","full_address":"广西壮族自治区北海市海城区高德街道吉林路社区竹苑小区5幢","info":""}},{"type":"Feature","geometry":{"type":"Point","coordinates":[109.138122,21.448701]},"properties":{"province":"广西壮族自治区","city":"北海市","county":"银海区","community":"银滩镇和兴村委细垌小区","full_address":"广西壮族自治区北海市银海区银滩镇和兴村委细垌小区","info":""}},{"type":"Feature","geometry":{"type":"Point","coordinates":[109.153203,21.418734]},"properties":{"province":"广西壮族自治区","city":"北海市","county":"银海区","community":"银滩镇北背岭回建区银新西二路42号","full_address":"广西壮族自治区北海市银海区银滩镇北背岭回建区银新西二路42号","info":""}},{"type":"Feature","geometry":{"type":"Point","coordinates":[109.198486,21.441105]},"properties":{"province":"广西壮族自治区","city":"北海市","county":"银海区","community":"银滩镇龙潭村委10队24号西面40米住宅楼","full_address":"广西壮族自治区北海市银海区银滩镇龙潭村委10队24号西面40米住宅楼","info":""}},{"type":"Feature","geometry":{"type":"Point","coordinates":[109.126447,21.424772]},"properties":{"province":"广西壮族自治区","city":"北海市","county":"银海区","community":"侨港镇东区4栋","full_address":"广西壮族自治区北海市银海区侨港镇东区4栋","info":""}},{"type":"Feature","geometry":{"type":"Point","coordinates":[109.22341,21.51259]},"properties":{"province":"广西壮族自治区","city":"北海市","county":"银海区","community":"平阳镇平阳村委五队","full_address":"广西壮族自治区北海市银海区平阳镇平阳村委五队","info":""}},{"type":"Feature","geometry":{"type":"Point","coordinates":[109.160794,21.425305]},"properties":{"province":"广西壮族自治区","city":"北海市","county":"银海区","community":"银滩镇咸田村委原玻璃厂宿舍区","full_address":"广西壮族自治区北海市银海区银滩镇咸田村委原玻璃厂宿舍区","info":""}},{"type":"Feature","geometry":{"type":"Point","coordinates":[109.12434,21.421011]},"properties":{"province":"广西壮族自治区","city":"北海市","county":"银海区","community":"侨港镇半岛小区","full_address":"广西壮族自治区北海市银海区侨港镇半岛小区","info":""}},{"type":"Feature","geometry":{"type":"Point","coordinates":[109.153431,21.791754]},"properties":{"province":"广西壮族自治区","city":"北海市","county":"合浦县","community":"石湾镇东江村委马沟老村","full_address":"广西壮族自治区北海市合浦县石湾镇东江村委马沟老村","info":""}},{"type":"Feature","geometry":{"type":"Point","coordinates":[109.433567,21.885625]},"properties":{"province":"广西壮族自治区","city":"北海市","county":"合浦县","community":"常乐镇皇后村委会中四队","full_address":"广西壮族自治区北海市合浦县常乐镇皇后村委会中四队","info":""}},{"type":"Feature","geometry":{"type":"Point","coordinates":[109.606866,21.762133]},"properties":{"province":"广西壮族自治区","city":"北海市","county":"合浦县","community":"公馆镇浪坡村麻老角林某玉住房片区","full_address":"广西壮族自治区北海市合浦县公馆镇浪坡村麻老角林某玉住房片区","info":""}},{"type":"Feature","geometry":{"type":"Point","coordinates":[109.156217,21.572773]},"properties":{"province":"广西壮族自治区","city":"北海市","county":"合浦县","community":"廉州镇烟楼村委水儿村三组","full_address":"广西壮族自治区北海市合浦县廉州镇烟楼村委水儿村三组","info":""}},{"type":"Feature","geometry":{"type":"Point","coordinates":[106.289741,29.431784]},"properties":{"province":"重庆市","city":"重庆市","county":"江津区","community":"双福珊瑚大道旁兴茂北座1号楼、2号楼、3号楼、4号楼","full_address":"重庆市重庆市江津区双福珊瑚大道旁兴茂北座1号楼、2号楼、3号楼、4号楼","info":""}},{"type":"Feature","geometry":{"type":"Point","coordinates":[106.29466,29.428977]},"properties":{"province":"重庆市","city":"重庆市","county":"江津区","community":"双福国际农贸城","full_address":"重庆市重庆市江津区双福国际农贸城","info":""}},{"type":"Feature","geometry":{"type":"Point","coordinates":[106.280489,29.42891]},"properties":{"province":"重庆市","city":"重庆市","county":"江津区","community":"双福街道恒大金碧天下3期672栋楼","full_address":"重庆市重庆市江津区双福街道恒大金碧天下3期672栋楼","info":""}},{"type":"Feature","geometry":{"type":"Point","coordinates":[106.272506,29.426051]},"properties":{"province":"重庆市","city":"重庆市","county":"江津区","community":"双福街道恒大金碧天下2期619栋楼","full_address":"重庆市重庆市江津区双福街道恒大金碧天下2期619栋楼","info":""}},{"type":"Feature","geometry":{"type":"Point","coordinates":[104.103625,30.644821]},"properties":{"province":"四川省","city":"成都市","county":"锦江区","community":"牛市口街道大田坎街162号蜀都花园小区22栋","full_address":"四川省成都市锦江区牛市口街道大田坎街162号蜀都花园小区22栋","info":""}},{"type":"Feature","geometry":{"type":"Point","coordinates":[104.044111,30.662795]},"properties":{"province":"四川省","city":"成都市","county":"青羊区","community":"草堂街道十二桥路16号附2号10、11栋","full_address":"四川省成都市青羊区草堂街道十二桥路16号附2号10、11栋","info":""}},{"type":"Feature","geometry":{"type":"Point","coordinates":[104.022442,30.680096]},"properties":{"province":"四川省","city":"成都市","county":"青羊区","community":"府南街道双清巷18号清水绿苑3栋","full_address":"四川省成都市青羊区府南街道双清巷18号清水绿苑3栋","info":""}},{"type":"Feature","geometry":{"type":"Point","coordinates":[104.022724,30.677895]},"properties":{"province":"四川省","city":"成都市","county":"青羊区","community":"府南街道清溪南街18、20号院11、12栋（清溪南街18、20号）","full_address":"四川省成都市青羊区府南街道清溪南街18、20号院11、12栋（清溪南街18、20号）","info":""}},{"type":"Feature","geometry":{"type":"Point","coordinates":[104.082878,30.670446]},"properties":{"province":"四川省","city":"成都市","county":"青羊区","community":"草市街道东通顺街28号院1栋（东通顺街28号）","full_address":"四川省成都市青羊区草市街道东通顺街28号院1栋（东通顺街28号）","info":""}},{"type":"Feature","geometry":{"type":"Point","coordinates":[103.969812,30.676614]},"properties":{"province":"四川省","city":"成都市","county":"青羊区","community":"黄田坝街道清江美庐7栋（万花一路301号）","full_address":"四川省成都市青羊区黄田坝街道清江美庐7栋（万花一路301号）","info":""}},{"type":"Feature","geometry":{"type":"Point","coordinates":[104.113444,30.769332]},"properties":{"province":"四川省","city":"成都市","county":"金牛区","community":"天回镇街道金华6组购地自建户及企业房产所在区域","full_address":"四川省成都市金牛区天回镇街道金华6组购地自建户及企业房产所在区域","info":""}},{"type":"Feature","geometry":{"type":"Point","coordinates":[104.036556,30.688252]},"properties":{"province":"四川省","city":"成都市","county":"金牛区","community":"茶店子街道五里墩东一巷 1 号院 1、2 栋包括底商","full_address":"四川省成都市金牛区茶店子街道五里墩东一巷 1 号院 1、2 栋包括底商","info":""}},{"type":"Feature","geometry":{"type":"Point","coordinates":[104.026223,30.692428]},"properties":{"province":"四川省","city":"成都市","county":"金牛区","community":"茶店子街道营康西路427号附1号小区1-6单元及底商","full_address":"四川省成都市金牛区茶店子街道营康西路427号附1号小区1-6单元及底商","info":""}},{"type":"Feature","geometry":{"type":"Point","coordinates":[104.087382,30.683714]},"properties":{"province":"四川省","city":"成都市","county":"金牛区","community":"驷马桥街道府青路1段36号大院38栋","full_address":"四川省成都市金牛区驷马桥街道府青路1段36号大院38栋","info":""}},{"type":"Feature","geometry":{"type":"Point","coordinates":[104.116833,30.763275]},"properties":{"province":"四川省","city":"成都市","county":"金牛区","community":"天回镇街道明月村五组175号，病例住房所在的一条街左右两排自建房区域","full_address":"四川省成都市金牛区天回镇街道明月村五组175号，病例住房所在的一条街左右两排自建房区域","info":""}},{"type":"Feature","geometry":{"type":"Point","coordinates":[104.078236,30.642304]},"properties":{"province":"四川省","city":"成都市","county":"武侯区","community":"望江路街道锦宏骏苑北区4-5栋（龙江路19号）","full_address":"四川省成都市武侯区望江路街道锦宏骏苑北区4-5栋（龙江路19号）","info":""}},{"type":"Feature","geometry":{"type":"Point","coordinates":[103.992256,30.644014]},"properties":{"province":"四川省","city":"成都市","county":"武侯区","community":"机投桥街道果堰街100号10栋","full_address":"四川省成都市武侯区机投桥街道果堰街100号10栋","info":""}},{"type":"Feature","geometry":{"type":"Point","coordinates":[104.120063,30.679998]},"properties":{"province":"四川省","city":"成都市","county":"成华区","community":"府青路街道关家苑2-8栋（二仙桥南一路11号），包括楼栋底层商户","full_address":"四川省成都市成华区府青路街道关家苑2-8栋（二仙桥南一路11号），包括楼栋底层商户","info":""}},{"type":"Feature","geometry":{"type":"Point","coordinates":[104.181507,30.695736]},"properties":{"province":"四川省","city":"成都市","county":"成华区","community":"龙潭街道水乡嘉苑4栋（华裕路9号）","full_address":"四川省成都市成华区龙潭街道水乡嘉苑4栋（华裕路9号）","info":""}},{"type":"Feature","geometry":{"type":"Point","coordinates":[104.181858,30.694966]},"properties":{"province":"四川省","city":"成都市","county":"成华区","community":"龙潭工业园区安置房5期9栋（华裕路26号）","full_address":"四川省成都市成华区龙潭工业园区安置房5期9栋（华裕路26号）","info":""}},{"type":"Feature","geometry":{"type":"Point","coordinates":[104.11049,30.725632]},"properties":{"province":"四川省","city":"成都市","county":"成华区","community":"熊猫大道壹号院2栋、8栋（熊猫大道11号）","full_address":"四川省成都市成华区熊猫大道壹号院2栋、8栋（熊猫大道11号）","info":""}},{"type":"Feature","geometry":{"type":"Point","coordinates":[104.113156,30.675843]},"properties":{"province":"四川省","city":"成都市","county":"成华区","community":"跳蹬河街道新禧苑6栋、7栋（建设北路三段10号），包括楼栋底层商户","full_address":"四川省成都市成华区跳蹬河街道新禧苑6栋、7栋（建设北路三段10号），包括楼栋底层商户","info":""}},{"type":"Feature","geometry":{"type":"Point","coordinates":[104.122555,30.672745]},"properties":{"province":"四川省","city":"成都市","county":"成华区","community":"跳蹬河街道红枫岭1期1栋（建设南路98号），包括楼栋底层商户","full_address":"四川省成都市成华区跳蹬河街道红枫岭1期1栋（建设南路98号），包括楼栋底层商户","info":""}},{"type":"Feature","geometry":{"type":"Point","coordinates":[104.100579,30.678889]},"properties":{"province":"四川省","city":"成都市","county":"成华区","community":"猛追湾街道建设北路二段5号附1号35栋","full_address":"四川省成都市成华区猛追湾街道建设北路二段5号附1号35栋","info":""}},{"type":"Feature","geometry":{"type":"Point","coordinates":[104.156841,30.702919]},"properties":{"province":"四川省","city":"成都市","county":"成华区","community":"龙潭街道平祥雅居3栋、5栋（龙瑞一路1号）","full_address":"四川省成都市成华区龙潭街道平祥雅居3栋、5栋（龙瑞一路1号）","info":""}},{"type":"Feature","geometry":{"type":"Point","coordinates":[104.118526,30.681475]},"properties":{"province":"四川省","city":"成都市","county":"成华区","community":"府青路街道祥和苑6栋(文德路231号)","full_address":"四川省成都市成华区府青路街道祥和苑6栋(文德路231号)","info":""}},{"type":"Feature","geometry":{"type":"Point","coordinates":[104.110349,30.674895]},"properties":{"province":"四川省","city":"成都市","county":"成华区","community":"跳蹬河街道龙湖三千城1期3栋","full_address":"四川省成都市成华区跳蹬河街道龙湖三千城1期3栋","info":""}},{"type":"Feature","geometry":{"type":"Point","coordinates":[104.160595,30.674292]},"properties":{"province":"四川省","city":"成都市","county":"成华区","community":"龙潭街道丛树家园1栋","full_address":"四川省成都市成华区龙潭街道丛树家园1栋","info":""}},{"type":"Feature","geometry":{"type":"Point","coordinates":[104.117784,30.678792]},"properties":{"province":"四川省","city":"成都市","county":"成华区","community":"府青路街道建设北路三段233号及小区入口一楼商铺","full_address":"四川省成都市成华区府青路街道建设北路三段233号及小区入口一楼商铺","info":""}},{"type":"Feature","geometry":{"type":"Point","coordinates":[104.118037,30.680561]},"properties":{"province":"四川省","city":"成都市","county":"成华区","community":"府青路街道小新华苑(二仙桥南一路2号)","full_address":"四川省成都市成华区府青路街道小新华苑(二仙桥南一路2号)","info":""}},{"type":"Feature","geometry":{"type":"Point","coordinates":[104.118859,30.680609]},"properties":{"province":"四川省","city":"成都市","county":"成华区","community":"府青路街道大新华苑(二仙桥南一路1号)","full_address":"四川省成都市成华区府青路街道大新华苑(二仙桥南一路1号)","info":""}},{"type":"Feature","geometry":{"type":"Point","coordinates":[104.137907,30.683814]},"properties":{"province":"四川省","city":"成都市","county":"成华区","community":"二仙桥街道机车厂宿舍71栋","full_address":"四川省成都市成华区二仙桥街道机车厂宿舍71栋","info":""}},{"type":"Feature","geometry":{"type":"Point","coordinates":[104.193841,30.580386]},"properties":{"province":"四川省","city":"成都市","county":"龙泉驿区","community":"炜岸城40、41栋（含底商）（龙泉驿区大面街道驿都西路3666号)","full_address":"四川省成都市龙泉驿区炜岸城40、41栋（含底商）（龙泉驿区大面街道驿都西路3666号)","info":""}},{"type":"Feature","geometry":{"type":"Point","coordinates":[104.310748,30.61869]},"properties":{"province":"四川省","city":"成都市","county":"龙泉驿区","community":"同安街道丽阳路208号丽阳社区D区13栋（含底商）","full_address":"四川省成都市龙泉驿区同安街道丽阳路208号丽阳社区D区13栋（含底商）","info":""}},{"type":"Feature","geometry":{"type":"Point","coordinates":[104.274632,30.556507]},"properties":{"province":"四川省","city":"成都市","county":"龙泉驿区","community":"东安街道吾悦华府7栋（含底商）","full_address":"四川省成都市龙泉驿区东安街道吾悦华府7栋（含底商）","info":""}},{"type":"Feature","geometry":{"type":"Point","coordinates":[104.249444,30.643198]},"properties":{"province":"四川省","city":"成都市","county":"龙泉驿区","community":"西河街道黄泥堰路577号馨竹苑5栋（含底商）","full_address":"四川省成都市龙泉驿区西河街道黄泥堰路577号馨竹苑5栋（含底商）","info":""}},{"type":"Feature","geometry":{"type":"Point","coordinates":[104.271732,30.570236]},"properties":{"province":"四川省","city":"成都市","county":"龙泉驿区","community":"龙泉街道文豪世苑2栋（含底商）","full_address":"四川省成都市龙泉驿区龙泉街道文豪世苑2栋（含底商）","info":""}},{"type":"Feature","geometry":{"type":"Point","coordinates":[104.170845,30.568362]},"properties":{"province":"四川省","city":"成都市","county":"龙泉驿区","community":"大面街道车城西五路99号金茂悦龙山小区9栋","full_address":"四川省成都市龙泉驿区大面街道车城西五路99号金茂悦龙山小区9栋","info":""}},{"type":"Feature","geometry":{"type":"Point","coordinates":[104.277948,30.554557]},"properties":{"province":"四川省","city":"成都市","county":"龙泉驿区","community":"龙泉街道东大路社区大十三路50号龙兴苑小区","full_address":"四川省成都市龙泉驿区龙泉街道东大路社区大十三路50号龙兴苑小区","info":""}},{"type":"Feature","geometry":{"type":"Point","coordinates":[104.185896,30.661714]},"properties":{"province":"四川省","city":"成都市","county":"龙泉驿区","community":"十陵街道来龙村江华路314号楼（含底商）","full_address":"四川省成都市龙泉驿区十陵街道来龙村江华路314号楼（含底商）","info":""}},{"type":"Feature","geometry":{"type":"Point","coordinates":[104.244592,30.53443]},"properties":{"province":"四川省","city":"成都市","county":"龙泉驿区","community":"柏合街道黎明社区鲸龙路926号黎明小区2栋（含底商）","full_address":"四川省成都市龙泉驿区柏合街道黎明社区鲸龙路926号黎明小区2栋（含底商）","info":""}},{"type":"Feature","geometry":{"type":"Point","coordinates":[104.259054,30.574379]},"properties":{"province":"四川省","city":"成都市","county":"龙泉驿区","community":"龙泉街道双龙路488号怡和新城E1区8栋（含底商）","full_address":"四川省成都市龙泉驿区龙泉街道双龙路488号怡和新城E1区8栋（含底商）","info":""}},{"type":"Feature","geometry":{"type":"Point","coordinates":[104.193334,30.566071]},"properties":{"province":"四川省","city":"成都市","county":"龙泉驿区","community":"大面街道龙城大道816号中国电建云立方小区9栋（含底商）","full_address":"四川省成都市龙泉驿区大面街道龙城大道816号中国电建云立方小区9栋（含底商）","info":""}},{"type":"Feature","geometry":{"type":"Point","coordinates":[104.263643,30.561577]},"properties":{"province":"四川省","city":"成都市","county":"龙泉驿区","community":"龙泉街道驿都东路876号蓝天小区（含底商）","full_address":"四川省成都市龙泉驿区龙泉街道驿都东路876号蓝天小区（含底商）","info":""}},{"type":"Feature","geometry":{"type":"Point","coordinates":[104.27981,30.569392]},"properties":{"province":"四川省","city":"成都市","county":"龙泉驿区","community":"龙泉街道文景街218号名景花园2栋（含底商）","full_address":"四川省成都市龙泉驿区龙泉街道文景街218号名景花园2栋（含底商）","info":""}},{"type":"Feature","geometry":{"type":"Point","coordinates":[104.166639,30.620622]},"properties":{"province":"四川省","city":"成都市","county":"龙泉驿区","community":"大面街道蒲草路1688号五星嘉园小区2栋（含底商）","full_address":"四川省成都市龙泉驿区大面街道蒲草路1688号五星嘉园小区2栋（含底商）","info":""}},{"type":"Feature","geometry":{"type":"Point","coordinates":[104.253802,30.538025]},"properties":{"province":"四川省","city":"成都市","county":"龙泉驿区","community":"柏合街道鲸龙路777号东山领地9栋（含底商）","full_address":"四川省成都市龙泉驿区柏合街道鲸龙路777号东山领地9栋（含底商）","info":""}},{"type":"Feature","geometry":{"type":"Point","coordinates":[104.227246,30.535637]},"properties":{"province":"四川省","city":"成都市","county":"龙泉驿区","community":"柏合街道车城东五路129号成都天兴电气有限公司、成都瑞森特汽车零部件有限公司","full_address":"四川省成都市龙泉驿区柏合街道车城东五路129号成都天兴电气有限公司、成都瑞森特汽车零部件有限公司","info":""}},{"type":"Feature","geometry":{"type":"Point","coordinates":[104.262197,30.572626]},"properties":{"province":"四川省","city":"成都市","county":"龙泉驿区","community":"龙泉街道双龙路388号怡和新城F2区13栋（含底商)","full_address":"四川省成都市龙泉驿区龙泉街道双龙路388号怡和新城F2区13栋（含底商)","info":""}},{"type":"Feature","geometry":{"type":"Point","coordinates":[104.272931,30.570466]},"properties":{"province":"四川省","city":"成都市","county":"龙泉驿区","community":"龙泉街道龙都南路756号金色逸景小区4栋","full_address":"四川省成都市龙泉驿区龙泉街道龙都南路756号金色逸景小区4栋","info":""}},{"type":"Feature","geometry":{"type":"Point","coordinates":[104.268381,30.548461]},"properties":{"province":"四川省","city":"成都市","county":"龙泉驿区","community":"龙泉街道星光东路400号格兰玺城2栋","full_address":"四川省成都市龙泉驿区龙泉街道星光东路400号格兰玺城2栋","info":""}},{"type":"Feature","geometry":{"type":"Point","coordinates":[104.248833,30.570167]},"properties":{"province":"四川省","city":"成都市","county":"龙泉驿区","community":"龙泉街道怡和新居1期17栋","full_address":"四川省成都市龙泉驿区龙泉街道怡和新居1期17栋","info":""}},{"type":"Feature","geometry":{"type":"Point","coordinates":[104.261011,30.563962]},"properties":{"province":"四川省","city":"成都市","county":"龙泉驿区","community":"龙泉街道北泉路41号鑫园小区1栋","full_address":"四川省成都市龙泉驿区龙泉街道北泉路41号鑫园小区1栋","info":""}},{"type":"Feature","geometry":{"type":"Point","coordinates":[104.26174,30.566513]},"properties":{"province":"四川省","city":"成都市","county":"龙泉驿区","community":"龙泉街道卧龙街46号瑞丰苑2栋","full_address":"四川省成都市龙泉驿区龙泉街道卧龙街46号瑞丰苑2栋","info":""}},{"type":"Feature","geometry":{"type":"Point","coordinates":[104.171857,30.781946]},"properties":{"province":"四川省","city":"成都市","county":"新都区","community":"育英路与绕城大道南一段交汇处东侧观澜鹭岛一期7栋（含底层商铺）","full_address":"四川省成都市新都区育英路与绕城大道南一段交汇处东侧观澜鹭岛一期7栋（含底层商铺）","info":""}},{"type":"Feature","geometry":{"type":"Point","coordinates":[104.089394,30.754873]},"properties":{"province":"四川省","city":"成都市","county":"新都区","community":"新都区甫家一路东段718号钰邸华府2栋（含底层商铺） ","full_address":"四川省成都市新都区新都区甫家一路东段718号钰邸华府2栋（含底层商铺） ","info":""}},{"type":"Feature","geometry":{"type":"Point","coordinates":[104.121911,30.769696]},"properties":{"province":"四川省","city":"成都市","county":"新都区","community":"蓉都大道天河路天府江南A区13栋（含底层商铺）","full_address":"四川省成都市新都区蓉都大道天河路天府江南A区13栋（含底层商铺）","info":""}},{"type":"Feature","geometry":{"type":"Point","coordinates":[104.121207,30.768051]},"properties":{"province":"四川省","city":"成都市","county":"新都区","community":"蓉都大道天河路天府江南B区2栋（含底层商铺）","full_address":"四川省成都市新都区蓉都大道天河路天府江南B区2栋（含底层商铺）","info":""}},{"type":"Feature","geometry":{"type":"Point","coordinates":[104.120653,30.767592]},"properties":{"province":"四川省","city":"成都市","county":"新都区","community":"蓉都大道天河路天府江南C区18栋（含底层商铺）","full_address":"四川省成都市新都区蓉都大道天河路天府江南C区18栋（含底层商铺）","info":""}},{"type":"Feature","geometry":{"type":"Point","coordinates":[104.077061,30.572603]},"properties":{"province":"四川省","city":"成都市","county":"高新区","community":"桂溪街道复地金融岛5栋（高新区环岛路1200号）","full_address":"四川省成都市高新区桂溪街道复地金融岛5栋（高新区环岛路1200号）","info":""}},{"type":"Feature","geometry":{"type":"Point","coordinates":[103.372863,29.90489]},"properties":{"province":"四川省","city":"眉山市","county":"洪雅县","community":"七里坪镇度假区D区（17栋、20栋），E1区（12栋），F2区（南1栋、南5栋），F3区（16栋、18栋、32栋），F4区（25栋、35栋），F5区（13栋）","full_address":"四川省眉山市洪雅县七里坪镇度假区D区（17栋、20栋），E1区（12栋），F2区（南1栋、南5栋），F3区（16栋、18栋、32栋），F4区（25栋、35栋），F5区（13栋）","info":""}},{"type":"Feature","geometry":{"type":"Point","coordinates":[103.372863,29.90489]},"properties":{"province":"四川省","city":"眉山市","county":"洪雅县","community":"七里坪镇度假区七里园路88号、215号","full_address":"四川省眉山市洪雅县七里坪镇度假区七里园路88号、215号","info":""}},{"type":"Feature","geometry":{"type":"Point","coordinates":[103.841022,36.033804]},"properties":{"province":"甘肃省","city":"兰州市","county":"城关区","community":"铁路西村街道达祥南苑小区","full_address":"甘肃省兰州市城关区铁路西村街道达祥南苑小区","info":""}},{"type":"Feature","geometry":{"type":"Point","coordinates":[103.920682,36.042068]},"properties":{"province":"甘肃省","city":"兰州市","county":"城关区","community":"东岗街道兰泰小区院内48中学","full_address":"甘肃省兰州市城关区东岗街道兰泰小区院内48中学","info":""}},{"type":"Feature","geometry":{"type":"Point","coordinates":[103.843159,36.031841]},"properties":{"province":"甘肃省","city":"兰州市","county":"城关区","community":"火车站街道铁路设计院小区","full_address":"甘肃省兰州市城关区火车站街道铁路设计院小区","info":""}},{"type":"Feature","geometry":{"type":"Point","coordinates":[103.828078,36.040091]},"properties":{"province":"甘肃省","city":"兰州市","county":"城关区","community":"五泉街道五泉下广场马金龙麻辣烫店","full_address":"甘肃省兰州市城关区五泉街道五泉下广场马金龙麻辣烫店","info":""}},{"type":"Feature","geometry":{"type":"Point","coordinates":[103.815196,36.081217]},"properties":{"province":"甘肃省","city":"兰州市","county":"城关区","community":"九洲片区（含新九洲花园二号区以北，含兰州奔马集团九州一期保障房以南，含兰州广泽包装印刷有限公司以东，含天源9号B区以西）","full_address":"甘肃省兰州市城关区九洲片区（含新九洲花园二号区以北，含兰州奔马集团九州一期保障房以南，含兰州广泽包装印刷有限公司以东，含天源9号B区以西）","info":""}},{"type":"Feature","geometry":{"type":"Point","coordinates":[103.838441,36.042587]},"properties":{"province":"甘肃省","city":"兰州市","county":"城关区","community":"五泉街道中信倚泉苑小区","full_address":"甘肃省兰州市城关区五泉街道中信倚泉苑小区","info":""}},{"type":"Feature","geometry":{"type":"Point","coordinates":[103.926541,36.044175]},"properties":{"province":"甘肃省","city":"兰州市","county":"城关区","community":"东岗街道东岗世纪新村D区4-3栋","full_address":"甘肃省兰州市城关区东岗街道东岗世纪新村D区4-3栋","info":""}},{"type":"Feature","geometry":{"type":"Point","coordinates":[103.8467,36.05585]},"properties":{"province":"甘肃省","city":"兰州市","county":"城关区","community":"东岗西路街道平凉路484号","full_address":"甘肃省兰州市城关区东岗西路街道平凉路484号","info":""}},{"type":"Feature","geometry":{"type":"Point","coordinates":[103.884959,36.043762]},"properties":{"province":"甘肃省","city":"兰州市","county":"城关区","community":"拱星墩街道东岗东路2036号","full_address":"甘肃省兰州市城关区拱星墩街道东岗东路2036号","info":""}},{"type":"Feature","geometry":{"type":"Point","coordinates":[103.868222,36.06074]},"properties":{"province":"甘肃省","city":"兰州市","county":"城关区","community":"雁南街道雁南路区委家属院2122号9号楼","full_address":"甘肃省兰州市城关区雁南街道雁南路区委家属院2122号9号楼","info":""}},{"type":"Feature","geometry":{"type":"Point","coordinates":[103.826129,36.068239]},"properties":{"province":"甘肃省","city":"兰州市","county":"城关区","community":"草场街街道元森石榴园","full_address":"甘肃省兰州市城关区草场街街道元森石榴园","info":""}},{"type":"Feature","geometry":{"type":"Point","coordinates":[103.878992,36.051048]},"properties":{"province":"甘肃省","city":"兰州市","county":"城关区","community":"雁南街道锦华医院","full_address":"甘肃省兰州市城关区雁南街道锦华医院","info":""}},{"type":"Feature","geometry":{"type":"Point","coordinates":[103.866,36.057]},"properties":{"province":"甘肃省","city":"兰州市","county":"城关区","community":"雁南街道南河路大雁滩村自建房片区（南河路以北、雁西路以西、雁南路以南、警察学院家属院以东)","full_address":"甘肃省兰州市城关区雁南街道南河路大雁滩村自建房片区（南河路以北、雁西路以西、雁南路以南、警察学院家属院以东)","info":""}},{"type":"Feature","geometry":{"type":"Point","coordinates":[103.866304,36.064377]},"properties":{"province":"甘肃省","city":"兰州市","county":"城关区","community":"雁南街道滩尖子自建房片区（雁滩公园以北、金地花园以西、金鹏大厦以北、嘉盛园以北)","full_address":"甘肃省兰州市城关区雁南街道滩尖子自建房片区（雁滩公园以北、金地花园以西、金鹏大厦以北、嘉盛园以北)","info":""}},{"type":"Feature","geometry":{"type":"Point","coordinates":[103.876986,36.053304]},"properties":{"province":"甘肃省","city":"兰州市","county":"城关区","community":"雁南街道张苏滩水果批发市场","full_address":"甘肃省兰州市城关区雁南街道张苏滩水果批发市场","info":""}},{"type":"Feature","geometry":{"type":"Point","coordinates":[103.876986,36.053304]},"properties":{"province":"甘肃省","city":"兰州市","county":"城关区","community":"雁南街道张苏滩自建房片区","full_address":"甘肃省兰州市城关区雁南街道张苏滩自建房片区","info":""}},{"type":"Feature","geometry":{"type":"Point","coordinates":[103.90784,36.053803]},"properties":{"province":"甘肃省","city":"兰州市","county":"城关区","community":"雁园街道刘家滩自建房片区（金徽财富中心以西、飞雁街以东、温馨家园以南、高新创新园区以北)","full_address":"甘肃省兰州市城关区雁园街道刘家滩自建房片区（金徽财富中心以西、飞雁街以东、温馨家园以南、高新创新园区以北)","info":""}},{"type":"Feature","geometry":{"type":"Point","coordinates":[103.892322,36.047932]},"properties":{"province":"甘肃省","city":"兰州市","county":"城关区","community":"拱星墩街道三易花园","full_address":"甘肃省兰州市城关区拱星墩街道三易花园","info":""}},{"type":"Feature","geometry":{"type":"Point","coordinates":[103.889335,36.049951]},"properties":{"province":"甘肃省","city":"兰州市","county":"城关区","community":"拱星墩街道欣欣茗园","full_address":"甘肃省兰州市城关区拱星墩街道欣欣茗园","info":""}},{"type":"Feature","geometry":{"type":"Point","coordinates":[103.834446,36.038722]},"properties":{"province":"甘肃省","city":"兰州市","county":"城关区","community":"铁路西村街道居安小区中区","full_address":"甘肃省兰州市城关区铁路西村街道居安小区中区","info":""}},{"type":"Feature","geometry":{"type":"Point","coordinates":[103.877168,36.051256]},"properties":{"province":"甘肃省","city":"兰州市","county":"城关区","community":"雁南街道恒孚小区","full_address":"甘肃省兰州市城关区雁南街道恒孚小区","info":""}},{"type":"Feature","geometry":{"type":"Point","coordinates":[103.878983,36.060588]},"properties":{"province":"甘肃省","city":"兰州市","county":"城关区","community":"雁南街道嘉盛园D区","full_address":"甘肃省兰州市城关区雁南街道嘉盛园D区","info":""}},{"type":"Feature","geometry":{"type":"Point","coordinates":[103.875022,36.051971]},"properties":{"province":"甘肃省","city":"兰州市","county":"城关区","community":"雁南街道陇丰食品厂家属院","full_address":"甘肃省兰州市城关区雁南街道陇丰食品厂家属院","info":""}},{"type":"Feature","geometry":{"type":"Point","coordinates":[103.858553,36.065916]},"properties":{"province":"甘肃省","city":"兰州市","county":"城关区","community":"雁南街道滩尖子花园小区","full_address":"甘肃省兰州市城关区雁南街道滩尖子花园小区","info":""}},{"type":"Feature","geometry":{"type":"Point","coordinates":[103.864632,36.061284]},"properties":{"province":"甘肃省","city":"兰州市","county":"城关区","community":"雁南街道张苏滩工商局家属院","full_address":"甘肃省兰州市城关区雁南街道张苏滩工商局家属院","info":""}},{"type":"Feature","geometry":{"type":"Point","coordinates":[103.873564,36.056364]},"properties":{"province":"甘肃省","city":"兰州市","county":"城关区","community":"雁南街道雁南路安居小区","full_address":"甘肃省兰州市城关区雁南街道雁南路安居小区","info":""}},{"type":"Feature","geometry":{"type":"Point","coordinates":[103.870377,36.062074]},"properties":{"province":"甘肃省","city":"兰州市","county":"城关区","community":"雁南街道雁滩路自建房片区","full_address":"甘肃省兰州市城关区雁南街道雁滩路自建房片区","info":""}},{"type":"Feature","geometry":{"type":"Point","coordinates":[103.83474,36.074455]},"properties":{"province":"甘肃省","city":"兰州市","county":"城关区","community":"草场街街道兰州十中家属院","full_address":"甘肃省兰州市城关区草场街街道兰州十中家属院","info":""}},{"type":"Feature","geometry":{"type":"Point","coordinates":[103.881116,36.048177]},"properties":{"province":"甘肃省","city":"兰州市","county":"城关区","community":"拱星墩街道安兴小区","full_address":"甘肃省兰州市城关区拱星墩街道安兴小区","info":""}},{"type":"Feature","geometry":{"type":"Point","coordinates":[103.870837,36.053073]},"properties":{"province":"甘肃省","city":"兰州市","county":"城关区","community":"拱星墩街道南河嘉园","full_address":"甘肃省兰州市城关区拱星墩街道南河嘉园","info":""}},{"type":"Feature","geometry":{"type":"Point","coordinates":[103.874803,36.062097]},"properties":{"province":"甘肃省","city":"兰州市","county":"城关区","community":"雁北街道雁京家园","full_address":"甘肃省兰州市城关区雁北街道雁京家园","info":""}},{"type":"Feature","geometry":{"type":"Point","coordinates":[103.874044,36.063123]},"properties":{"province":"甘肃省","city":"兰州市","county":"城关区","community":"雁南街道联合大学家属院","full_address":"甘肃省兰州市城关区雁南街道联合大学家属院","info":""}},{"type":"Feature","geometry":{"type":"Point","coordinates":[103.872879,36.058979]},"properties":{"province":"甘肃省","city":"兰州市","county":"城关区","community":"雁南街道雁南路科技小区","full_address":"甘肃省兰州市城关区雁南街道雁南路科技小区","info":""}},{"type":"Feature","geometry":{"type":"Point","coordinates":[103.885731,36.069587]},"properties":{"province":"甘肃省","city":"兰州市","county":"城关区","community":"雁园街道北面滩新村西一区（408-1136号)","full_address":"甘肃省兰州市城关区雁园街道北面滩新村西一区（408-1136号)","info":""}},{"type":"Feature","geometry":{"type":"Point","coordinates":[103.895917,36.048854]},"properties":{"province":"甘肃省","city":"兰州市","county":"城关区","community":"高新区南面滩二网格（南面滩村西北角）","full_address":"甘肃省兰州市城关区高新区南面滩二网格（南面滩村西北角）","info":""}},{"type":"Feature","geometry":{"type":"Point","coordinates":[103.876665,36.047961]},"properties":{"province":"甘肃省","city":"兰州市","county":"城关区","community":"拱星墩街道东湖小区","full_address":"甘肃省兰州市城关区拱星墩街道东湖小区","info":""}},{"type":"Feature","geometry":{"type":"Point","coordinates":[103.907932,36.10795]},"properties":{"province":"甘肃省","city":"兰州市","county":"城关区","community":"青白石街道碧桂园诺丁山4组团","full_address":"甘肃省兰州市城关区青白石街道碧桂园诺丁山4组团","info":""}},{"type":"Feature","geometry":{"type":"Point","coordinates":[103.864518,36.056331]},"properties":{"province":"甘肃省","city":"兰州市","county":"城关区","community":"渭源路街道南河新村小区","full_address":"甘肃省兰州市城关区渭源路街道南河新村小区","info":""}},{"type":"Feature","geometry":{"type":"Point","coordinates":[103.869501,36.05149]},"properties":{"province":"甘肃省","city":"兰州市","county":"城关区","community":"雁南街道南河路2232-2268号（双号）家属院","full_address":"甘肃省兰州市城关区雁南街道南河路2232-2268号（双号）家属院","info":""}},{"type":"Feature","geometry":{"type":"Point","coordinates":[103.889219,36.058954]},"properties":{"province":"甘肃省","city":"兰州市","county":"城关区","community":"雁园街道天庆花园东北片区","full_address":"甘肃省兰州市城关区雁园街道天庆花园东北片区","info":""}},{"type":"Feature","geometry":{"type":"Point","coordinates":[103.878179,36.043071]},"properties":{"province":"甘肃省","city":"兰州市","county":"城关区","community":"拱星墩街道东岗东路自建房片区(东岗东路2252-2366号)","full_address":"甘肃省兰州市城关区拱星墩街道东岗东路自建房片区(东岗东路2252-2366号)","info":""}},{"type":"Feature","geometry":{"type":"Point","coordinates":[103.829827,36.036811]},"properties":{"province":"甘肃省","city":"兰州市","county":"城关区","community":"五泉街道红泥沟--鲁家沟自建房片区","full_address":"甘肃省兰州市城关区五泉街道红泥沟--鲁家沟自建房片区","info":""}},{"type":"Feature","geometry":{"type":"Point","coordinates":[103.873427,36.049097]},"properties":{"province":"甘肃省","city":"兰州市","county":"城关区","community":"草场街街道市政家属院","full_address":"甘肃省兰州市城关区草场街街道市政家属院","info":""}},{"type":"Feature","geometry":{"type":"Point","coordinates":[103.817454,36.053647]},"properties":{"province":"甘肃省","city":"兰州市","county":"城关区","community":"白银路街道安定门外65号小区","full_address":"甘肃省兰州市城关区白银路街道安定门外65号小区","info":""}},{"type":"Feature","geometry":{"type":"Point","coordinates":[103.816795,36.053437]},"properties":{"province":"甘肃省","city":"兰州市","county":"城关区","community":"白银路街道安定门外7号小区","full_address":"甘肃省兰州市城关区白银路街道安定门外7号小区","info":""}},{"type":"Feature","geometry":{"type":"Point","coordinates":[103.900123,36.044151]},"properties":{"province":"甘肃省","city":"兰州市","county":"城关区","community":"东岗街道欣欣嘉园东区西门果蔬之家","full_address":"甘肃省兰州市城关区东岗街道欣欣嘉园东区西门果蔬之家","info":""}},{"type":"Feature","geometry":{"type":"Point","coordinates":[103.889431,36.039931]},"properties":{"province":"甘肃省","city":"兰州市","county":"城关区","community":"焦家湾街道凯地华丽家族","full_address":"甘肃省兰州市城关区焦家湾街道凯地华丽家族","info":""}},{"type":"Feature","geometry":{"type":"Point","coordinates":[103.846284,36.038268]},"properties":{"province":"甘肃省","city":"兰州市","county":"城关区","community":"铁路东村街道何家庄自建房片区(268-279号、304-372号)","full_address":"甘肃省兰州市城关区铁路东村街道何家庄自建房片区(268-279号、304-372号)","info":""}},{"type":"Feature","geometry":{"type":"Point","coordinates":[103.842322,36.045168]},"properties":{"province":"甘肃省","city":"兰州市","county":"城关区","community":"铁路东村街道引大家属院","full_address":"甘肃省兰州市城关区铁路东村街道引大家属院","info":""}},{"type":"Feature","geometry":{"type":"Point","coordinates":[103.83035,36.03681]},"properties":{"province":"甘肃省","city":"兰州市","county":"城关区","community":"五泉街道商业会计学校","full_address":"甘肃省兰州市城关区五泉街道商业会计学校","info":""}},{"type":"Feature","geometry":{"type":"Point","coordinates":[103.865384,36.048049]},"properties":{"province":"甘肃省","city":"兰州市","county":"城关区","community":"盐场路街道广电小区","full_address":"甘肃省兰州市城关区盐场路街道广电小区","info":""}},{"type":"Feature","geometry":{"type":"Point","coordinates":[103.879787,36.051431]},"properties":{"province":"甘肃省","city":"兰州市","county":"城关区","community":"雁南街道华英小区","full_address":"甘肃省兰州市城关区雁南街道华英小区","info":""}},{"type":"Feature","geometry":{"type":"Point","coordinates":[103.879955,36.052097]},"properties":{"province":"甘肃省","city":"兰州市","county":"城关区","community":"雁南街道金鹏小区","full_address":"甘肃省兰州市城关区雁南街道金鹏小区","info":""}},{"type":"Feature","geometry":{"type":"Point","coordinates":[103.828691,36.061993]},"properties":{"province":"甘肃省","city":"兰州市","county":"城关区","community":"张掖路街道依河园","full_address":"甘肃省兰州市城关区张掖路街道依河园","info":""}},{"type":"Feature","geometry":{"type":"Point","coordinates":[103.900156,36.05223]},"properties":{"province":"甘肃省","city":"兰州市","county":"城关区","community":"高新区珑域东区","full_address":"甘肃省兰州市城关区高新区珑域东区","info":""}},{"type":"Feature","geometry":{"type":"Point","coordinates":[103.900156,36.05223]},"properties":{"province":"甘肃省","city":"兰州市","county":"城关区","community":"高新区珑域西区","full_address":"甘肃省兰州市城关区高新区珑域西区","info":""}},{"type":"Feature","geometry":{"type":"Point","coordinates":[103.831761,36.033609]},"properties":{"province":"甘肃省","city":"兰州市","county":"城关区","community":"五泉街道红泥沟13-15（单号）小区","full_address":"甘肃省兰州市城关区五泉街道红泥沟13-15（单号）小区","info":""}},{"type":"Feature","geometry":{"type":"Point","coordinates":[103.926781,36.044472]},"properties":{"province":"甘肃省","city":"兰州市","county":"城关区","community":"拱星墩街道段家滩村社区全域（不含南昌路6号、段家滩1519号）","full_address":"甘肃省兰州市城关区拱星墩街道段家滩村社区全域（不含南昌路6号、段家滩1519号）","info":""}},{"type":"Feature","geometry":{"type":"Point","coordinates":[103.868896,36.057441]},"properties":{"province":"甘肃省","city":"兰州市","county":"城关区","community":"雁南街道雁西路21号小区","full_address":"甘肃省兰州市城关区雁南街道雁西路21号小区","info":""}},{"type":"Feature","geometry":{"type":"Point","coordinates":[103.895014,36.059912]},"properties":{"province":"甘肃省","city":"兰州市","county":"城关区","community":"雁园街道基业豪庭西南片区","full_address":"甘肃省兰州市城关区雁园街道基业豪庭西南片区","info":""}},{"type":"Feature","geometry":{"type":"Point","coordinates":[103.83238,36.06634]},"properties":{"province":"甘肃省","city":"兰州市","county":"城关区","community":"草场街街道四毛厂家属院","full_address":"甘肃省兰州市城关区草场街街道四毛厂家属院","info":""}},{"type":"Feature","geometry":{"type":"Point","coordinates":[103.874867,36.04834]},"properties":{"province":"甘肃省","city":"兰州市","county":"城关区","community":"嘉峪关路街道瑞德摩尔加勒比海小区","full_address":"甘肃省兰州市城关区嘉峪关路街道瑞德摩尔加勒比海小区","info":""}},{"type":"Feature","geometry":{"type":"Point","coordinates":[103.871577,36.075455]},"properties":{"province":"甘肃省","city":"兰州市","county":"城关区","community":"雁北街道新港城C区","full_address":"甘肃省兰州市城关区雁北街道新港城C区","info":""}},{"type":"Feature","geometry":{"type":"Point","coordinates":[103.89485,36.05874]},"properties":{"province":"甘肃省","city":"兰州市","county":"城关区","community":"雁北街道雁西路自建房片区（雁西路780-818双号、雁滩路3520号、雁滩路3362-3460双号）","full_address":"甘肃省兰州市城关区雁北街道雁西路自建房片区（雁西路780-818双号、雁滩路3520号、雁滩路3362-3460双号）","info":""}},{"type":"Feature","geometry":{"type":"Point","coordinates":[103.902253,36.063135]},"properties":{"province":"甘肃省","city":"兰州市","county":"城关区","community":"雁园街道和泰馨合园","full_address":"甘肃省兰州市城关区雁园街道和泰馨合园","info":""}},{"type":"Feature","geometry":{"type":"Point","coordinates":[103.838521,36.059232]},"properties":{"province":"甘肃省","city":"兰州市","county":"城关区","community":"广武门街道河水道2-10号（双号）家属院","full_address":"甘肃省兰州市城关区广武门街道河水道2-10号（双号）家属院","info":""}},{"type":"Feature","geometry":{"type":"Point","coordinates":[103.853471,36.036038]},"properties":{"province":"甘肃省","city":"兰州市","county":"城关区","community":"火车站街道红二村菜市场","full_address":"甘肃省兰州市城关区火车站街道红二村菜市场","info":""}},{"type":"Feature","geometry":{"type":"Point","coordinates":[103.851724,36.050306]},"properties":{"province":"甘肃省","city":"兰州市","county":"城关区","community":"东岗西路街道旧大路橡胶厂家属院","full_address":"甘肃省兰州市城关区东岗西路街道旧大路橡胶厂家属院","info":""}},{"type":"Feature","geometry":{"type":"Point","coordinates":[103.851681,36.051593]},"properties":{"province":"甘肃省","city":"兰州市","county":"城关区","community":"东岗西路街道农民巷179-235号（单号）家属院","full_address":"甘肃省兰州市城关区东岗西路街道农民巷179-235号（单号）家属院","info":""}},{"type":"Feature","geometry":{"type":"Point","coordinates":[103.84518,36.04512]},"properties":{"province":"甘肃省","city":"兰州市","county":"城关区","community":"皋兰路街道锦华家属院（含铺面）","full_address":"甘肃省兰州市城关区皋兰路街道锦华家属院（含铺面）","info":""}},{"type":"Feature","geometry":{"type":"Point","coordinates":[103.818831,36.052276]},"properties":{"province":"甘肃省","city":"兰州市","county":"城关区","community":"白银路街道柏道路3-60号","full_address":"甘肃省兰州市城关区白银路街道柏道路3-60号","info":""}},{"type":"Feature","geometry":{"type":"Point","coordinates":[103.873299,36.069139]},"properties":{"province":"甘肃省","city":"兰州市","county":"城关区","community":"雁北街道雁西路自建房片区1912-2926（双号)","full_address":"甘肃省兰州市城关区雁北街道雁西路自建房片区1912-2926（双号)","info":""}},{"type":"Feature","geometry":{"type":"Point","coordinates":[103.854178,36.062161]},"properties":{"province":"甘肃省","city":"兰州市","county":"城关区","community":"广武门街道荣达小区","full_address":"甘肃省兰州市城关区广武门街道荣达小区","info":""}},{"type":"Feature","geometry":{"type":"Point","coordinates":[103.884155,36.049595]},"properties":{"province":"甘肃省","city":"兰州市","county":"城关区","community":"拱星墩街道南河庭院","full_address":"甘肃省兰州市城关区拱星墩街道南河庭院","info":""}},{"type":"Feature","geometry":{"type":"Point","coordinates":[103.907276,36.042154]},"properties":{"province":"甘肃省","city":"兰州市","county":"城关区","community":"拱星墩街道丰和丽园","full_address":"甘肃省兰州市城关区拱星墩街道丰和丽园","info":""}},{"type":"Feature","geometry":{"type":"Point","coordinates":[103.832681,36.043768]},"properties":{"province":"甘肃省","city":"兰州市","county":"城关区","community":"五泉街道闵家桥 188-196号小区","full_address":"甘肃省兰州市城关区五泉街道闵家桥 188-196号小区","info":""}},{"type":"Feature","geometry":{"type":"Point","coordinates":[103.810616,36.050525]},"properties":{"province":"甘肃省","city":"兰州市","county":"城关区","community":"伏龙平街道伏龙坪中街自建房片区11-50号","full_address":"甘肃省兰州市城关区伏龙平街道伏龙坪中街自建房片区11-50号","info":""}},{"type":"Feature","geometry":{"type":"Point","coordinates":[103.849275,36.041157]},"properties":{"province":"甘肃省","city":"兰州市","county":"城关区","community":"团结新村街道天平街40-44号（双号）家属院","full_address":"甘肃省兰州市城关区团结新村街道天平街40-44号（双号）家属院","info":""}},{"type":"Feature","geometry":{"type":"Point","coordinates":[103.820106,36.052319]},"properties":{"province":"甘肃省","city":"兰州市","county":"城关区","community":"白银路街道甘南路927号小区","full_address":"甘肃省兰州市城关区白银路街道甘南路927号小区","info":""}},{"type":"Feature","geometry":{"type":"Point","coordinates":[103.848565,36.06737]},"properties":{"province":"甘肃省","city":"兰州市","county":"城关区","community":"高新区西平路社区大名城D区","full_address":"甘肃省兰州市城关区高新区西平路社区大名城D区","info":""}},{"type":"Feature","geometry":{"type":"Point","coordinates":[103.871409,36.060066]},"properties":{"province":"甘肃省","city":"兰州市","county":"城关区","community":"皋兰路街道汽车运输公司家属院","full_address":"甘肃省兰州市城关区皋兰路街道汽车运输公司家属院","info":""}},{"type":"Feature","geometry":{"type":"Point","coordinates":[103.89275,36.046174]},"properties":{"province":"甘肃省","city":"兰州市","county":"城关区","community":"雁北街道屠宰厂北侧平房区","full_address":"甘肃省兰州市城关区雁北街道屠宰厂北侧平房区","info":""}},{"type":"Feature","geometry":{"type":"Point","coordinates":[103.877548,36.061893]},"properties":{"province":"甘肃省","city":"兰州市","county":"城关区","community":"雁北街道雁滩交警大队北侧菜市场","full_address":"甘肃省兰州市城关区雁北街道雁滩交警大队北侧菜市场","info":""}},{"type":"Feature","geometry":{"type":"Point","coordinates":[103.866183,36.057321]},"properties":{"province":"甘肃省","city":"兰州市","county":"城关区","community":"雁南街道南河路2686-2692号（双号）家属院","full_address":"甘肃省兰州市城关区雁南街道南河路2686-2692号（双号）家属院","info":""}},{"type":"Feature","geometry":{"type":"Point","coordinates":[103.825474,36.041423]},"properties":{"province":"甘肃省","city":"兰州市","county":"城关区","community":"五泉街道饮食公司家属院","full_address":"甘肃省兰州市城关区五泉街道饮食公司家属院","info":""}},{"type":"Feature","geometry":{"type":"Point","coordinates":[103.917464,36.040556]},"properties":{"province":"甘肃省","city":"兰州市","county":"城关区","community":"五泉街道国保小院","full_address":"甘肃省兰州市城关区五泉街道国保小院","info":""}},{"type":"Feature","geometry":{"type":"Point","coordinates":[103.830783,36.034598]},"properties":{"province":"甘肃省","city":"兰州市","county":"城关区","community":"五泉街道电信器材家属院","full_address":"甘肃省兰州市城关区五泉街道电信器材家属院","info":""}},{"type":"Feature","geometry":{"type":"Point","coordinates":[103.83213,36.03567]},"properties":{"province":"甘肃省","city":"兰州市","county":"城关区","community":"五泉街道林业局家属院","full_address":"甘肃省兰州市城关区五泉街道林业局家属院","info":""}},{"type":"Feature","geometry":{"type":"Point","coordinates":[103.864719,36.053906]},"properties":{"province":"甘肃省","city":"兰州市","county":"城关区","community":"渭源路街道南昌路502号","full_address":"甘肃省兰州市城关区渭源路街道南昌路502号","info":""}},{"type":"Feature","geometry":{"type":"Point","coordinates":[103.859113,36.052248]},"properties":{"province":"甘肃省","city":"兰州市","county":"城关区","community":"渭源路街道中科院兰州分院市场科苑调料店及库房","full_address":"甘肃省兰州市城关区渭源路街道中科院兰州分院市场科苑调料店及库房","info":""}},{"type":"Feature","geometry":{"type":"Point","coordinates":[103.865722,36.053328]},"properties":{"province":"甘肃省","city":"兰州市","county":"城关区","community":"渭源路街道科苑一区","full_address":"甘肃省兰州市城关区渭源路街道科苑一区","info":""}},{"type":"Feature","geometry":{"type":"Point","coordinates":[103.818687,36.0513]},"properties":{"province":"甘肃省","city":"兰州市","county":"城关区","community":"白银路街道兰林路","full_address":"甘肃省兰州市城关区白银路街道兰林路","info":""}},{"type":"Feature","geometry":{"type":"Point","coordinates":[103.882491,36.073134]},"properties":{"province":"甘肃省","city":"兰州市","county":"城关区","community":"雁北街道鸿运润园C区","full_address":"甘肃省兰州市城关区雁北街道鸿运润园C区","info":""}},{"type":"Feature","geometry":{"type":"Point","coordinates":[103.872661,36.072888]},"properties":{"province":"甘肃省","city":"兰州市","county":"城关区","community":"雁北街道新港城A区","full_address":"甘肃省兰州市城关区雁北街道新港城A区","info":""}},{"type":"Feature","geometry":{"type":"Point","coordinates":[103.865857,36.05764]},"properties":{"province":"甘肃省","city":"兰州市","county":"城关区","community":"雁南街道南河路2794—2806双号家属院","full_address":"甘肃省兰州市城关区雁南街道南河路2794—2806双号家属院","info":""}},{"type":"Feature","geometry":{"type":"Point","coordinates":[103.869769,36.054998]},"properties":{"province":"甘肃省","city":"兰州市","county":"城关区","community":"雁南街道南河路2180-2188号（双号）家属院","full_address":"甘肃省兰州市城关区雁南街道南河路2180-2188号（双号）家属院","info":""}},{"type":"Feature","geometry":{"type":"Point","coordinates":[103.873299,36.069139]},"properties":{"province":"甘肃省","city":"兰州市","county":"城关区","community":"雁北街道雁西路自建房片区543—995号（单号）","full_address":"甘肃省兰州市城关区雁北街道雁西路自建房片区543—995号（单号）","info":""}},{"type":"Feature","geometry":{"type":"Point","coordinates":[103.826618,36.035563]},"properties":{"province":"甘肃省","city":"兰州市","county":"城关区","community":"五泉街道五泉南路159号","full_address":"甘肃省兰州市城关区五泉街道五泉南路159号","info":""}},{"type":"Feature","geometry":{"type":"Point","coordinates":[103.882088,36.043581]},"properties":{"province":"甘肃省","city":"兰州市","county":"城关区","community":"拱星墩街道省气象局家属院","full_address":"甘肃省兰州市城关区拱星墩街道省气象局家属院","info":""}},{"type":"Feature","geometry":{"type":"Point","coordinates":[103.899488,36.047601]},"properties":{"province":"甘肃省","city":"兰州市","county":"城关区","community":"高新区南面滩村54号","full_address":"甘肃省兰州市城关区高新区南面滩村54号","info":""}},{"type":"Feature","geometry":{"type":"Point","coordinates":[103.841909,36.037574]},"properties":{"province":"甘肃省","city":"兰州市","county":"城关区","community":"铁路东村街道怡苑小区","full_address":"甘肃省兰州市城关区铁路东村街道怡苑小区","info":""}},{"type":"Feature","geometry":{"type":"Point","coordinates":[103.840691,36.033481]},"properties":{"province":"甘肃省","city":"兰州市","county":"城关区","community":"铁路东村街道金铁小区","full_address":"甘肃省兰州市城关区铁路东村街道金铁小区","info":""}},{"type":"Feature","geometry":{"type":"Point","coordinates":[103.845494,36.043733]},"properties":{"province":"甘肃省","city":"兰州市","county":"城关区","community":"铁路东村街道何家庄西街水泵厂小区","full_address":"甘肃省兰州市城关区铁路东村街道何家庄西街水泵厂小区","info":""}},{"type":"Feature","geometry":{"type":"Point","coordinates":[103.879666,36.056491]},"properties":{"province":"甘肃省","city":"兰州市","county":"城关区","community":"雁南街道天庆嘉园A区","full_address":"甘肃省兰州市城关区雁南街道天庆嘉园A区","info":""}},{"type":"Feature","geometry":{"type":"Point","coordinates":[103.884731,36.059005]},"properties":{"province":"甘肃省","city":"兰州市","county":"城关区","community":"雁南街道雁滩路自建房片区（雁滩2815-2895单号、2907-2911单号)","full_address":"甘肃省兰州市城关区雁南街道雁滩路自建房片区（雁滩2815-2895单号、2907-2911单号)","info":""}},{"type":"Feature","geometry":{"type":"Point","coordinates":[103.84518,36.04512]},"properties":{"province":"甘肃省","city":"兰州市","county":"城关区","community":"雁南街道锦华小区","full_address":"甘肃省兰州市城关区雁南街道锦华小区","info":""}},{"type":"Feature","geometry":{"type":"Point","coordinates":[103.86656,36.05865]},"properties":{"province":"甘肃省","city":"兰州市","county":"城关区","community":"雁南街道大雁滩109-118号","full_address":"甘肃省兰州市城关区雁南街道大雁滩109-118号","info":""}},{"type":"Feature","geometry":{"type":"Point","coordinates":[103.840838,36.049512]},"properties":{"province":"甘肃省","city":"兰州市","county":"城关区","community":"雁南街道IU酒店","full_address":"甘肃省兰州市城关区雁南街道IU酒店","info":""}},{"type":"Feature","geometry":{"type":"Point","coordinates":[103.762678,36.076401]},"properties":{"province":"甘肃省","city":"兰州市","county":"城关区","community":"白银路街道锡源便利店","full_address":"甘肃省兰州市城关区白银路街道锡源便利店","info":""}},{"type":"Feature","geometry":{"type":"Point","coordinates":[103.817527,36.05343]},"properties":{"province":"甘肃省","city":"兰州市","county":"城关区","community":"白银路街道柏道路65号","full_address":"甘肃省兰州市城关区白银路街道柏道路65号","info":""}},{"type":"Feature","geometry":{"type":"Point","coordinates":[103.817453,36.053776]},"properties":{"province":"甘肃省","city":"兰州市","county":"城关区","community":"安定门外60号小区","full_address":"甘肃省兰州市城关区安定门外60号小区","info":""}},{"type":"Feature","geometry":{"type":"Point","coordinates":[103.820169,36.05379]},"properties":{"province":"甘肃省","city":"兰州市","county":"城关区","community":"白银路街道永昌路南口53-65单号小区","full_address":"甘肃省兰州市城关区白银路街道永昌路南口53-65单号小区","info":""}},{"type":"Feature","geometry":{"type":"Point","coordinates":[103.82284,36.047139]},"properties":{"province":"甘肃省","city":"兰州市","county":"城关区","community":"白银路街道84-90双号小区","full_address":"甘肃省兰州市城关区白银路街道84-90双号小区","info":""}},{"type":"Feature","geometry":{"type":"Point","coordinates":[103.821179,36.053226]},"properties":{"province":"甘肃省","city":"兰州市","county":"城关区","community":"白银路街道正宁路231-285单号小区","full_address":"甘肃省兰州市城关区白银路街道正宁路231-285单号小区","info":""}},{"type":"Feature","geometry":{"type":"Point","coordinates":[103.820169,36.05379]},"properties":{"province":"甘肃省","city":"兰州市","county":"城关区","community":"白银路街道永昌路115-123单号小区","full_address":"甘肃省兰州市城关区白银路街道永昌路115-123单号小区","info":""}},{"type":"Feature","geometry":{"type":"Point","coordinates":[103.823262,36.04458]},"properties":{"province":"甘肃省","city":"兰州市","county":"城关区","community":"白银路街道市政家属院中山林45-53单号小区","full_address":"甘肃省兰州市城关区白银路街道市政家属院中山林45-53单号小区","info":""}},{"type":"Feature","geometry":{"type":"Point","coordinates":[103.821872,36.053279]},"properties":{"province":"甘肃省","city":"兰州市","county":"城关区","community":"白银路街道永昌路126、134、136号小区","full_address":"甘肃省兰州市城关区白银路街道永昌路126、134、136号小区","info":""}},{"type":"Feature","geometry":{"type":"Point","coordinates":[103.860086,36.040454]},"properties":{"province":"甘肃省","city":"兰州市","county":"城关区","community":"团结新村街道定西二支路245号小区","full_address":"甘肃省兰州市城关区团结新村街道定西二支路245号小区","info":""}},{"type":"Feature","geometry":{"type":"Point","coordinates":[103.820411,36.057787]},"properties":{"province":"甘肃省","city":"兰州市","county":"城关区","community":"张掖路街道盛世广场A座","full_address":"甘肃省兰州市城关区张掖路街道盛世广场A座","info":""}},{"type":"Feature","geometry":{"type":"Point","coordinates":[103.822259,36.059877]},"properties":{"province":"甘肃省","city":"兰州市","county":"城关区","community":"张掖路街道大众巷22-48双号小区","full_address":"甘肃省兰州市城关区张掖路街道大众巷22-48双号小区","info":""}},{"type":"Feature","geometry":{"type":"Point","coordinates":[103.902118,36.045008]},"properties":{"province":"甘肃省","city":"兰州市","county":"城关区","community":"拱星墩街道段家滩路6号商铺（通乐烤卯喷漆）","full_address":"甘肃省兰州市城关区拱星墩街道段家滩路6号商铺（通乐烤卯喷漆）","info":""}},{"type":"Feature","geometry":{"type":"Point","coordinates":[103.800802,36.060612]},"properties":{"province":"甘肃省","city":"兰州市","county":"城关区","community":"广武门街道32-42双号小区","full_address":"甘肃省兰州市城关区广武门街道32-42双号小区","info":""}},{"type":"Feature","geometry":{"type":"Point","coordinates":[103.899409,36.084294]},"properties":{"province":"甘肃省","city":"兰州市","county":"城关区","community":"青白石街道银河国际A区","full_address":"甘肃省兰州市城关区青白石街道银河国际A区","info":""}},{"type":"Feature","geometry":{"type":"Point","coordinates":[103.931937,36.062203]},"properties":{"province":"甘肃省","city":"兰州市","county":"城关区","community":"青白石街道杨家湾村","full_address":"甘肃省兰州市城关区青白石街道杨家湾村","info":""}},{"type":"Feature","geometry":{"type":"Point","coordinates":[103.786114,36.067195]},"properties":{"province":"甘肃省","city":"兰州市","county":"城关区","community":"靖远路街道市二建家属院","full_address":"甘肃省兰州市城关区靖远路街道市二建家属院","info":""}},{"type":"Feature","geometry":{"type":"Point","coordinates":[103.838441,36.042587]},"properties":{"province":"甘肃省","city":"兰州市","county":"城关区","community":"五泉街道兰铁设计院小区","full_address":"甘肃省兰州市城关区五泉街道兰铁设计院小区","info":""}},{"type":"Feature","geometry":{"type":"Point","coordinates":[103.853822,36.027372]},"properties":{"province":"甘肃省","city":"兰州市","county":"城关区","community":"火车站街道绿茵小区","full_address":"甘肃省兰州市城关区火车站街道绿茵小区","info":""}},{"type":"Feature","geometry":{"type":"Point","coordinates":[103.855732,36.027914]},"properties":{"province":"甘肃省","city":"兰州市","county":"城关区","community":"火车站街道红山四村自建房片区(201-276号)","full_address":"甘肃省兰州市城关区火车站街道红山四村自建房片区(201-276号)","info":""}},{"type":"Feature","geometry":{"type":"Point","coordinates":[103.830241,36.052476]},"properties":{"province":"甘肃省","city":"兰州市","county":"城关区","community":"酒泉路街道井儿街19号小区","full_address":"甘肃省兰州市城关区酒泉路街道井儿街19号小区","info":""}},{"type":"Feature","geometry":{"type":"Point","coordinates":[103.824917,36.047975]},"properties":{"province":"甘肃省","city":"兰州市","county":"城关区","community":"酒泉路街道鼓楼巷南方小张菜铺","full_address":"甘肃省兰州市城关区酒泉路街道鼓楼巷南方小张菜铺","info":""}},{"type":"Feature","geometry":{"type":"Point","coordinates":[103.88189,36.03607]},"properties":{"province":"甘肃省","city":"兰州市","county":"城关区","community":"嘉峪关路街道邮政小区","full_address":"甘肃省兰州市城关区嘉峪关路街道邮政小区","info":""}},{"type":"Feature","geometry":{"type":"Point","coordinates":[103.87029,36.042101]},"properties":{"province":"甘肃省","city":"兰州市","county":"城关区","community":"嘉峪关路街道瑞德大道珊瑚海","full_address":"甘肃省兰州市城关区嘉峪关路街道瑞德大道珊瑚海","info":""}},{"type":"Feature","geometry":{"type":"Point","coordinates":[103.880702,36.027111]},"properties":{"province":"甘肃省","city":"兰州市","county":"城关区","community":"焦家湾街道焦家湾南路249-349单号","full_address":"甘肃省兰州市城关区焦家湾街道焦家湾南路249-349单号","info":""}},{"type":"Feature","geometry":{"type":"Point","coordinates":[103.873299,36.069139]},"properties":{"province":"甘肃省","city":"兰州市","county":"城关区","community":"雁南街道雁西路自建房片区(1677-1707、1715、1725、1733、1739单号)","full_address":"甘肃省兰州市城关区雁南街道雁西路自建房片区(1677-1707、1715、1725、1733、1739单号)","info":""}},{"type":"Feature","geometry":{"type":"Point","coordinates":[103.897984,36.11148]},"properties":{"province":"甘肃省","city":"兰州市","county":"城关区","community":"青白石街道上坪村（石沟老路以西、312国道以北，北环路以南，小沙沟以东)","full_address":"甘肃省兰州市城关区青白石街道上坪村（石沟老路以西、312国道以北，北环路以南，小沙沟以东)","info":""}},{"type":"Feature","geometry":{"type":"Point","coordinates":[103.864746,36.03743]},"properties":{"province":"甘肃省","city":"兰州市","county":"城关区","community":"团结新村街道地矿之家东院","full_address":"甘肃省兰州市城关区团结新村街道地矿之家东院","info":""}},{"type":"Feature","geometry":{"type":"Point","coordinates":[103.82948,36.04407]},"properties":{"province":"甘肃省","city":"兰州市","county":"城关区","community":"五泉街87-123单号小区","full_address":"甘肃省兰州市城关区五泉街87-123单号小区","info":""}},{"type":"Feature","geometry":{"type":"Point","coordinates":[103.858759,36.075856]},"properties":{"province":"甘肃省","city":"兰州市","county":"城关区","community":"盐场路街道兰州制药厂家属院","full_address":"甘肃省兰州市城关区盐场路街道兰州制药厂家属院","info":""}},{"type":"Feature","geometry":{"type":"Point","coordinates":[103.875908,36.043092]},"properties":{"province":"甘肃省","city":"兰州市","county":"城关区","community":"拱星墩街道东岗东路文明村(1675-1911号)","full_address":"甘肃省兰州市城关区拱星墩街道东岗东路文明村(1675-1911号)","info":""}},{"type":"Feature","geometry":{"type":"Point","coordinates":[103.870234,36.062003]},"properties":{"province":"甘肃省","city":"兰州市","county":"城关区","community":"雁南街道大雁滩村社区雁西路自建房片区（区政府雁滩住宅小区以北、雁滩日杂市场以东、雁西路以西、常顺苑以南）","full_address":"甘肃省兰州市城关区雁南街道大雁滩村社区雁西路自建房片区（区政府雁滩住宅小区以北、雁滩日杂市场以东、雁西路以西、常顺苑以南）","info":""}},{"type":"Feature","geometry":{"type":"Point","coordinates":[103.875974,36.052047]},"properties":{"province":"甘肃省","city":"兰州市","county":"城关区","community":"雁南街道张苏滩鸿辉宾馆","full_address":"甘肃省兰州市城关区雁南街道张苏滩鸿辉宾馆","info":""}},{"type":"Feature","geometry":{"type":"Point","coordinates":[103.794704,36.067266]},"properties":{"province":"甘肃省","city":"兰州市","county":"城关区","community":"白银路街道王马巷909号义顺老张的店","full_address":"甘肃省兰州市城关区白银路街道王马巷909号义顺老张的店","info":""}},{"type":"Feature","geometry":{"type":"Point","coordinates":[103.822632,36.051842]},"properties":{"province":"甘肃省","city":"兰州市","county":"城关区","community":"白银路街道民基大院","full_address":"甘肃省兰州市城关区白银路街道民基大院","info":""}},{"type":"Feature","geometry":{"type":"Point","coordinates":[103.818331,36.053759]},"properties":{"province":"甘肃省","city":"兰州市","county":"城关区","community":"白银路街道兰公馆","full_address":"甘肃省兰州市城关区白银路街道兰公馆","info":""}},{"type":"Feature","geometry":{"type":"Point","coordinates":[103.830221,36.044935]},"properties":{"province":"甘肃省","city":"兰州市","county":"城关区","community":"白银路街道省建材家属院","full_address":"甘肃省兰州市城关区白银路街道省建材家属院","info":""}},{"type":"Feature","geometry":{"type":"Point","coordinates":[103.897984,36.11148]},"properties":{"province":"甘肃省","city":"兰州市","county":"城关区","community":"青白石街道石沟村回道沟","full_address":"甘肃省兰州市城关区青白石街道石沟村回道沟","info":""}},{"type":"Feature","geometry":{"type":"Point","coordinates":[103.908696,36.047668]},"properties":{"province":"甘肃省","city":"兰州市","county":"城关区","community":"东岗街道欣欣嘉园东区","full_address":"甘肃省兰州市城关区东岗街道欣欣嘉园东区","info":""}},{"type":"Feature","geometry":{"type":"Point","coordinates":[103.859259,36.042687]},"properties":{"province":"甘肃省","city":"兰州市","county":"城关区","community":"渭源路街道长城山海苑","full_address":"甘肃省兰州市城关区渭源路街道长城山海苑","info":""}},{"type":"Feature","geometry":{"type":"Point","coordinates":[103.8322,36.045693]},"properties":{"province":"甘肃省","city":"兰州市","county":"城关区","community":"酒泉路街道金昌南路153号","full_address":"甘肃省兰州市城关区酒泉路街道金昌南路153号","info":""}},{"type":"Feature","geometry":{"type":"Point","coordinates":[103.829481,36.0509]},"properties":{"province":"甘肃省","city":"兰州市","county":"城关区","community":"酒泉路街道华玺花园","full_address":"甘肃省兰州市城关区酒泉路街道华玺花园","info":""}},{"type":"Feature","geometry":{"type":"Point","coordinates":[103.847433,36.050043]},"properties":{"province":"甘肃省","city":"兰州市","county":"城关区","community":"东岗西路街道平凉路298-306号（双号）家属院","full_address":"甘肃省兰州市城关区东岗西路街道平凉路298-306号（双号）家属院","info":""}},{"type":"Feature","geometry":{"type":"Point","coordinates":[103.863333,36.057934]},"properties":{"province":"甘肃省","city":"兰州市","county":"城关区","community":"雁南街道南河路2764-2778号（双号）黄楼","full_address":"甘肃省兰州市城关区雁南街道南河路2764-2778号（双号）黄楼","info":""}},{"type":"Feature","geometry":{"type":"Point","coordinates":[103.838623,36.043325]},"properties":{"province":"甘肃省","city":"兰州市","county":"城关区","community":"皋兰路街道（金昌南路以东、广场南路以南、皋兰路以西、民主西路以北）区域","full_address":"甘肃省兰州市城关区皋兰路街道（金昌南路以东、广场南路以南、皋兰路以西、民主西路以北）区域","info":""}},{"type":"Feature","geometry":{"type":"Point","coordinates":[103.810137,36.055975]},"properties":{"province":"甘肃省","city":"兰州市","county":"城关区","community":"伏龙坪街道杨家沟社区全域","full_address":"甘肃省兰州市城关区伏龙坪街道杨家沟社区全域","info":""}},{"type":"Feature","geometry":{"type":"Point","coordinates":[103.812408,36.057494]},"properties":{"province":"甘肃省","city":"兰州市","county":"城关区","community":"临夏路街道付家巷社区全域","full_address":"甘肃省兰州市城关区临夏路街道付家巷社区全域","info":""}},{"type":"Feature","geometry":{"type":"Point","coordinates":[103.814441,36.058589]},"properties":{"province":"甘肃省","city":"兰州市","county":"城关区","community":"临夏路街道静安门社区全域","full_address":"甘肃省兰州市城关区临夏路街道静安门社区全域","info":""}},{"type":"Feature","geometry":{"type":"Point","coordinates":[103.86067,36.035959]},"properties":{"province":"甘肃省","city":"兰州市","county":"城关区","community":"团结新村街道红星巷社区全域","full_address":"甘肃省兰州市城关区团结新村街道红星巷社区全域","info":""}},{"type":"Feature","geometry":{"type":"Point","coordinates":[103.86086,36.033647]},"properties":{"province":"甘肃省","city":"兰州市","county":"城关区","community":"团结新村街道火车站街道万众小区","full_address":"甘肃省兰州市城关区团结新村街道火车站街道万众小区","info":""}},{"type":"Feature","geometry":{"type":"Point","coordinates":[103.913283,36.071169]},"properties":{"province":"甘肃省","city":"兰州市","county":"城关区","community":"青白石街道碱水沟村","full_address":"甘肃省兰州市城关区青白石街道碱水沟村","info":""}},{"type":"Feature","geometry":{"type":"Point","coordinates":[103.89891,36.084404]},"properties":{"province":"甘肃省","city":"兰州市","county":"城关区","community":"青白石街道银河国际B区","full_address":"甘肃省兰州市城关区青白石街道银河国际B区","info":""}},{"type":"Feature","geometry":{"type":"Point","coordinates":[103.855319,36.060686]},"properties":{"province":"甘肃省","city":"兰州市","county":"城关区","community":"雁南街道滩尖子片区（雁滩公园以北、南滨河东路以东、天水北路以西、团结路以南）","full_address":"甘肃省兰州市城关区雁南街道滩尖子片区（雁滩公园以北、南滨河东路以东、天水北路以西、团结路以南）","info":""}},{"type":"Feature","geometry":{"type":"Point","coordinates":[103.757998,36.0823]},"properties":{"province":"甘肃省","city":"兰州市","county":"七里河区","community":"南滨河中路43号至49号（单号）治安分局家属院小区（含七里河区出租车管理大队和东方红轨道交通派出所所在单独楼栋）","full_address":"甘肃省兰州市七里河区南滨河中路43号至49号（单号）治安分局家属院小区（含七里河区出租车管理大队和东方红轨道交通派出所所在单独楼栋）","info":""}},{"type":"Feature","geometry":{"type":"Point","coordinates":[103.789982,36.056268]},"properties":{"province":"甘肃省","city":"兰州市","county":"七里河区","community":"西园街道明仁花苑小区16号楼1-2单元","full_address":"甘肃省兰州市七里河区西园街道明仁花苑小区16号楼1-2单元","info":""}},{"type":"Feature","geometry":{"type":"Point","coordinates":[103.769877,36.066096]},"properties":{"province":"甘肃省","city":"兰州市","county":"七里河区","community":"西站菜市场","full_address":"甘肃省兰州市七里河区西站菜市场","info":""}},{"type":"Feature","geometry":{"type":"Point","coordinates":[103.760032,36.054968]},"properties":{"province":"甘肃省","city":"兰州市","county":"七里河区","community":"晏家坪街道晏家坪北路回民下沟（东至晏北人家西侧围墙，西至机车厂四区东侧围墙，南至五三四铁路专线，北至排洪沟)","full_address":"甘肃省兰州市七里河区晏家坪街道晏家坪北路回民下沟（东至晏北人家西侧围墙，西至机车厂四区东侧围墙，南至五三四铁路专线，北至排洪沟)","info":""}},{"type":"Feature","geometry":{"type":"Point","coordinates":[103.703067,36.07686]},"properties":{"province":"甘肃省","city":"兰州市","county":"七里河区","community":"秀川街道崔家崖社区陆家嘴蔬菜市场及相邻居民区（东至肉联厂饲养场围墙，西至T210路，北至南山路，南至翡翠华庭北路)","full_address":"甘肃省兰州市七里河区秀川街道崔家崖社区陆家嘴蔬菜市场及相邻居民区（东至肉联厂饲养场围墙，西至T210路，北至南山路，南至翡翠华庭北路)","info":""}},{"type":"Feature","geometry":{"type":"Point","coordinates":[103.79452,36.062943]},"properties":{"province":"甘肃省","city":"兰州市","county":"七里河区","community":"西园街道西藏佳苑2号楼","full_address":"甘肃省兰州市七里河区西园街道西藏佳苑2号楼","info":""}},