{"type":"FeatureCollection","features":[{"type":"Feature","geometry":{"type":"Point","coordinates":[116.475537,39.932297]},"properties":{"province":"北京市","city":"朝阳区","county":"六里屯街道","community":"六里屯北里10号楼及底商","full_address":"北京市朝阳区六里屯街道六里屯北里10号楼及底商","info":""}},{"type":"Feature","geometry":{"type":"Point","coordinates":[117.263592,39.05356]},"properties":{"province":"天津市","city":"天津市","county":"河西区","community":"东海街桂江里2、4、6、8、10、12、59、88、90门","full_address":"天津市天津市河西区东海街桂江里2、4、6、8、10、12、59、88、90门","info":""}},{"type":"Feature","geometry":{"type":"Point","coordinates":[117.141753,39.096793]},"properties":{"province":"天津市","city":"天津市","county":"南开区","community":"王顶堤街堤北里小区14号楼4、5门","full_address":"天津市天津市南开区王顶堤街堤北里小区14号楼4、5门","info":""}},{"type":"Feature","geometry":{"type":"Point","coordinates":[117.173024,39.114323]},"properties":{"province":"天津市","city":"天津市","county":"南开区","community":"万兴街天大北五村小区11号楼1门","full_address":"天津市天津市南开区万兴街天大北五村小区11号楼1门","info":""}},{"type":"Feature","geometry":{"type":"Point","coordinates":[121.415385,31.240225]},"properties":{"province":"上海市","city":"上海市","county":"普陀区","community":"曹杨新村街道曹杨路710弄","full_address":"上海市上海市普陀区曹杨新村街道曹杨路710弄","info":""}},{"type":"Feature","geometry":{"type":"Point","coordinates":[121.493486,31.401912]},"properties":{"province":"上海市","city":"上海市","county":"宝山区","community":"友谊路街道宝林路宝林三村","full_address":"上海市上海市宝山区友谊路街道宝林路宝林三村","info":""}},{"type":"Feature","geometry":{"type":"Point","coordinates":[121.33,31.488066]},"properties":{"province":"上海市","city":"上海市","county":"宝山区","community":"罗泾镇潘新路118弄宝通家园西区（7号-115号）","full_address":"上海市上海市宝山区罗泾镇潘新路118弄宝通家园西区（7号-115号）","info":""}},{"type":"Feature","geometry":{"type":"Point","coordinates":[121.62745,31.11206]},"properties":{"province":"上海市","city":"上海市","county":"浦东新区","community":"周浦镇忘忧路135弄梧桐国际公寓（1-5号）","full_address":"上海市上海市浦东新区周浦镇忘忧路135弄梧桐国际公寓（1-5号）","info":""}},{"type":"Feature","geometry":{"type":"Point","coordinates":[121.315067,31.014986]},"properties":{"province":"上海市","city":"上海市","county":"松江区","community":"车墩镇大官塘路180弄松南城善德苑","full_address":"上海市上海市松江区车墩镇大官塘路180弄松南城善德苑","info":""}},{"type":"Feature","geometry":{"type":"Point","coordinates":[121.397,28.5636]},"properties":{"province":"浙江省","city":"台州市","county":"路桥区","community":"蓬街镇吉华盛超市附近河南滋补烩面店","full_address":"浙江省台州市路桥区蓬街镇吉华盛超市附近河南滋补烩面店","info":""}},{"type":"Feature","geometry":{"type":"Point","coordinates":[121.530258,28.568225]},"properties":{"province":"浙江省","city":"台州市","county":"台州湾新区","community":"滨海工业园区浙江万通重工有限公司","full_address":"浙江省台州市台州湾新区滨海工业园区浙江万通重工有限公司","info":""}},{"type":"Feature","geometry":{"type":"Point","coordinates":[117.340373,32.898183]},"properties":{"province":"安徽省","city":"蚌埠市","county":"蚌山区","community":"蚌山区陶店家园南苑A区","full_address":"安徽省蚌埠市蚌山区蚌山区陶店家园南苑A区","info":""}},{"type":"Feature","geometry":{"type":"Point","coordinates":[117.368151,32.916322]},"properties":{"province":"安徽省","city":"蚌埠市","county":"蚌山区","community":"新地城市广场二期","full_address":"安徽省蚌埠市蚌山区新地城市广场二期","info":""}},{"type":"Feature","geometry":{"type":"Point","coordinates":[117.238981,33.097595]},"properties":{"province":"安徽省","city":"蚌埠市","county":"怀远县","community":"魏庄镇全域","full_address":"安徽省蚌埠市怀远县魏庄镇全域","info":""}},{"type":"Feature","geometry":{"type":"Point","coordinates":[116.987392,33.634802]},"properties":{"province":"安徽省","city":"宿州市","county":"埇桥区","community":"道东街道东方社区沈苑小区","full_address":"安徽省宿州市埇桥区道东街道东方社区沈苑小区","info":""}},{"type":"Feature","geometry":{"type":"Point","coordinates":[117.014653,33.63122]},"properties":{"province":"安徽省","city":"宿州市","county":"埇桥区","community":"沱河街道韩池孜社区韩池孜村（曙光南路以东、汴河路以南、韩池孜路以西、道东粮库围墙以北合围区域）","full_address":"安徽省宿州市埇桥区沱河街道韩池孜社区韩池孜村（曙光南路以东、汴河路以南、韩池孜路以西、道东粮库围墙以北合围区域）","info":""}},{"type":"Feature","geometry":{"type":"Point","coordinates":[116.237837,33.236467]},"properties":{"province":"安徽省","city":"亳州市","county":"利辛县","community":"城北镇陆楼村后刘庄","full_address":"安徽省亳州市利辛县城北镇陆楼村后刘庄","info":""}},{"type":"Feature","geometry":{"type":"Point","coordinates":[116.210384,33.133558]},"properties":{"province":"安徽省","city":"亳州市","county":"利辛县","community":"城关镇复兴路垃圾中转站","full_address":"安徽省亳州市利辛县城关镇复兴路垃圾中转站","info":""}},{"type":"Feature","geometry":{"type":"Point","coordinates":[116.22087,33.135162]},"properties":{"province":"安徽省","city":"亳州市","county":"利辛县","community":"城关镇宝璋医院","full_address":"安徽省亳州市利辛县城关镇宝璋医院","info":""}},{"type":"Feature","geometry":{"type":"Point","coordinates":[115.930688,28.677908]},"properties":{"province":"江西省","city":"南昌市","county":"青山湖区","community":"上坊路342号科学院宿舍小区3栋","full_address":"江西省南昌市青山湖区上坊路342号科学院宿舍小区3栋","info":""}},{"type":"Feature","geometry":{"type":"Point","coordinates":[115.928947,28.666456]},"properties":{"province":"江西省","city":"南昌市","county":"青山湖区","community":"顺化门社区洪都中大道169号北区宿舍","full_address":"江西省南昌市青山湖区顺化门社区洪都中大道169号北区宿舍","info":""}},{"type":"Feature","geometry":{"type":"Point","coordinates":[115.435956,35.248293]},"properties":{"province":"山东省","city":"菏泽市","county":"牡丹区","community":"西城街道翰林豪庭小区4号楼","full_address":"山东省菏泽市牡丹区西城街道翰林豪庭小区4号楼","info":""}},{"type":"Feature","geometry":{"type":"Point","coordinates":[115.414074,35.241994]},"properties":{"province":"山东省","city":"菏泽市","county":"牡丹区","community":"西城街道景韵苑小区57号楼","full_address":"山东省菏泽市牡丹区西城街道景韵苑小区57号楼","info":""}},{"type":"Feature","geometry":{"type":"Point","coordinates":[115.393708,35.201834]},"properties":{"province":"山东省","city":"菏泽市","county":"牡丹区","community":"何楼街道武寺村","full_address":"山东省菏泽市牡丹区何楼街道武寺村","info":""}},{"type":"Feature","geometry":{"type":"Point","coordinates":[115.446165,35.226545]},"properties":{"province":"山东省","city":"菏泽市","county":"牡丹区","community":"南城街道成阳小区3号楼","full_address":"山东省菏泽市牡丹区南城街道成阳小区3号楼","info":""}},{"type":"Feature","geometry":{"type":"Point","coordinates":[115.420682,35.249589]},"properties":{"province":"山东省","city":"菏泽市","county":"牡丹区","community":"西城街道奥斯卡春城21号楼","full_address":"山东省菏泽市牡丹区西城街道奥斯卡春城21号楼","info":""}},{"type":"Feature","geometry":{"type":"Point","coordinates":[115.437493,35.247879]},"properties":{"province":"山东省","city":"菏泽市","county":"牡丹区","community":"济世医院西100米鲜鸡蛋批发超市","full_address":"山东省菏泽市牡丹区济世医院西100米鲜鸡蛋批发超市","info":""}},{"type":"Feature","geometry":{"type":"Point","coordinates":[115.474338,35.263482]},"properties":{"province":"山东省","city":"菏泽市","county":"牡丹区","community":"东城街道东翼公园印象小区1号楼","full_address":"山东省菏泽市牡丹区东城街道东翼公园印象小区1号楼","info":""}},{"type":"Feature","geometry":{"type":"Point","coordinates":[115.453309,35.254331]},"properties":{"province":"山东省","city":"菏泽市","county":"牡丹区","community":"北城街道解放北街智源公馆1号楼","full_address":"山东省菏泽市牡丹区北城街道解放北街智源公馆1号楼","info":""}},{"type":"Feature","geometry":{"type":"Point","coordinates":[115.308175,35.078971]},"properties":{"province":"山东省","city":"菏泽市","county":"牡丹区","community":"王浩屯镇水牛李村","full_address":"山东省菏泽市牡丹区王浩屯镇水牛李村","info":""}},{"type":"Feature","geometry":{"type":"Point","coordinates":[115.25975,34.857536]},"properties":{"province":"山东省","city":"菏泽市","county":"曹县","community":"楼庄镇楼庄村东村","full_address":"山东省菏泽市曹县楼庄镇楼庄村东村","info":""}},{"type":"Feature","geometry":{"type":"Point","coordinates":[115.255941,34.865448]},"properties":{"province":"山东省","city":"菏泽市","county":"曹县","community":"楼庄镇忠义寨村","full_address":"山东省菏泽市曹县楼庄镇忠义寨村","info":""}},{"type":"Feature","geometry":{"type":"Point","coordinates":[115.251378,34.871052]},"properties":{"province":"山东省","city":"菏泽市","county":"曹县","community":"楼庄镇王楼村","full_address":"山东省菏泽市曹县楼庄镇王楼村","info":""}},{"type":"Feature","geometry":{"type":"Point","coordinates":[115.244639,34.876842]},"properties":{"province":"山东省","city":"菏泽市","county":"曹县","community":"楼庄镇西谢集村","full_address":"山东省菏泽市曹县楼庄镇西谢集村","info":""}},{"type":"Feature","geometry":{"type":"Point","coordinates":[115.253076,34.869791]},"properties":{"province":"山东省","city":"菏泽市","county":"曹县","community":"楼庄镇韩庄村","full_address":"山东省菏泽市曹县楼庄镇韩庄村","info":""}},{"type":"Feature","geometry":{"type":"Point","coordinates":[115.288784,34.861347]},"properties":{"province":"山东省","city":"菏泽市","county":"曹县","community":"楼庄镇塔湾村","full_address":"山东省菏泽市曹县楼庄镇塔湾村","info":""}},{"type":"Feature","geometry":{"type":"Point","coordinates":[115.28742,34.858397]},"properties":{"province":"山东省","city":"菏泽市","county":"曹县","community":"楼庄镇南塔湾村宝宝乐幼儿园","full_address":"山东省菏泽市曹县楼庄镇南塔湾村宝宝乐幼儿园","info":""}},{"type":"Feature","geometry":{"type":"Point","coordinates":[115.3123,34.886551]},"properties":{"province":"山东省","city":"菏泽市","county":"曹县","community":"楼庄镇高庄村","full_address":"山东省菏泽市曹县楼庄镇高庄村","info":""}},{"type":"Feature","geometry":{"type":"Point","coordinates":[115.639604,34.876596]},"properties":{"province":"山东省","city":"菏泽市","county":"曹县","community":"王集镇丁庄村","full_address":"山东省菏泽市曹县王集镇丁庄村","info":""}},{"type":"Feature","geometry":{"type":"Point","coordinates":[115.543704,34.826085]},"properties":{"province":"山东省","city":"菏泽市","county":"曹县","community":"曹城街道贵和嘉园小区","full_address":"山东省菏泽市曹县曹城街道贵和嘉园小区","info":""}},{"type":"Feature","geometry":{"type":"Point","coordinates":[115.550665,34.847785]},"properties":{"province":"山东省","city":"菏泽市","county":"曹县","community":"青菏街道环岛花园小区","full_address":"山东省菏泽市曹县青菏街道环岛花园小区","info":""}},{"type":"Feature","geometry":{"type":"Point","coordinates":[115.762703,34.757919]},"properties":{"province":"山东省","city":"菏泽市","county":"曹县","community":"楼庄镇赵庄村","full_address":"山东省菏泽市曹县楼庄镇赵庄村","info":""}},{"type":"Feature","geometry":{"type":"Point","coordinates":[115.364564,35.012884]},"properties":{"province":"山东省","city":"菏泽市","county":"曹县","community":"韩集镇向庄村","full_address":"山东省菏泽市曹县韩集镇向庄村","info":""}},{"type":"Feature","geometry":{"type":"Point","coordinates":[115.37447,35.024338]},"properties":{"province":"山东省","city":"菏泽市","county":"曹县","community":"韩集镇郑庄村","full_address":"山东省菏泽市曹县韩集镇郑庄村","info":""}},{"type":"Feature","geometry":{"type":"Point","coordinates":[115.316293,35.007501]},"properties":{"province":"山东省","city":"菏泽市","county":"曹县","community":"韩集镇井王村","full_address":"山东省菏泽市曹县韩集镇井王村","info":""}},{"type":"Feature","geometry":{"type":"Point","coordinates":[115.550914,34.84622]},"properties":{"province":"山东省","city":"菏泽市","county":"曹县","community":"磐石街道如家酒店（曹县青菏路店）","full_address":"山东省菏泽市曹县磐石街道如家酒店（曹县青菏路店）","info":""}},{"type":"Feature","geometry":{"type":"Point","coordinates":[115.541633,34.923458]},"properties":{"province":"山东省","city":"菏泽市","county":"曹县","community":"普连集镇李楼寨村","full_address":"山东省菏泽市曹县普连集镇李楼寨村","info":""}},{"type":"Feature","geometry":{"type":"Point","coordinates":[115.345163,34.872267]},"properties":{"province":"山东省","city":"菏泽市","county":"曹县","community":"魏湾镇崔庞庄村","full_address":"山东省菏泽市曹县魏湾镇崔庞庄村","info":""}},{"type":"Feature","geometry":{"type":"Point","coordinates":[115.54902,34.796491]},"properties":{"province":"山东省","city":"菏泽市","county":"曹县","community":"磐石街道和顺园小区","full_address":"山东省菏泽市曹县磐石街道和顺园小区","info":""}},{"type":"Feature","geometry":{"type":"Point","coordinates":[115.271238,34.868757]},"properties":{"province":"山东省","city":"菏泽市","county":"曹县","community":"楼庄镇吕寨村","full_address":"山东省菏泽市曹县楼庄镇吕寨村","info":""}},{"type":"Feature","geometry":{"type":"Point","coordinates":[115.272961,34.889495]},"properties":{"province":"山东省","city":"菏泽市","county":"曹县","community":"楼庄镇南黄口村","full_address":"山东省菏泽市曹县楼庄镇南黄口村","info":""}},{"type":"Feature","geometry":{"type":"Point","coordinates":[115.65045,34.807826]},"properties":{"province":"山东省","city":"菏泽市","county":"曹县","community":"王集镇李庄村","full_address":"山东省菏泽市曹县王集镇李庄村","info":""}},{"type":"Feature","geometry":{"type":"Point","coordinates":[115.316394,34.885892]},"properties":{"province":"山东省","city":"菏泽市","county":"曹县","community":"楼庄镇王少堂村","full_address":"山东省菏泽市曹县楼庄镇王少堂村","info":""}},{"type":"Feature","geometry":{"type":"Point","coordinates":[115.269918,34.940254]},"properties":{"province":"山东省","city":"菏泽市","county":"曹县","community":"常乐集镇吕楼村","full_address":"山东省菏泽市曹县常乐集镇吕楼村","info":""}},{"type":"Feature","geometry":{"type":"Point","coordinates":[115.304177,34.96407]},"properties":{"province":"山东省","city":"菏泽市","county":"曹县","community":"常乐集镇常乐集行政村","full_address":"山东省菏泽市曹县常乐集镇常乐集行政村","info":""}},{"type":"Feature","geometry":{"type":"Point","coordinates":[115.663379,34.682237]},"properties":{"province":"山东省","city":"菏泽市","county":"曹县","community":"安蔡楼镇榆林集村","full_address":"山东省菏泽市曹县安蔡楼镇榆林集村","info":""}},{"type":"Feature","geometry":{"type":"Point","coordinates":[115.643783,34.672465]},"properties":{"province":"山东省","city":"菏泽市","county":"曹县","community":"安蔡楼镇火神台行政村","full_address":"山东省菏泽市曹县安蔡楼镇火神台行政村","info":""}},{"type":"Feature","geometry":{"type":"Point","coordinates":[116.099083,34.770033]},"properties":{"province":"山东省","city":"菏泽市","county":"单县","community":"名仕豪庭2号楼","full_address":"山东省菏泽市单县名仕豪庭2号楼","info":""}},{"type":"Feature","geometry":{"type":"Point","coordinates":[0,0]},"properties":{"province":"山东省","city":"菏泽市","county":"开发区","community":"花城小区17号楼","full_address":"山东省菏泽市开发区花城小区17号楼","info":""}},{"type":"Feature","geometry":{"type":"Point","coordinates":[114.372917,34.789137]},"properties":{"province":"河南省","city":"开封市","county":"顺河回族区","community":"宋门办事处东护城河以东、公园路以西、宋门关大北后街以北、开封市十中南墙以南区域","full_address":"河南省开封市顺河回族区宋门办事处东护城河以东、公园路以西、宋门关大北后街以北、开封市十中南墙以南区域","info":""}},{"type":"Feature","geometry":{"type":"Point","coordinates":[114.759285,34.55711]},"properties":{"province":"河南省","city":"开封市","county":"杞县","community":"金城街道富苑观城小区","full_address":"河南省开封市杞县金城街道富苑观城小区","info":""}},{"type":"Feature","geometry":{"type":"Point","coordinates":[114.785866,34.548857]},"properties":{"province":"河南省","city":"开封市","county":"杞县","community":"金城街道老华联超市","full_address":"河南省开封市杞县金城街道老华联超市","info":""}},{"type":"Feature","geometry":{"type":"Point","coordinates":[115.256967,34.818347]},"properties":{"province":"河南省","city":"开封市","county":"兰考县","community":"许河乡张油坊村","full_address":"河南省开封市兰考县许河乡张油坊村","info":""}},{"type":"Feature","geometry":{"type":"Point","coordinates":[115.256352,34.825952]},"properties":{"province":"河南省","city":"开封市","county":"兰考县","community":"许河乡周庄寨村","full_address":"河南省开封市兰考县许河乡周庄寨村","info":""}},{"type":"Feature","geometry":{"type":"Point","coordinates":[115.319299,34.812747]},"properties":{"province":"河南省","city":"商丘市","county":"民权县","community":"北关镇安李庄村","full_address":"河南省商丘市民权县北关镇安李庄村","info":""}},{"type":"Feature","geometry":{"type":"Point","coordinates":[115.288987,34.790572]},"properties":{"province":"河南省","city":"商丘市","county":"民权县","community":"北关镇东村","full_address":"河南省商丘市民权县北关镇东村","info":""}},{"type":"Feature","geometry":{"type":"Point","coordinates":[115.178726,34.638404]},"properties":{"province":"河南省","city":"商丘市","county":"民权县","community":"盛世名门二期小区","full_address":"河南省商丘市民权县盛世名门二期小区","info":""}},{"type":"Feature","geometry":{"type":"Point","coordinates":[115.181504,34.63892]},"properties":{"province":"河南省","city":"商丘市","county":"民权县","community":"江山尚品小区","full_address":"河南省商丘市民权县江山尚品小区","info":""}},{"type":"Feature","geometry":{"type":"Point","coordinates":[115.302594,34.843271]},"properties":{"province":"河南省","city":"商丘市","county":"民权县","community":"北关镇李馆西村","full_address":"河南省商丘市民权县北关镇李馆西村","info":""}},{"type":"Feature","geometry":{"type":"Point","coordinates":[115.43206,34.707272]},"properties":{"province":"河南省","city":"商丘市","county":"民权县","community":"老颜集乡张辛庄村张柳庄自然村","full_address":"河南省商丘市民权县老颜集乡张辛庄村张柳庄自然村","info":""}},{"type":"Feature","geometry":{"type":"Point","coordinates":[115.028302,34.690545]},"properties":{"province":"河南省","city":"商丘市","county":"民权县","community":"野岗镇野南村","full_address":"河南省商丘市民权县野岗镇野南村","info":""}},{"type":"Feature","geometry":{"type":"Point","coordinates":[115.034539,34.652765]},"properties":{"province":"河南省","city":"商丘市","county":"民权县","community":"野岗镇徐堂村","full_address":"河南省商丘市民权县野岗镇徐堂村","info":""}},{"type":"Feature","geometry":{"type":"Point","coordinates":[114.508496,32.19407]},"properties":{"province":"河南省","city":"信阳市","county":"罗山县","community":"丽水街道赵园社区九龙大道1号","full_address":"河南省信阳市罗山县丽水街道赵园社区九龙大道1号","info":""}},{"type":"Feature","geometry":{"type":"Point","coordinates":[114.518888,32.206851]},"properties":{"province":"河南省","city":"信阳市","county":"罗山县","community":"丽水街道邵洼社区玉安花园小区","full_address":"河南省信阳市罗山县丽水街道邵洼社区玉安花园小区","info":""}},{"type":"Feature","geometry":{"type":"Point","coordinates":[114.542456,32.207736]},"properties":{"province":"河南省","city":"信阳市","county":"罗山县","community":"宝城街道大园社区","full_address":"河南省信阳市罗山县宝城街道大园社区","info":""}},{"type":"Feature","geometry":{"type":"Point","coordinates":[114.480683,34.123742]},"properties":{"province":"河南省","city":"周口市","county":"扶沟县","community":"吕潭乡葛岗行政村齐桥自然村","full_address":"河南省周口市扶沟县吕潭乡葛岗行政村齐桥自然村","info":""}},{"type":"Feature","geometry":{"type":"Point","coordinates":[114.324966,30.355691]},"properties":{"province":"湖北省","city":"武汉市","county":"江夏区","community":"纸坊街道办事处宿舍楼","full_address":"湖北省武汉市江夏区纸坊街道办事处宿舍楼","info":""}},{"type":"Feature","geometry":{"type":"Point","coordinates":[114.33439,30.342462]},"properties":{"province":"湖北省","city":"武汉市","county":"江夏区","community":"纸坊街道林特小区","full_address":"湖北省武汉市江夏区纸坊街道林特小区","info":""}},{"type":"Feature","geometry":{"type":"Point","coordinates":[114.339084,30.350935]},"properties":{"province":"湖北省","city":"武汉市","county":"江夏区","community":"纸坊街道齐心科技创业社区","full_address":"湖北省武汉市江夏区纸坊街道齐心科技创业社区","info":""}},{"type":"Feature","geometry":{"type":"Point","coordinates":[114.370248,30.386492]},"properties":{"province":"湖北省","city":"武汉市","county":"江夏区","community":"罗马春天奥特莱斯（不含水上乐园及停车场区域）","full_address":"湖北省武汉市江夏区罗马春天奥特莱斯（不含水上乐园及停车场区域）","info":""}},{"type":"Feature","geometry":{"type":"Point","coordinates":[114.326278,30.363678]},"properties":{"province":"湖北省","city":"武汉市","county":"江夏区","community":"纸坊街道弘志街金地花园小区","full_address":"湖北省武汉市江夏区纸坊街道弘志街金地花园小区","info":""}},{"type":"Feature","geometry":{"type":"Point","coordinates":[114.329478,30.358739]},"properties":{"province":"湖北省","city":"武汉市","county":"江夏区","community":"纸坊街道九全嘉购物广场","full_address":"湖北省武汉市江夏区纸坊街道九全嘉购物广场","info":""}},{"type":"Feature","geometry":{"type":"Point","coordinates":[114.026098,22.526858]},"properties":{"province":"广东省","city":"深圳市","county":"福田区","community":"沙头街道下沙村三坊第9栋-13栋、第23栋-30栋、第41栋-47栋、第61栋","full_address":"广东省深圳市福田区沙头街道下沙村三坊第9栋-13栋、第23栋-30栋、第41栋-47栋、第61栋","info":""}},{"type":"Feature","geometry":{"type":"Point","coordinates":[114.055927,22.525172]},"properties":{"province":"广东省","city":"深圳市","county":"福田区","community":"福保街道明月社区天健阳光华苑B座","full_address":"广东省深圳市福田区福保街道明月社区天健阳光华苑B座","info":""}},{"type":"Feature","geometry":{"type":"Point","coordinates":[114.027835,22.522525]},"properties":{"province":"广东省","city":"深圳市","county":"福田区","community":"沙头街道鸿景湾名苑A座海逸阁","full_address":"广东省深圳市福田区沙头街道鸿景湾名苑A座海逸阁","info":""}},{"type":"Feature","geometry":{"type":"Point","coordinates":[114.041758,22.518551]},"properties":{"province":"广东省","city":"深圳市","county":"福田区","community":"沙头街道沙尾西村第40-41栋、第246栋、第248-249栋、第255栋、第256-257栋、第258栋-260栋","full_address":"广东省深圳市福田区沙头街道沙尾西村第40-41栋、第246栋、第248-249栋、第255栋、第256-257栋、第258栋-260栋","info":""}},{"type":"Feature","geometry":{"type":"Point","coordinates":[113.879372,22.559049]},"properties":{"province":"广东省","city":"深圳市","county":"宝安区","community":"新安街道海裕社区幸福海岸花园小区8栋A、B、C座","full_address":"广东省深圳市宝安区新安街道海裕社区幸福海岸花园小区8栋A、B、C座","info":""}},{"type":"Feature","geometry":{"type":"Point","coordinates":[114.183676,22.650978]},"properties":{"province":"广东省","city":"深圳市","county":"龙岗区","community":"横岗街道怡锦社区天颂雅苑2栋","full_address":"广东省深圳市龙岗区横岗街道怡锦社区天颂雅苑2栋","info":""}},{"type":"Feature","geometry":{"type":"Point","coordinates":[114.067992,22.636679]},"properties":{"province":"广东省","city":"深圳市","county":"龙岗区","community":"坂田街道坂田社区吉华路534号楼栋","full_address":"广东省深圳市龙岗区坂田街道坂田社区吉华路534号楼栋","info":""}},{"type":"Feature","geometry":{"type":"Point","coordinates":[114.108951,22.627304]},"properties":{"province":"广东省","city":"深圳市","county":"龙岗区","community":"吉华街道丽湖社区上水花园6区77-6、7、8栋，66-4、5、6栋，88-6、7、8栋","full_address":"广东省深圳市龙岗区吉华街道丽湖社区上水花园6区77-6、7、8栋，66-4、5、6栋，88-6、7、8栋","info":""}},{"type":"Feature","geometry":{"type":"Point","coordinates":[114.136202,22.695564]},"properties":{"province":"广东省","city":"深圳市","county":"龙岗区","community":"平湖街道凤凰社区横岭路18号、横岭路20号、横岭路22号、文山巷2号、文山巷4号、文山巷5号、文山巷6号","full_address":"广东省深圳市龙岗区平湖街道凤凰社区横岭路18号、横岭路20号、横岭路22号、文山巷2号、文山巷4号、文山巷5号、文山巷6号","info":""}},{"type":"Feature","geometry":{"type":"Point","coordinates":[114.045902,22.607853]},"properties":{"province":"广东省","city":"深圳市","county":"龙华区","community":"民治街道民新社区横岭一区第10栋、11栋、12栋、23栋","full_address":"广东省深圳市龙华区民治街道民新社区横岭一区第10栋、11栋、12栋、23栋","info":""}},{"type":"Feature","geometry":{"type":"Point","coordinates":[113.99035,22.677384]},"properties":{"province":"广东省","city":"深圳市","county":"龙华区","community":"龙华街道油松社区油松综合小区B2至B4栋、C栋","full_address":"广东省深圳市龙华区龙华街道油松社区油松综合小区B2至B4栋、C栋","info":""}},{"type":"Feature","geometry":{"type":"Point","coordinates":[114.04555,22.608735]},"properties":{"province":"广东省","city":"深圳市","county":"龙华区","community":"民治街道民新社区横岭一区第1至12栋、第13至24栋、第31至36栋、第43至45栋、第53至57栋","full_address":"广东省深圳市龙华区民治街道民新社区横岭一区第1至12栋、第13至24栋、第31至36栋、第43至45栋、第53至57栋","info":""}},{"type":"Feature","geometry":{"type":"Point","coordinates":[114.395133,22.743435]},"properties":{"province":"广东省","city":"深圳市","county":"坪山区","community":"坑梓街道金沙社区长隆二区一巷1、2、3号，长隆二区二巷1、2、3号","full_address":"广东省深圳市坪山区坑梓街道金沙社区长隆二区一巷1、2、3号，长隆二区二巷1、2、3号","info":""}},{"type":"Feature","geometry":{"type":"Point","coordinates":[113.867442,23.135038]},"properties":{"province":"广东省","city":"惠州市","county":"博罗县","community":"石湾镇一品中央小区、蒸旺小笼包所在及左右两栋居民楼","full_address":"广东省惠州市博罗县石湾镇一品中央小区、蒸旺小笼包所在及左右两栋居民楼","info":""}},{"type":"Feature","geometry":{"type":"Point","coordinates":[109.166177,21.489755]},"properties":{"province":"广西壮族自治区","city":"北海市","county":"海城区","community":"高德街道北海大道以北、上海路以东、河南路以西、湖海路（规划路）以南（绿馨园、北海市市场监管局除外）","full_address":"广西壮族自治区北海市海城区高德街道北海大道以北、上海路以东、河南路以西、湖海路（规划路）以南（绿馨园、北海市市场监管局除外）","info":""}},{"type":"Feature","geometry":{"type":"Point","coordinates":[109.173429,21.488759]},"properties":{"province":"广西壮族自治区","city":"北海市","county":"海城区","community":"高德街道马栏村委会海枫和苑","full_address":"广西壮族自治区北海市海城区高德街道马栏村委会海枫和苑","info":""}},{"type":"Feature","geometry":{"type":"Point","coordinates":[109.156555,21.478396]},"properties":{"province":"广西壮族自治区","city":"北海市","county":"海城区","community":"西南大道以北 、河南路以西、上海路以东、北海大道以南（除民兵训练基地、妇幼保健院、市公安局）","full_address":"广西壮族自治区北海市海城区西南大道以北 、河南路以西、上海路以东、北海大道以南（除民兵训练基地、妇幼保健院、市公安局）","info":""}},{"type":"Feature","geometry":{"type":"Point","coordinates":[109.12775,21.472768]},"properties":{"province":"广西壮族自治区","city":"北海市","county":"海城区","community":"高德街道马栏村委会高德教育住宅小区第1排7幢第10至12号","full_address":"广西壮族自治区北海市海城区高德街道马栏村委会高德教育住宅小区第1排7幢第10至12号","info":""}},{"type":"Feature","geometry":{"type":"Point","coordinates":[109.369695,21.526371]},"properties":{"province":"广西壮族自治区","city":"北海市","county":"海城区","community":"高德街道开江村委会向海大道蔡屋村16号","full_address":"广西壮族自治区北海市海城区高德街道开江村委会向海大道蔡屋村16号","info":""}},{"type":"Feature","geometry":{"type":"Point","coordinates":[109.168536,21.51578]},"properties":{"province":"广西壮族自治区","city":"北海市","county":"海城区","community":"高德街道庙山社区、沙脚社区","full_address":"广西壮族自治区北海市海城区高德街道庙山社区、沙脚社区","info":""}},{"type":"Feature","geometry":{"type":"Point","coordinates":[109.169492,21.485289]},"properties":{"province":"广西壮族自治区","city":"北海市","county":"海城区","community":"高德街道马栏村委会南珠大道50号南珠园第二排5到7号、猛鸡特村","full_address":"广西壮族自治区北海市海城区高德街道马栏村委会南珠大道50号南珠园第二排5到7号、猛鸡特村","info":""}},{"type":"Feature","geometry":{"type":"Point","coordinates":[109.157149,21.49188]},"properties":{"province":"广西壮族自治区","city":"北海市","county":"海城区","community":"高德街道高农村委会回建区一期C106-108号","full_address":"广西壮族自治区北海市海城区高德街道高农村委会回建区一期C106-108号","info":""}},{"type":"Feature","geometry":{"type":"Point","coordinates":[109.184583,21.478787]},"properties":{"province":"广西壮族自治区","city":"北海市","county":"海城区","community":"高德街道马栏村委会马栏四队黄某娟家","full_address":"广西壮族自治区北海市海城区高德街道马栏村委会马栏四队黄某娟家","info":""}},{"type":"Feature","geometry":{"type":"Point","coordinates":[109.112717,21.461843]},"properties":{"province":"广西壮族自治区","city":"北海市","county":"海城区","community":"西街街道平安街社区恒大新城","full_address":"广西壮族自治区北海市海城区西街街道平安街社区恒大新城","info":""}},{"type":"Feature","geometry":{"type":"Point","coordinates":[109.110198,21.475013]},"properties":{"province":"广西壮族自治区","city":"北海市","county":"海城区","community":"海角街道四川路万家兴B栋","full_address":"广西壮族自治区北海市海城区海角街道四川路万家兴B栋","info":""}},{"type":"Feature","geometry":{"type":"Point","coordinates":[109.149044,21.479134]},"properties":{"province":"广西壮族自治区","city":"北海市","county":"海城区","community":"上海路以西、北海大道以北、湖南路以东、北部湾路以南（保持主干道路通行）","full_address":"广西壮族自治区北海市海城区上海路以西、北海大道以北、湖南路以东、北部湾路以南（保持主干道路通行）","info":""}},{"type":"Feature","geometry":{"type":"Point","coordinates":[109.137,21.470211]},"properties":{"province":"广西壮族自治区","city":"北海市","county":"海城区","community":"北海大道以南、重庆路以北、上海路以西、山湖海东墙以东（保持主干道路通行）","full_address":"广西壮族自治区北海市海城区北海大道以南、重庆路以北、上海路以西、山湖海东墙以东（保持主干道路通行）","info":""}},{"type":"Feature","geometry":{"type":"Point","coordinates":[109.144328,21.462619]},"properties":{"province":"广西壮族自治区","city":"北海市","county":"海城区","community":"驿马街道西南大道以南、广东路以东、圣煌广场东墙以西、铁路明渠以北（除北海市公共汽车有限公司）","full_address":"广西壮族自治区北海市海城区驿马街道西南大道以南、广东路以东、圣煌广场东墙以西、铁路明渠以北（除北海市公共汽车有限公司）","info":""}},{"type":"Feature","geometry":{"type":"Point","coordinates":[109.166287,21.473268]},"properties":{"province":"广西壮族自治区","city":"北海市","county":"海城区","community":"驿马街道重庆路以南、上海路以西、西南大道以北、湖南路以东（除看守所、蜀海善府小区、太平洋广场）","full_address":"广西壮族自治区北海市海城区驿马街道重庆路以南、上海路以西、西南大道以北、湖南路以东（除看守所、蜀海善府小区、太平洋广场）","info":""}},{"type":"Feature","geometry":{"type":"Point","coordinates":[109.142629,21.467862]},"properties":{"province":"广西壮族自治区","city":"北海市","county":"海城区","community":"驿马街道重庆路与湖南路交汇处逢时商场花园","full_address":"广西壮族自治区北海市海城区驿马街道重庆路与湖南路交汇处逢时商场花园","info":""}},{"type":"Feature","geometry":{"type":"Point","coordinates":[109.147556,21.46275]},"properties":{"province":"广西壮族自治区","city":"北海市","county":"海城区","community":"驿马街道驿马村委会半坡一区3号、半坡二区12号、17号","full_address":"广西壮族自治区北海市海城区驿马街道驿马村委会半坡一区3号、半坡二区12号、17号","info":""}},{"type":"Feature","geometry":{"type":"Point","coordinates":[109.150741,21.461107]},"properties":{"province":"广西壮族自治区","city":"北海市","county":"海城区","community":"驿马街道驿马村委会牛角塘二区3巷","full_address":"广西壮族自治区北海市海城区驿马街道驿马村委会牛角塘二区3巷","info":""}},{"type":"Feature","geometry":{"type":"Point","coordinates":[109.126948,21.467307]},"properties":{"province":"广西壮族自治区","city":"北海市","county":"海城区","community":"驿马街道西塘社区陈文村路天成公寓","full_address":"广西壮族自治区北海市海城区驿马街道西塘社区陈文村路天成公寓","info":""}},{"type":"Feature","geometry":{"type":"Point","coordinates":[109.123111,21.460375]},"properties":{"province":"广西壮族自治区","city":"北海市","county":"海城区","community":"驿马街道其仓村东区97号","full_address":"广西壮族自治区北海市海城区驿马街道其仓村东区97号","info":""}},{"type":"Feature","geometry":{"type":"Point","coordinates":[109.135296,21.486802]},"properties":{"province":"广西壮族自治区","city":"北海市","county":"海城区","community":"东街街道北部湾东社区谭屋村","full_address":"广西壮族自治区北海市海城区东街街道北部湾东社区谭屋村","info":""}},{"type":"Feature","geometry":{"type":"Point","coordinates":[109.09887,21.457573]},"properties":{"province":"广西壮族自治区","city":"北海市","county":"海城区","community":"东街街道大囊7巷","full_address":"广西壮族自治区北海市海城区东街街道大囊7巷","info":""}},{"type":"Feature","geometry":{"type":"Point","coordinates":[109.130548,21.484915]},"properties":{"province":"广西壮族自治区","city":"北海市","county":"海城区","community":"东街街道茶亭路社区北部湾东路9号东大金星花苑2栋","full_address":"广西壮族自治区北海市海城区东街街道茶亭路社区北部湾东路9号东大金星花苑2栋","info":""}},{"type":"Feature","geometry":{"type":"Point","coordinates":[109.13298,21.477701]},"properties":{"province":"广西壮族自治区","city":"北海市","county":"海城区","community":"东街街道铜鼓里社区工商银行宿舍9栋","full_address":"广西壮族自治区北海市海城区东街街道铜鼓里社区工商银行宿舍9栋","info":""}},{"type":"Feature","geometry":{"type":"Point","coordinates":[109.125879,21.483245]},"properties":{"province":"广西壮族自治区","city":"北海市","county":"海城区","community":"中街街道新安街社区居委会光明里一至三巷","full_address":"广西壮族自治区北海市海城区中街街道新安街社区居委会光明里一至三巷","info":""}},{"type":"Feature","geometry":{"type":"Point","coordinates":[109.112708,21.48041]},"properties":{"province":"广西壮族自治区","city":"北海市","county":"海城区","community":"中街街道幸福里社区居委会新建四巷22至24号","full_address":"广西壮族自治区北海市海城区中街街道幸福里社区居委会新建四巷22至24号","info":""}},{"type":"Feature","geometry":{"type":"Point","coordinates":[109.169476,21.503913]},"properties":{"province":"广西壮族自治区","city":"北海市","county":"海城区","community":"高德街道开江村委会143号","full_address":"广西壮族自治区北海市海城区高德街道开江村委会143号","info":""}},{"type":"Feature","geometry":{"type":"Point","coordinates":[109.112308,21.457897]},"properties":{"province":"广西壮族自治区","city":"北海市","county":"海城区","community":"驿马街道白屋社区居委会四川南路以东亚村太保公寓","full_address":"广西壮族自治区北海市海城区驿马街道白屋社区居委会四川南路以东亚村太保公寓","info":""}},{"type":"Feature","geometry":{"type":"Point","coordinates":[109.14831,21.494117]},"properties":{"province":"广西壮族自治区","city":"北海市","county":"海城区","community":"高德街道高德一居社区高德西里四巷","full_address":"广西壮族自治区北海市海城区高德街道高德一居社区高德西里四巷","info":""}},{"type":"Feature","geometry":{"type":"Point","coordinates":[109.125706,21.45652]},"properties":{"province":"广西壮族自治区","city":"北海市","county":"海城区","community":"驿马街道白屋社区城市丽景","full_address":"广西壮族自治区北海市海城区驿马街道白屋社区城市丽景","info":""}},{"type":"Feature","geometry":{"type":"Point","coordinates":[109.10942,21.480956]},"properties":{"province":"广西壮族自治区","city":"北海市","county":"海城区","community":"海角街道天赐碧园13栋","full_address":"广西壮族自治区北海市海城区海角街道天赐碧园13栋","info":""}},{"type":"Feature","geometry":{"type":"Point","coordinates":[109.126178,21.477741]},"properties":{"province":"广西壮族自治区","city":"北海市","county":"海城区","community":"中街街道体育路名座小区8栋","full_address":"广西壮族自治区北海市海城区中街街道体育路名座小区8栋","info":""}},{"type":"Feature","geometry":{"type":"Point","coordinates":[109.129269,21.48208]},"properties":{"province":"广西壮族自治区","city":"北海市","county":"海城区","community":"东街街道振业小区4栋","full_address":"广西壮族自治区北海市海城区东街街道振业小区4栋","info":""}},{"type":"Feature","geometry":{"type":"Point","coordinates":[109.12638,21.47762]},"properties":{"province":"广西壮族自治区","city":"北海市","county":"海城区","community":"中街街道广东路油行村一巷20号左右各5间房","full_address":"广西壮族自治区北海市海城区中街街道广东路油行村一巷20号左右各5间房","info":""}},{"type":"Feature","geometry":{"type":"Point","coordinates":[109.101577,21.449556]},"properties":{"province":"广西壮族自治区","city":"北海市","county":"海城区","community":"驿马街道金湾银畔2栋","full_address":"广西壮族自治区北海市海城区驿马街道金湾银畔2栋","info":""}},{"type":"Feature","geometry":{"type":"Point","coordinates":[109.169476,21.503913]},"properties":{"province":"广西壮族自治区","city":"北海市","county":"海城区","community":"高德街道开江村委会屋仔村","full_address":"广西壮族自治区北海市海城区高德街道开江村委会屋仔村","info":""}},{"type":"Feature","geometry":{"type":"Point","coordinates":[109.082006,21.472601]},"properties":{"province":"广西壮族自治区","city":"北海市","county":"海城区","community":"地角街道昆明路社区地角沙坡一巷18-20号","full_address":"广西壮族自治区北海市海城区地角街道昆明路社区地角沙坡一巷18-20号","info":""}},{"type":"Feature","geometry":{"type":"Point","coordinates":[109.095603,21.456371]},"properties":{"province":"广西壮族自治区","city":"北海市","county":"海城区","community":"地角街道银湾社区西藏路中皇花园三巷12号周边5间房","full_address":"广西壮族自治区北海市海城区地角街道银湾社区西藏路中皇花园三巷12号周边5间房","info":""}},{"type":"Feature","geometry":{"type":"Point","coordinates":[109.138328,21.476389]},"properties":{"province":"广西壮族自治区","city":"北海市","county":"海城区","community":"东街街道湖海路社区居委会吉兴花园1栋","full_address":"广西壮族自治区北海市海城区东街街道湖海路社区居委会吉兴花园1栋","info":""}},{"type":"Feature","geometry":{"type":"Point","coordinates":[109.135075,21.474006]},"properties":{"province":"广西壮族自治区","city":"北海市","county":"海城区","community":"东街街道铜鼓新村建行宿舍1栋","full_address":"广西壮族自治区北海市海城区东街街道铜鼓新村建行宿舍1栋","info":""}},{"type":"Feature","geometry":{"type":"Point","coordinates":[109.107511,21.474134]},"properties":{"province":"广西壮族自治区","city":"北海市","county":"海城区","community":"中街街道北部湾西社区居委会三中东里三栋","full_address":"广西壮族自治区北海市海城区中街街道北部湾西社区居委会三中东里三栋","info":""}},{"type":"Feature","geometry":{"type":"Point","coordinates":[109.120748,21.454508]},"properties":{"province":"广西壮族自治区","city":"北海市","county":"海城区","community":"驿马街道站前路格林香海怡海轩2A","full_address":"广西壮族自治区北海市海城区驿马街道站前路格林香海怡海轩2A","info":""}},{"type":"Feature","geometry":{"type":"Point","coordinates":[109.106596,21.447776]},"properties":{"province":"广西壮族自治区","city":"北海市","county":"海城区","community":"海角街道云南路60号碧海新城小区1栋","full_address":"广西壮族自治区北海市海城区海角街道云南路60号碧海新城小区1栋","info":""}},{"type":"Feature","geometry":{"type":"Point","coordinates":[109.146471,21.489781]},"properties":{"province":"广西壮族自治区","city":"北海市","county":"海城区","community":"高德街道上海中路社区海语城小区6栋、11栋、17栋、19栋","full_address":"广西壮族自治区北海市海城区高德街道上海中路社区海语城小区6栋、11栋、17栋、19栋","info":""}},{"type":"Feature","geometry":{"type":"Point","coordinates":[109.165499,21.480503]},"properties":{"province":"广西壮族自治区","city":"北海市","county":"海城区","community":"高德街道马栏村委会北海大道东华美公寓","full_address":"广西壮族自治区北海市海城区高德街道马栏村委会北海大道东华美公寓","info":""}},{"type":"Feature","geometry":{"type":"Point","coordinates":[109.192212,21.524315]},"properties":{"province":"广西壮族自治区","city":"北海市","county":"海城区","community":"高德街道吉林路社区北海大道同和泊湾27栋","full_address":"广西壮族自治区北海市海城区高德街道吉林路社区北海大道同和泊湾27栋","info":""}},{"type":"Feature","geometry":{"type":"Point","coordinates":[109.145513,21.494473]},"properties":{"province":"广西壮族自治区","city":"北海市","county":"海城区","community":"高德街道上海北路社区星海湾花园帝海阁","full_address":"广西壮族自治区北海市海城区高德街道上海北路社区星海湾花园帝海阁","info":""}},{"type":"Feature","geometry":{"type":"Point","coordinates":[109.157307,21.496931]},"properties":{"province":"广西壮族自治区","city":"北海市","county":"海城区","community":"高德街道高农村委会新业花园4栋","full_address":"广西壮族自治区北海市海城区高德街道高农村委会新业花园4栋","info":""}},{"type":"Feature","geometry":{"type":"Point","coordinates":[109.122547,21.475613]},"properties":{"province":"广西壮族自治区","city":"北海市","county":"海城区","community":"中街街道公园路社区文明南路二巷36号、38号、40号、三巷47号、49号、51号","full_address":"广西壮族自治区北海市海城区中街街道公园路社区文明南路二巷36号、38号、40号、三巷47号、49号、51号","info":""}},{"type":"Feature","geometry":{"type":"Point","coordinates":[109.112708,21.48041]},"properties":{"province":"广西壮族自治区","city":"北海市","county":"海城区","community":"中街街道幸福里社区担水巷51号二楼","full_address":"广西壮族自治区北海市海城区中街街道幸福里社区担水巷51号二楼","info":""}},{"type":"Feature","geometry":{"type":"Point","coordinates":[109.105994,21.461073]},"properties":{"province":"广西壮族自治区","city":"北海市","county":"海城区","community":"西街街道云南南路社区石化路银苑小区39栋","full_address":"广西壮族自治区北海市海城区西街街道云南南路社区石化路银苑小区39栋","info":""}},{"type":"Feature","geometry":{"type":"Point","coordinates":[109.099803,21.476772]},"properties":{"province":"广西壮族自治区","city":"北海市","county":"海城区","community":"海角街道海角大道社区海角路云海小区3栋","full_address":"广西壮族自治区北海市海城区海角街道海角大道社区海角路云海小区3栋","info":""}},{"type":"Feature","geometry":{"type":"Point","coordinates":[109.160896,21.44696]},"properties":{"province":"广西壮族自治区","city":"北海市","county":"海城区","community":"驿马街道驿马村委会上海路园辉新都20栋","full_address":"广西壮族自治区北海市海城区驿马街道驿马村委会上海路园辉新都20栋","info":""}},{"type":"Feature","geometry":{"type":"Point","coordinates":[109.119,21.46581]},"properties":{"province":"广西壮族自治区","city":"北海市","county":"海城区","community":"驿马街道怡海新村社区嘉福文华苑5栋","full_address":"广西壮族自治区北海市海城区驿马街道怡海新村社区嘉福文华苑5栋","info":""}},{"type":"Feature","geometry":{"type":"Point","coordinates":[109.115216,21.464423]},"properties":{"province":"广西壮族自治区","city":"北海市","county":"海城区","community":"驿马街道怡海新村社区滨城大厦A栋","full_address":"广西壮族自治区北海市海城区驿马街道怡海新村社区滨城大厦A栋","info":""}},{"type":"Feature","geometry":{"type":"Point","coordinates":[109.121227,21.453329]},"properties":{"province":"广西壮族自治区","city":"北海市","county":"海城区","community":"驿马街道白屋社区格林香海华林居5栋","full_address":"广西壮族自治区北海市海城区驿马街道白屋社区格林香海华林居5栋","info":""}},{"type":"Feature","geometry":{"type":"Point","coordinates":[109.130244,21.461057]},"properties":{"province":"广西壮族自治区","city":"北海市","county":"海城区","community":"驿马街道西塘社区源丰路29号大成公寓b幢","full_address":"广西壮族自治区北海市海城区驿马街道西塘社区源丰路29号大成公寓b幢","info":""}},{"type":"Feature","geometry":{"type":"Point","coordinates":[109.123351,21.468253]},"properties":{"province":"广西壮族自治区","city":"北海市","county":"海城区","community":"中街街道塘仔里社区北海大道晏峰建材商城小区B栋","full_address":"广西壮族自治区北海市海城区中街街道塘仔里社区北海大道晏峰建材商城小区B栋","info":""}},{"type":"Feature","geometry":{"type":"Point","coordinates":[109.157267,21.496498]},"properties":{"province":"广西壮族自治区","city":"北海市","county":"海城区","community":"高德街道高农村委会新业花园（除4栋外）","full_address":"广西壮族自治区北海市海城区高德街道高农村委会新业花园（除4栋外）","info":""}},{"type":"Feature","geometry":{"type":"Point","coordinates":[109.181333,21.532542]},"properties":{"province":"广西壮族自治区","city":"北海市","county":"海城区","community":"高德街道吉林路社区竹苑小区5幢","full_address":"广西壮族自治区北海市海城区高德街道吉林路社区竹苑小区5幢","info":""}},{"type":"Feature","geometry":{"type":"Point","coordinates":[109.107928,21.451131]},"properties":{"province":"广西壮族自治区","city":"北海市","county":"海城区","community":"驿马街道白屋社区云南路福利花园","full_address":"广西壮族自治区北海市海城区驿马街道白屋社区云南路福利花园","info":""}},{"type":"Feature","geometry":{"type":"Point","coordinates":[109.139519,21.462529]},"properties":{"province":"广西壮族自治区","city":"北海市","county":"海城区","community":"驿马街道驿马村委会和世新都","full_address":"广西壮族自治区北海市海城区驿马街道驿马村委会和世新都","info":""}},{"type":"Feature","geometry":{"type":"Point","coordinates":[109.126233,21.48588]},"properties":{"province":"广西壮族自治区","city":"北海市","county":"海城区","community":"东街街道茶亭路社区茶亭路21号","full_address":"广西壮族自治区北海市海城区东街街道茶亭路社区茶亭路21号","info":""}},{"type":"Feature","geometry":{"type":"Point","coordinates":[109.13563,21.477767]},"properties":{"province":"广西壮族自治区","city":"北海市","county":"海城区","community":"驿马街道湖海路社区湖海中路37号至40号","full_address":"广西壮族自治区北海市海城区驿马街道湖海路社区湖海中路37号至40号","info":""}},{"type":"Feature","geometry":{"type":"Point","coordinates":[109.130586,21.484823]},"properties":{"province":"广西壮族自治区","city":"北海市","county":"海城区","community":"东街街道政法路社区深圳路教育里一至三巷","full_address":"广西壮族自治区北海市海城区东街街道政法路社区深圳路教育里一至三巷","info":""}},{"type":"Feature","geometry":{"type":"Point","coordinates":[109.128417,21.478657]},"properties":{"province":"广西壮族自治区","city":"北海市","county":"海城区","community":"东街街道政法路社区广东路75号农机局宿舍","full_address":"广西壮族自治区北海市海城区东街街道政法路社区广东路75号农机局宿舍","info":""}},{"type":"Feature","geometry":{"type":"Point","coordinates":[109.161378,21.496611]},"properties":{"province":"广西壮族自治区","city":"北海市","county":"海城区","community":"高德街道高农村委会北部湾东路92号东盛美景小区","full_address":"广西壮族自治区北海市海城区高德街道高农村委会北部湾东路92号东盛美景小区","info":""}},{"type":"Feature","geometry":{"type":"Point","coordinates":[109.157556,21.499336]},"properties":{"province":"广西壮族自治区","city":"北海市","county":"海城区","community":"高德街道军屯村委会工业园中电回建小区","full_address":"广西壮族自治区北海市海城区高德街道军屯村委会工业园中电回建小区","info":""}},{"type":"Feature","geometry":{"type":"Point","coordinates":[109.184583,21.478787]},"properties":{"province":"广西壮族自治区","city":"北海市","county":"海城区","community":"高德街道马栏村委会老吉车村","full_address":"广西壮族自治区北海市海城区高德街道马栏村委会老吉车村","info":""}},{"type":"Feature","geometry":{"type":"Point","coordinates":[109.125904,21.464985]},"properties":{"province":"广西壮族自治区","city":"北海市","county":"海城区","community":"驿马街道西塘社区深港路55号汇宇广场小区","full_address":"广西壮族自治区北海市海城区驿马街道西塘社区深港路55号汇宇广场小区","info":""}},{"type":"Feature","geometry":{"type":"Point","coordinates":[109.12739,21.47292]},"properties":{"province":"广西壮族自治区","city":"北海市","county":"海城区","community":"中街街道南珠路社区公园路3号教育局住宅区","full_address":"广西壮族自治区北海市海城区中街街道南珠路社区公园路3号教育局住宅区","info":""}},{"type":"Feature","geometry":{"type":"Point","coordinates":[109.099915,21.47176]},"properties":{"province":"广西壮族自治区","city":"北海市","county":"海城区","community":"海角街道独树根东社区变电南七至九巷","full_address":"广西壮族自治区北海市海城区海角街道独树根东社区变电南七至九巷","info":""}},{"type":"Feature","geometry":{"type":"Point","coordinates":[109.106607,21.462583]},"properties":{"province":"广西壮族自治区","city":"北海市","county":"海城区","community":"海角街道独树根东社区丽珠小区","full_address":"广西壮族自治区北海市海城区海角街道独树根东社区丽珠小区","info":""}},{"type":"Feature","geometry":{"type":"Point","coordinates":[109.105288,21.477378]},"properties":{"province":"广西壮族自治区","city":"北海市","county":"海城区","community":"海角街道前进路社区南万路74号左右临街两旁街道各10间","full_address":"广西壮族自治区北海市海城区海角街道前进路社区南万路74号左右临街两旁街道各10间","info":""}},{"type":"Feature","geometry":{"type":"Point","coordinates":[109.087499,21.477329]},"properties":{"province":"广西壮族自治区","city":"北海市","county":"海城区","community":"海角街道树独根西社区海角路167号","full_address":"广西壮族自治区北海市海城区海角街道树独根西社区海角路167号","info":""}},{"type":"Feature","geometry":{"type":"Point","coordinates":[109.098218,21.450837]},"properties":{"province":"广西壮族自治区","city":"北海市","county":"海城区","community":"驿马街道银湾社区西藏路回建小区","full_address":"广西壮族自治区北海市海城区驿马街道银湾社区西藏路回建小区","info":""}},{"type":"Feature","geometry":{"type":"Point","coordinates":[109.079749,21.462656]},"properties":{"province":"广西壮族自治区","city":"北海市","county":"海城区","community":"驿马街道银湾社区成都路经济适用房住宅小区","full_address":"广西壮族自治区北海市海城区驿马街道银湾社区成都路经济适用房住宅小区","info":""}},{"type":"Feature","geometry":{"type":"Point","coordinates":[109.109146,21.462155]},"properties":{"province":"广西壮族自治区","city":"北海市","county":"海城区","community":"西街街道平安街社区便民市场","full_address":"广西壮族自治区北海市海城区西街街道平安街社区便民市场","info":""}},{"type":"Feature","geometry":{"type":"Point","coordinates":[109.109916,21.464754]},"properties":{"province":"广西壮族自治区","city":"北海市","county":"海城区","community":"西街街道平安街社区北海大道207号二建生活区","full_address":"广西壮族自治区北海市海城区西街街道平安街社区北海大道207号二建生活区","info":""}},{"type":"Feature","geometry":{"type":"Point","coordinates":[109.103654,21.446834]},"properties":{"province":"广西壮族自治区","city":"北海市","county":"海城区","community":"驿马街道银湾社区银湾花园筇海苑水天明轩","full_address":"广西壮族自治区北海市海城区驿马街道银湾社区银湾花园筇海苑水天明轩","info":""}},{"type":"Feature","geometry":{"type":"Point","coordinates":[109.126561,21.478079]},"properties":{"province":"广西壮族自治区","city":"北海市","county":"海城区","community":"西街街道云南南路社区油行村一至六巷","full_address":"广西壮族自治区北海市海城区西街街道云南南路社区油行村一至六巷","info":""}},{"type":"Feature","geometry":{"type":"Point","coordinates":[109.128924,21.465242]},"properties":{"province":"广西壮族自治区","city":"北海市","county":"海城区","community":"驿马街道西塘社区十二间屋新区","full_address":"广西壮族自治区北海市海城区驿马街道西塘社区十二间屋新区","info":""}},{"type":"Feature","geometry":{"type":"Point","coordinates":[109.124554,21.467754]},"properties":{"province":"广西壮族自治区","city":"北海市","county":"海城区","community":"驿马街道西塘社区海商大厦","full_address":"广西壮族自治区北海市海城区驿马街道西塘社区海商大厦","info":""}},{"type":"Feature","geometry":{"type":"Point","coordinates":[109.128777,21.466156]},"properties":{"province":"广西壮族自治区","city":"北海市","county":"海城区","community":"驿马街道西塘社区陈文村路6至8号","full_address":"广西壮族自治区北海市海城区驿马街道西塘社区陈文村路6至8号","info":""}},{"type":"Feature","geometry":{"type":"Point","coordinates":[109.129633,21.468267]},"properties":{"province":"广西壮族自治区","city":"北海市","county":"海城区","community":"驿马街道西塘社区广州路物业小区","full_address":"广西壮族自治区北海市海城区驿马街道西塘社区广州路物业小区","info":""}},{"type":"Feature","geometry":{"type":"Point","coordinates":[109.112684,21.451539]},"properties":{"province":"广西壮族自治区","city":"北海市","county":"海城区","community":"驿马街道白屋社区海御新天地","full_address":"广西壮族自治区北海市海城区驿马街道白屋社区海御新天地","info":""}},{"type":"Feature","geometry":{"type":"Point","coordinates":[109.129807,21.469716]},"properties":{"province":"广西壮族自治区","city":"北海市","county":"海城区","community":"驿马街道西塘社区宝丽小区","full_address":"广西壮族自治区北海市海城区驿马街道西塘社区宝丽小区","info":""}},{"type":"Feature","geometry":{"type":"Point","coordinates":[109.12685,21.47923]},"properties":{"province":"广西壮族自治区","city":"北海市","county":"海城区","community":"中街街道北部湾社区名座小区（调整整个名座小区为高风险区）","full_address":"广西壮族自治区北海市海城区中街街道北部湾社区名座小区（调整整个名座小区为高风险区）","info":""}},{"type":"Feature","geometry":{"type":"Point","coordinates":[109.140023,21.464505]},"properties":{"province":"广西壮族自治区","city":"北海市","county":"海城区","community":"驿马街道西边垌社区旺盛家园","full_address":"广西壮族自治区北海市海城区驿马街道西边垌社区旺盛家园","info":""}},{"type":"Feature","geometry":{"type":"Point","coordinates":[109.101461,21.446902]},"properties":{"province":"广西壮族自治区","city":"北海市","county":"海城区","community":"驿马街道银湾社区云南南路银湾花园天宇公寓","full_address":"广西壮族自治区北海市海城区驿马街道银湾社区云南南路银湾花园天宇公寓","info":""}},{"type":"Feature","geometry":{"type":"Point","coordinates":[109.108013,21.468961]},"properties":{"province":"广西壮族自治区","city":"北海市","county":"海城区","community":"西街街道广场西里社区中兴花园","full_address":"广西壮族自治区北海市海城区西街街道广场西里社区中兴花园","info":""}},{"type":"Feature","geometry":{"type":"Point","coordinates":[109.128436,21.484453]},"properties":{"province":"广西壮族自治区","city":"北海市","county":"海城区","community":"东街街道茶亭路社区北部湾东路向东里小区","full_address":"广西壮族自治区北海市海城区东街街道茶亭路社区北部湾东路向东里小区","info":""}},{"type":"Feature","geometry":{"type":"Point","coordinates":[109.105044,21.448973]},"properties":{"province":"广西壮族自治区","city":"北海市","county":"海城区","community":"云南南路社区银湾花园漓江苑","full_address":"广西壮族自治区北海市海城区云南南路社区银湾花园漓江苑","info":""}},{"type":"Feature","geometry":{"type":"Point","coordinates":[109.126398,21.47359]},"properties":{"province":"广西壮族自治区","city":"北海市","county":"海城区","community":"中街街道南珠路社区京都花园","full_address":"广西壮族自治区北海市海城区中街街道南珠路社区京都花园","info":""}},{"type":"Feature","geometry":{"type":"Point","coordinates":[109.125835,21.475985]},"properties":{"province":"广西壮族自治区","city":"北海市","county":"海城区","community":"中街街道公园路社区长青东路北一巷402号至404号","full_address":"广西壮族自治区北海市海城区中街街道公园路社区长青东路北一巷402号至404号","info":""}},{"type":"Feature","geometry":{"type":"Point","coordinates":[109.129602,21.477679]},"properties":{"province":"广西壮族自治区","city":"北海市","county":"海城区","community":"中街街道南珠路社区长青东路西一至十六巷","full_address":"广西壮族自治区北海市海城区中街街道南珠路社区长青东路西一至十六巷","info":""}},{"type":"Feature","geometry":{"type":"Point","coordinates":[109.120946,21.477646]},"properties":{"province":"广西壮族自治区","city":"北海市","county":"海城区","community":"中街街道公园路社区公园路水产局宿舍","full_address":"广西壮族自治区北海市海城区中街街道公园路社区公园路水产局宿舍","info":""}},{"type":"Feature","geometry":{"type":"Point","coordinates":[109.122719,21.473982]},"properties":{"province":"广西壮族自治区","city":"北海市","county":"海城区","community":"中街街道塘仔里社区三巷","full_address":"广西壮族自治区北海市海城区中街街道塘仔里社区三巷","info":""}},{"type":"Feature","geometry":{"type":"Point","coordinates":[109.133359,21.473785]},"properties":{"province":"广西壮族自治区","city":"北海市","county":"海城区","community":"驿马街道湖海路社区铜鼓岭五巷","full_address":"广西壮族自治区北海市海城区驿马街道湖海路社区铜鼓岭五巷","info":""}},{"type":"Feature","geometry":{"type":"Point","coordinates":[109.114622,21.472692]},"properties":{"province":"广西壮族自治区","city":"北海市","county":"海城区","community":"中街街道北部湾社区日报社宿舍","full_address":"广西壮族自治区北海市海城区中街街道北部湾社区日报社宿舍","info":""}},{"type":"Feature","geometry":{"type":"Point","coordinates":[109.131798,21.46908]},"properties":{"province":"广西壮族自治区","city":"北海市","county":"海城区","community":"驿马街道驿马村委会广东南路方正花园","full_address":"广西壮族自治区北海市海城区驿马街道驿马村委会广东南路方正花园","info":""}},{"type":"Feature","geometry":{"type":"Point","coordinates":[109.113319,21.478148]},"properties":{"province":"广西壮族自治区","city":"北海市","county":"海城区","community":"中街街道幸福里社区新源文明苑","full_address":"广西壮族自治区北海市海城区中街街道幸福里社区新源文明苑","info":""}},{"type":"Feature","geometry":{"type":"Point","coordinates":[109.112708,21.48041]},"properties":{"province":"广西壮族自治区","city":"北海市","county":"海城区","community":"中街街道幸福里社区新建一至五巷（调整一至五巷为高风险区）","full_address":"广西壮族自治区北海市海城区中街街道幸福里社区新建一至五巷（调整一至五巷为高风险区）","info":""}},{"type":"Feature","geometry":{"type":"Point","coordinates":[109.120593,21.482988]},"properties":{"province":"广西壮族自治区","city":"北海市","county":"海城区","community":"中街街道中山路社区朝阳街15至17号","full_address":"广西壮族自治区北海市海城区中街街道中山路社区朝阳街15至17号","info":""}},{"type":"Feature","geometry":{"type":"Point","coordinates":[109.136642,21.482385]},"properties":{"province":"广西壮族自治区","city":"北海市","county":"海城区","community":"东街街道北部湾东路社区湖南路82号良基雅苑","full_address":"广西壮族自治区北海市海城区东街街道北部湾东路社区湖南路82号良基雅苑","info":""}},{"type":"Feature","geometry":{"type":"Point","coordinates":[109.16544,21.457926]},"properties":{"province":"广西壮族自治区","city":"北海市","county":"海城区","community":"驿马街道驿马村委会半坡村","full_address":"广西壮族自治区北海市海城区驿马街道驿马村委会半坡村","info":""}},{"type":"Feature","geometry":{"type":"Point","coordinates":[109.12648,21.478652]},"properties":{"province":"广西壮族自治区","city":"北海市","county":"海城区","community":"中街街道北部湾社区体育路1号嘉顺金城华府","full_address":"广西壮族自治区北海市海城区中街街道北部湾社区体育路1号嘉顺金城华府","info":""}},{"type":"Feature","geometry":{"type":"Point","coordinates":[109.129669,21.47775]},"properties":{"province":"广西壮族自治区","city":"北海市","county":"海城区","community":"东街街道铜鼓里社区长青东路东3至5号","full_address":"广西壮族自治区北海市海城区东街街道铜鼓里社区长青东路东3至5号","info":""}},{"type":"Feature","geometry":{"type":"Point","coordinates":[109.108636,21.46846]},"properties":{"province":"广西壮族自治区","city":"北海市","county":"海城区","community":"西街街道广场西里社区广场西里138号楼","full_address":"广西壮族自治区北海市海城区西街街道广场西里社区广场西里138号楼","info":""}},{"type":"Feature","geometry":{"type":"Point","coordinates":[109.107782,21.458929]},"properties":{"province":"广西壮族自治区","city":"北海市","county":"海城区","community":"西街街道广场西里社区邮政宿舍","full_address":"广西壮族自治区北海市海城区西街街道广场西里社区邮政宿舍","info":""}},{"type":"Feature","geometry":{"type":"Point","coordinates":[109.134145,21.478906]},"properties":{"province":"广西壮族自治区","city":"北海市","county":"海城区","community":"东街街道铜鼓里社区土地局宿舍","full_address":"广西壮族自治区北海市海城区东街街道铜鼓里社区土地局宿舍","info":""}},{"type":"Feature","geometry":{"type":"Point","coordinates":[109.145223,21.490226]},"properties":{"province":"广西壮族自治区","city":"北海市","county":"海城区","community":"东街街道北部湾东路社区计生委宿舍","full_address":"广西壮族自治区北海市海城区东街街道北部湾东路社区计生委宿舍","info":""}},{"type":"Feature","geometry":{"type":"Point","coordinates":[109.117446,21.474]},"properties":{"province":"广西壮族自治区","city":"北海市","county":"海城区","community":"中街街道塘仔里社区垌尾新区四巷7至9号","full_address":"广西壮族自治区北海市海城区中街街道塘仔里社区垌尾新区四巷7至9号","info":""}},{"type":"Feature","geometry":{"type":"Point","coordinates":[109.156586,21.503111]},"properties":{"province":"广西壮族自治区","city":"北海市","county":"海城区","community":"高德街道高德一居社区高德三街30至32号","full_address":"广西壮族自治区北海市海城区高德街道高德一居社区高德三街30至32号","info":""}},{"type":"Feature","geometry":{"type":"Point","coordinates":[109.154925,21.505421]},"properties":{"province":"广西壮族自治区","city":"北海市","county":"海城区","community":"高德街道高德一居社区高德五街19至21号","full_address":"广西壮族自治区北海市海城区高德街道高德一居社区高德五街19至21号","info":""}},{"type":"Feature","geometry":{"type":"Point","coordinates":[109.153928,21.498824]},"properties":{"province":"广西壮族自治区","city":"北海市","county":"海城区","community":"高德街道高德一居社区高德路51至52号","full_address":"广西壮族自治区北海市海城区高德街道高德一居社区高德路51至52号","info":""}},{"type":"Feature","geometry":{"type":"Point","coordinates":[109.166681,21.499474]},"properties":{"province":"广西壮族自治区","city":"北海市","county":"海城区","community":"高德街道开江村委会高平路7至9幢","full_address":"广西壮族自治区北海市海城区高德街道开江村委会高平路7至9幢","info":""}},{"type":"Feature","geometry":{"type":"Point","coordinates":[109.166681,21.499474]},"properties":{"province":"广西壮族自治区","city":"北海市","county":"海城区","community":"高德街道开江村委会高平路34至36号","full_address":"广西壮族自治区北海市海城区高德街道开江村委会高平路34至36号","info":""}},{"type":"Feature","geometry":{"type":"Point","coordinates":[109.123844,21.476851]},"properties":{"province":"广西壮族自治区","city":"北海市","county":"海城区","community":"中街街道南珠路社区公园路36至38号","full_address":"广西壮族自治区北海市海城区中街街道南珠路社区公园路36至38号","info":""}},{"type":"Feature","geometry":{"type":"Point","coordinates":[109.126838,21.480279]},"properties":{"province":"广西壮族自治区","city":"北海市","county":"海城区","community":"中街街道北部湾社区气象小区","full_address":"广西壮族自治区北海市海城区中街街道北部湾社区气象小区","info":""}},{"type":"Feature","geometry":{"type":"Point","coordinates":[109.097291,21.465958]},"properties":{"province":"广西壮族自治区","city":"北海市","county":"海城区","community":"西街街道西藏路社区云藏路蓝海尚城","full_address":"广西壮族自治区北海市海城区西街街道西藏路社区云藏路蓝海尚城","info":""}},{"type":"Feature","geometry":{"type":"Point","coordinates":[109.112424,21.464998]},"properties":{"province":"广西壮族自治区","city":"北海市","county":"海城区","community":"西街街道平安街社区平安街","full_address":"广西壮族自治区北海市海城区西街街道平安街社区平安街","info":""}},{"type":"Feature","geometry":{"type":"Point","coordinates":[109.110568,21.444332]},"properties":{"province":"广西壮族自治区","city":"北海市","county":"海城区","community":"驿马街道白屋社区云南路外运公司宿舍","full_address":"广西壮族自治区北海市海城区驿马街道白屋社区云南路外运公司宿舍","info":""}},{"type":"Feature","geometry":{"type":"Point","coordinates":[109.107059,21.447869]},"properties":{"province":"广西壮族自治区","city":"北海市","county":"海城区","community":"驿马街道白屋社区云南路西建小区","full_address":"广西壮族自治区北海市海城区驿马街道白屋社区云南路西建小区","info":""}},{"type":"Feature","geometry":{"type":"Point","coordinates":[109.120626,21.471813]},"properties":{"province":"广西壮族自治区","city":"北海市","county":"海城区","community":"驿马街道西边垌社区银海公安局宿舍","full_address":"广西壮族自治区北海市海城区驿马街道西边垌社区银海公安局宿舍","info":""}},{"type":"Feature","geometry":{"type":"Point","coordinates":[109.13085,21.458121]},"properties":{"province":"广西壮族自治区","city":"北海市","county":"海城区","community":"驿马街道西塘社区宝来华府","full_address":"广西壮族自治区北海市海城区驿马街道西塘社区宝来华府","info":""}},{"type":"Feature","geometry":{"type":"Point","coordinates":[109.150146,21.474026]},"properties":{"province":"广西壮族自治区","city":"北海市","county":"海城区","community":"驿马街道西塘社区财富盛世花园","full_address":"广西壮族自治区北海市海城区驿马街道西塘社区财富盛世花园","info":""}},{"type":"Feature","geometry":{"type":"Point","coordinates":[109.116043,21.466581]},"properties":{"province":"广西壮族自治区","city":"北海市","county":"海城区","community":"驿马街道怡海新村社区时代西里","full_address":"广西壮族自治区北海市海城区驿马街道怡海新村社区时代西里","info":""}},{"type":"Feature","geometry":{"type":"Point","coordinates":[109.125385,21.463633]},"properties":{"province":"广西壮族自治区","city":"北海市","county":"海城区","community":"驿马街道西塘社区北海水果市场","full_address":"广西壮族自治区北海市海城区驿马街道西塘社区北海水果市场","info":""}},{"type":"Feature","geometry":{"type":"Point","coordinates":[109.106692,21.447062]},"properties":{"province":"广西壮族自治区","city":"北海市","county":"海城区","community":"驿马街道银湾社区保安小区","full_address":"广西壮族自治区北海市海城区驿马街道银湾社区保安小区","info":""}},{"type":"Feature","geometry":{"type":"Point","coordinates":[109.125474,21.466791]},"properties":{"province":"广西壮族自治区","city":"北海市","county":"海城区","community":"驿马街道西塘北京路金葵星园","full_address":"广西壮族自治区北海市海城区驿马街道西塘北京路金葵星园","info":""}},{"type":"Feature","geometry":{"type":"Point","coordinates":[109.100417,21.455668]},"properties":{"province":"广西壮族自治区","city":"北海市","county":"海城区","community":"驿马街道银湾社区伊丽苑小区","full_address":"广西壮族自治区北海市海城区驿马街道银湾社区伊丽苑小区","info":""}},{"type":"Feature","geometry":{"type":"Point","coordinates":[109.108142,21.476715]},"properties":{"province":"广西壮族自治区","city":"北海市","county":"海城区","community":"海角街道外沙社区四川北路天赐碧园","full_address":"广西壮族自治区北海市海城区海角街道外沙社区四川北路天赐碧园","info":""}},{"type":"Feature","geometry":{"type":"Point","coordinates":[109.109861,21.472643]},"properties":{"province":"广西壮族自治区","city":"北海市","county":"海城区","community":"海角街道北部湾西路社区海运宿舍","full_address":"广西壮族自治区北海市海城区海角街道北部湾西路社区海运宿舍","info":""}},{"type":"Feature","geometry":{"type":"Point","coordinates":[109.116462,21.470212]},"properties":{"province":"广西壮族自治区","city":"北海市","county":"海城区","community":"中街街道广场东里社区教育住宅小区","full_address":"广西壮族自治区北海市海城区中街街道广场东里社区教育住宅小区","info":""}},{"type":"Feature","geometry":{"type":"Point","coordinates":[109.136471,21.480524]},"properties":{"province":"广西壮族自治区","city":"北海市","county":"海城区","community":"东街街道社区东海市场","full_address":"广西壮族自治区北海市海城区东街街道社区东海市场","info":""}},{"type":"Feature","geometry":{"type":"Point","coordinates":[109.111647,21.475807]},"properties":{"province":"广西壮族自治区","city":"北海市","county":"海城区","community":"中街街道幸福里社区四川路45号区水产车队宿舍","full_address":"广西壮族自治区北海市海城区中街街道幸福里社区四川路45号区水产车队宿舍","info":""}},{"type":"Feature","geometry":{"type":"Point","coordinates":[109.151386,21.464467]},"properties":{"province":"广西壮族自治区","city":"北海市","county":"海城区","community":"驿马街道驿马村委会北国之春小区","full_address":"广西壮族自治区北海市海城区驿马街道驿马村委会北国之春小区","info":""}},{"type":"Feature","geometry":{"type":"Point","coordinates":[109.122719,21.473982]},"properties":{"province":"广西壮族自治区","city":"北海市","county":"海城区","community":"中街街道塘仔里社区塘仔村","full_address":"广西壮族自治区北海市海城区中街街道塘仔里社区塘仔村","info":""}},{"type":"Feature","geometry":{"type":"Point","coordinates":[109.117963,21.484464]},"properties":{"province":"广西壮族自治区","city":"北海市","county":"海城区","community":"中街街道中山路社区珠海横巷1至3巷","full_address":"广西壮族自治区北海市海城区中街街道中山路社区珠海横巷1至3巷","info":""}},{"type":"Feature","geometry":{"type":"Point","coordinates":[109.112377,21.4776]},"properties":{"province":"广西壮族自治区","city":"北海市","county":"海城区","community":"中街街道幸福里社区桂政小区","full_address":"广西壮族自治区北海市海城区中街街道幸福里社区桂政小区","info":""}},{"type":"Feature","geometry":{"type":"Point","coordinates":[109.111857,21.474597]},"properties":{"province":"广西壮族自治区","city":"北海市","county":"海城区","community":"中街街道幸福里社区建文路5至7号、25号至27号","full_address":"广西壮族自治区北海市海城区中街街道幸福里社区建文路5至7号、25号至27号","info":""}},{"type":"Feature","geometry":{"type":"Point","coordinates":[109.112602,21.48012]},"properties":{"province":"广西壮族自治区","city":"北海市","county":"海城区","community":"中街街道幸福里社区牛皮巷","full_address":"广西壮族自治区北海市海城区中街街道幸福里社区牛皮巷","info":""}},{"type":"Feature","geometry":{"type":"Point","coordinates":[109.119133,21.457154]},"properties":{"province":"广西壮族自治区","city":"北海市","county":"海城区","community":"驿马街道西塘社区创基花园","full_address":"广西壮族自治区北海市海城区驿马街道西塘社区创基花园","info":""}},{"type":"Feature","geometry":{"type":"Point","coordinates":[109.130276,21.461647]},"properties":{"province":"广西壮族自治区","city":"北海市","county":"海城区","community":"驿马街道西塘社区陈文南路雅馨苑","full_address":"广西壮族自治区北海市海城区驿马街道西塘社区陈文南路雅馨苑","info":""}},{"type":"Feature","geometry":{"type":"Point","coordinates":[109.10803,21.481666]},"properties":{"province":"广西壮族自治区","city":"北海市","county":"海城区","community":"海角街道外沙社区外沙二至四巷","full_address":"广西壮族自治区北海市海城区海角街道外沙社区外沙二至四巷","info":""}},{"type":"Feature","geometry":{"type":"Point","coordinates":[109.108272,21.448304]},"properties":{"province":"广西壮族自治区","city":"北海市","county":"海城区","community":"驿马街道白屋社区白屋新村","full_address":"广西壮族自治区北海市海城区驿马街道白屋社区白屋新村","info":""}},{"type":"Feature","geometry":{"type":"Point","coordinates":[109.204573,21.515621]},"properties":{"province":"广西壮族自治区","city":"北海市","county":"海城区","community":"高德街道翁山村委会螺壳村","full_address":"广西壮族自治区北海市海城区高德街道翁山村委会螺壳村","info":""}},{"type":"Feature","geometry":{"type":"Point","coordinates":[109.145249,21.485805]},"properties":{"province":"广西壮族自治区","city":"北海市","county":"海城区","community":"高德街道上海中路社区徐屋东二区","full_address":"广西壮族自治区北海市海城区高德街道上海中路社区徐屋东二区","info":""}},{"type":"Feature","geometry":{"type":"Point","coordinates":[109.104264,21.469155]},"properties":{"province":"广西壮族自治区","city":"北海市","county":"海城区","community":"西街街道贵州南路社区财政局宿舍","full_address":"广西壮族自治区北海市海城区西街街道贵州南路社区财政局宿舍","info":""}},{"type":"Feature","geometry":{"type":"Point","coordinates":[109.127773,21.485519]},"properties":{"province":"广西壮族自治区","city":"北海市","county":"海城区","community":"东街街道茶亭路社区澜亭天际","full_address":"广西壮族自治区北海市海城区东街街道茶亭路社区澜亭天际","info":""}},{"type":"Feature","geometry":{"type":"Point","coordinates":[109.163369,21.455468]},"properties":{"province":"广西壮族自治区","city":"北海市","county":"海城区","community":"驿马街道驿马村委会驿马村、驿马新村","full_address":"广西壮族自治区北海市海城区驿马街道驿马村委会驿马村、驿马新村","info":""}},{"type":"Feature","geometry":{"type":"Point","coordinates":[109.108303,21.478999]},"properties":{"province":"广西壮族自治区","city":"北海市","county":"海城区","community":"海角街道前进路社区海角路玻璃厂宿舍","full_address":"广西壮族自治区北海市海城区海角街道前进路社区海角路玻璃厂宿舍","info":""}},{"type":"Feature","geometry":{"type":"Point","coordinates":[109.130644,21.466951]},"properties":{"province":"广西壮族自治区","city":"北海市","county":"海城区","community":"驿马街道西塘社区深港路十二间屋6巷、7巷","full_address":"广西壮族自治区北海市海城区驿马街道西塘社区深港路十二间屋6巷、7巷","info":""}},{"type":"Feature","geometry":{"type":"Point","coordinates":[109.108842,21.479884]},"properties":{"province":"广西壮族自治区","city":"北海市","county":"海城区","community":"海角街道前进路社区四川北路海洋宿舍","full_address":"广西壮族自治区北海市海城区海角街道前进路社区四川北路海洋宿舍","info":""}},{"type":"Feature","geometry":{"type":"Point","coordinates":[109.151976,21.495371]},"properties":{"province":"广西壮族自治区","city":"北海市","county":"海城区","community":"东街街道北部湾东路社区成泰小区","full_address":"广西壮族自治区北海市海城区东街街道北部湾东路社区成泰小区","info":""}},{"type":"Feature","geometry":{"type":"Point","coordinates":[109.124877,21.474988]},"properties":{"province":"广西壮族自治区","city":"北海市","county":"海城区","community":"中街街道塘仔里社区长青东路47至49号","full_address":"广西壮族自治区北海市海城区中街街道塘仔里社区长青东路47至49号","info":""}},{"type":"Feature","geometry":{"type":"Point","coordinates":[109.154413,21.4891]},"properties":{"province":"广西壮族自治区","city":"北海市","county":"海城区","community":"高德街道高菜村委会福祥小区","full_address":"广西壮族自治区北海市海城区高德街道高菜村委会福祥小区","info":""}},{"type":"Feature","geometry":{"type":"Point","coordinates":[109.116841,21.480915]},"properties":{"province":"广西壮族自治区","city":"北海市","county":"海城区","community":"珠海西路以东、滨海以南、民权路以西、中山路以北合围之处","full_address":"广西壮族自治区北海市海城区珠海西路以东、滨海以南、民权路以西、中山路以北合围之处","info":""}},{"type":"Feature","geometry":{"type":"Point","coordinates":[109.149285,21.496315]},"properties":{"province":"广西壮族自治区","city":"北海市","county":"海城区","community":"高德街道上海北路社区高德西里（调整整个高德西里为高风险区）","full_address":"广西壮族自治区北海市海城区高德街道上海北路社区高德西里（调整整个高德西里为高风险区）","info":""}},{"type":"Feature","geometry":{"type":"Point","coordinates":[109.144988,21.482608]},"properties":{"province":"广西壮族自治区","city":"北海市","county":"海城区","community":"高德街道高菜村委会供电小区","full_address":"广西壮族自治区北海市海城区高德街道高菜村委会供电小区","info":""}},{"type":"Feature","geometry":{"type":"Point","coordinates":[109.146961,21.484555]},"properties":{"province":"广西壮族自治区","city":"北海市","county":"海城区","community":"高德街道上海中路社区星海名城一期、二期、三期","full_address":"广西壮族自治区北海市海城区高德街道上海中路社区星海名城一期、二期、三期","info":""}},{"type":"Feature","geometry":{"type":"Point","coordinates":[109.161155,21.494391]},"properties":{"province":"广西壮族自治区","city":"北海市","county":"海城区","community":"高德街道高农村委会东背岭小区","full_address":"广西壮族自治区北海市海城区高德街道高农村委会东背岭小区","info":""}},{"type":"Feature","geometry":{"type":"Point","coordinates":[109.107289,21.450146]},"properties":{"province":"广西壮族自治区","city":"北海市","county":"海城区","community":"驿马街道白屋社区云南路综合市场","full_address":"广西壮族自治区北海市海城区驿马街道白屋社区云南路综合市场","info":""}},{"type":"Feature","geometry":{"type":"Point","coordinates":[109.157757,21.494935]},"properties":{"province":"广西壮族自治区","city":"北海市","county":"海城区","community":"高德街道高农村委会东方之珠小区","full_address":"广西壮族自治区北海市海城区高德街道高农村委会东方之珠小区","info":""}},{"type":"Feature","geometry":{"type":"Point","coordinates":[109.135064,21.4743]},"properties":{"province":"广西壮族自治区","city":"北海市","county":"海城区","community":"驿马街道湖海路社区社区建行宿舍","full_address":"广西壮族自治区北海市海城区驿马街道湖海路社区社区建行宿舍","info":""}},{"type":"Feature","geometry":{"type":"Point","coordinates":[109.158675,21.502123]},"properties":{"province":"广西壮族自治区","city":"北海市","county":"海城区","community":"高德街道高德一居社区高德一街","full_address":"广西壮族自治区北海市海城区高德街道高德一居社区高德一街","info":""}},{"type":"Feature","geometry":{"type":"Point","coordinates":[109.107125,21.474421]},"properties":{"province":"广西壮族自治区","city":"北海市","county":"海城区","community":"海角街道北部湾西社区居委会三中东里1至12栋（调整三中东里1至12栋为高风险区）","full_address":"广西壮族自治区北海市海城区海角街道北部湾西社区居委会三中东里1至12栋（调整三中东里1至12栋为高风险区）","info":""}},{"type":"Feature","geometry":{"type":"Point","coordinates":[109.184583,21.478787]},"properties":{"province":"广西壮族自治区","city":"北海市","county":"海城区","community":"高德街道马栏村委会裕泰景苑","full_address":"广西壮族自治区北海市海城区高德街道马栏村委会裕泰景苑","info":""}},{"type":"Feature","geometry":{"type":"Point","coordinates":[109.136127,21.47873]},"properties":{"province":"广西壮族自治区","city":"北海市","county":"海城区","community":"东街街道铜鼓里社区广西海洋研究所宿舍","full_address":"广西壮族自治区北海市海城区东街街道铜鼓里社区广西海洋研究所宿舍","info":""}},{"type":"Feature","geometry":{"type":"Point","coordinates":[109.136067,21.476357]},"properties":{"province":"广西壮族自治区","city":"北海市","county":"海城区","community":"驿马街道湖海路社区铜鼓新村","full_address":"广西壮族自治区北海市海城区驿马街道湖海路社区铜鼓新村","info":""}},{"type":"Feature","geometry":{"type":"Point","coordinates":[109.13698,21.477588]},"properties":{"province":"广西壮族自治区","city":"北海市","county":"海城区","community":"驿马街道湖海路社区湖海路玫瑰花园","full_address":"广西壮族自治区北海市海城区驿马街道湖海路社区湖海路玫瑰花园","info":""}},{"type":"Feature","geometry":{"type":"Point","coordinates":[109.106533,21.468174]},"properties":{"province":"广西壮族自治区","city":"北海市","county":"海城区","community":"西街街道贵州南路社区电视台宿舍","full_address":"广西壮族自治区北海市海城区西街街道贵州南路社区电视台宿舍","info":""}},{"type":"Feature","geometry":{"type":"Point","coordinates":[109.086575,21.469326]},"properties":{"province":"广西壮族自治区","city":"北海市","county":"海城区","community":"地角街道昆明路社区地角群和大村","full_address":"广西壮族自治区北海市海城区地角街道昆明路社区地角群和大村","info":""}},{"type":"Feature","geometry":{"type":"Point","coordinates":[109.122719,21.473982]},"properties":{"province":"广西壮族自治区","city":"北海市","county":"海城区","community":"中街街道塘仔里社区环卫路宿舍","full_address":"广西壮族自治区北海市海城区中街街道塘仔里社区环卫路宿舍","info":""}},{"type":"Feature","geometry":{"type":"Point","coordinates":[109.106937,21.466827]},"properties":{"province":"广西壮族自治区","city":"北海市","county":"海城区","community":"西街街道贵州南社区屋仔村","full_address":"广西壮族自治区北海市海城区西街街道贵州南社区屋仔村","info":""}},{"type":"Feature","geometry":{"type":"Point","coordinates":[109.184583,21.478787]},"properties":{"province":"广西壮族自治区","city":"北海市","county":"海城区","community":"高德街道马栏村委会新吉车村","full_address":"广西壮族自治区北海市海城区高德街道马栏村委会新吉车村","info":""}},{"type":"Feature","geometry":{"type":"Point","coordinates":[109.118843,21.470298]},"properties":{"province":"广西壮族自治区","city":"北海市","county":"海城区","community":"中街街道广场东里社区石子岭","full_address":"广西壮族自治区北海市海城区中街街道广场东里社区石子岭","info":""}},{"type":"Feature","geometry":{"type":"Point","coordinates":[109.113447,21.475088]},"properties":{"province":"广西壮族自治区","city":"北海市","county":"海城区","community":"中街街道幸福里社区幸福市场二至三巷","full_address":"广西壮族自治区北海市海城区中街街道幸福里社区幸福市场二至三巷","info":""}},{"type":"Feature","geometry":{"type":"Point","coordinates":[109.134445,21.477908]},"properties":{"province":"广西壮族自治区","city":"北海市","county":"海城区","community":"东街街道铜鼓里社区社区海洋小区","full_address":"广西壮族自治区北海市海城区东街街道铜鼓里社区社区海洋小区","info":""}},{"type":"Feature","geometry":{"type":"Point","coordinates":[109.098633,21.465258]},"properties":{"province":"广西壮族自治区","city":"北海市","county":"海城区","community":"西街街道西藏路社区西藏路德黔花园","full_address":"广西壮族自治区北海市海城区西街街道西藏路社区西藏路德黔花园","info":""}},{"type":"Feature","geometry":{"type":"Point","coordinates":[109.083823,21.464937]},"properties":{"province":"广西壮族自治区","city":"北海市","county":"海城区","community":"地角街道昆明路社区嘉逸花园","full_address":"广西壮族自治区北海市海城区地角街道昆明路社区嘉逸花园","info":""}},{"type":"Feature","geometry":{"type":"Point","coordinates":[109.16833,21.485175]},"properties":{"province":"广西壮族自治区","city":"北海市","county":"海城区","community":"高德街道马栏村委会南珠大道荔枝湾","full_address":"广西壮族自治区北海市海城区高德街道马栏村委会南珠大道荔枝湾","info":""}},{"type":"Feature","geometry":{"type":"Point","coordinates":[109.130834,21.480794]},"properties":{"province":"广西壮族自治区","city":"北海市","county":"海城区","community":"东街街道政法路社区天立国际","full_address":"广西壮族自治区北海市海城区东街街道政法路社区天立国际","info":""}},{"type":"Feature","geometry":{"type":"Point","coordinates":[109.154894,21.493409]},"properties":{"province":"广西壮族自治区","city":"北海市","county":"海城区","community":"高德街道高菜村委会雁北花园","full_address":"广西壮族自治区北海市海城区高德街道高菜村委会雁北花园","info":""}},{"type":"Feature","geometry":{"type":"Point","coordinates":[109.155415,21.490311]},"properties":{"province":"广西壮族自治区","city":"北海市","county":"海城区","community":"高德街道高菜村委会御泉湾","full_address":"广西壮族自治区北海市海城区高德街道高菜村委会御泉湾","info":""}},{"type":"Feature","geometry":{"type":"Point","coordinates":[109.167123,21.495295]},"properties":{"province":"广西壮族自治区","city":"北海市","county":"海城区","community":"高德街道开江村委会南珠大道小区","full_address":"广西壮族自治区北海市海城区高德街道开江村委会南珠大道小区","info":""}},{"type":"Feature","geometry":{"type":"Point","coordinates":[109.144811,21.488268]},"properties":{"province":"广西壮族自治区","city":"北海市","county":"海城区","community":"高德街道上海中路社区上海路香槟郡","full_address":"广西壮族自治区北海市海城区高德街道上海中路社区上海路香槟郡","info":""}},{"type":"Feature","geometry":{"type":"Point","coordinates":[109.168496,21.497399]},"properties":{"province":"广西壮族自治区","city":"北海市","county":"海城区","community":"高德街道开江村委会海江南","full_address":"广西壮族自治区北海市海城区高德街道开江村委会海江南","info":""}},{"type":"Feature","geometry":{"type":"Point","coordinates":[109.099834,21.451477]},"properties":{"province":"广西壮族自治区","city":"北海市","county":"海城区","community":"驿马街道银湾社区星悦蓝湾小区","full_address":"广西壮族自治区北海市海城区驿马街道银湾社区星悦蓝湾小区","info":""}},{"type":"Feature","geometry":{"type":"Point","coordinates":[109.127379,21.460986]},"properties":{"province":"广西壮族自治区","city":"北海市","county":"海城区","community":"驿马街道西塘社区京泰路华杰春秋源、泰盛花园","full_address":"广西壮族自治区北海市海城区驿马街道西塘社区京泰路华杰春秋源、泰盛花园","info":""}},{"type":"Feature","geometry":{"type":"Point","coordinates":[109.10175,21.463]},"properties":{"province":"广西壮族自治区","city":"北海市","county":"海城区","community":"西街街道西藏路社区海伦堡阳光小区","full_address":"广西壮族自治区北海市海城区西街街道西藏路社区海伦堡阳光小区","info":""}},{"type":"Feature","geometry":{"type":"Point","coordinates":[109.108575,21.449851]},"properties":{"province":"广西壮族自治区","city":"北海市","county":"海城区","community":"驿马街道白屋社区万和路穗清苑、万和园小区","full_address":"广西壮族自治区北海市海城区驿马街道白屋社区万和路穗清苑、万和园小区","info":""}},{"type":"Feature","geometry":{"type":"Point","coordinates":[109.113542,21.458862]},"properties":{"province":"广西壮族自治区","city":"北海市","county":"海城区","community":"驿马街道白屋社区重庆路博雅花园","full_address":"广西壮族自治区北海市海城区驿马街道白屋社区重庆路博雅花园","info":""}},{"type":"Feature","geometry":{"type":"Point","coordinates":[109.126605,21.467239]},"properties":{"province":"广西壮族自治区","city":"北海市","county":"海城区","community":"驿马街道西塘社区北京路万胜公寓","full_address":"广西壮族自治区北海市海城区驿马街道西塘社区北京路万胜公寓","info":""}},{"type":"Feature","geometry":{"type":"Point","coordinates":[109.131562,21.464688]},"properties":{"province":"广西壮族自治区","city":"北海市","county":"海城区","community":"驿马街道西塘社区广东南路鸿鹏花园","full_address":"广西壮族自治区北海市海城区驿马街道西塘社区广东南路鸿鹏花园","info":""}},{"type":"Feature","geometry":{"type":"Point","coordinates":[109.126962,21.465556]},"properties":{"province":"广西壮族自治区","city":"北海市","county":"海城区","community":"驿马街道西塘社区深港花园","full_address":"广西壮族自治区北海市海城区驿马街道西塘社区深港花园","info":""}},{"type":"Feature","geometry":{"type":"Point","coordinates":[109.127131,21.459424]},"properties":{"province":"广西壮族自治区","city":"北海市","county":"海城区","community":"驿马街道西塘社区北京路川南明珠小区","full_address":"广西壮族自治区北海市海城区驿马街道西塘社区北京路川南明珠小区","info":""}},{"type":"Feature","geometry":{"type":"Point","coordinates":[109.128921,21.463701]},"properties":{"province":"广西壮族自治区","city":"北海市","county":"海城区","community":"驿马街道西塘社区苏屋小区、海合小区","full_address":"广西壮族自治区北海市海城区驿马街道西塘社区苏屋小区、海合小区","info":""}},{"type":"Feature","geometry":{"type":"Point","coordinates":[109.117056,21.476124]},"properties":{"province":"广西壮族自治区","city":"北海市","county":"海城区","community":"中街街道塘仔里社区天赐花园","full_address":"广西壮族自治区北海市海城区中街街道塘仔里社区天赐花园","info":""}},{"type":"Feature","geometry":{"type":"Point","coordinates":[109.129834,21.481625]},"properties":{"province":"广西壮族自治区","city":"北海市","county":"海城区","community":"东街街道政法路社区深圳西里一巷前后各三个巷子","full_address":"广西壮族自治区北海市海城区东街街道政法路社区深圳西里一巷前后各三个巷子","info":""}},{"type":"Feature","geometry":{"type":"Point","coordinates":[109.132042,21.46224]},"properties":{"province":"广西壮族自治区","city":"北海市","county":"海城区","community":"驿马街道西塘社区联勤公寓","full_address":"广西壮族自治区北海市海城区驿马街道西塘社区联勤公寓","info":""}},{"type":"Feature","geometry":{"type":"Point","coordinates":[109.104455,21.476201]},"properties":{"province":"广西壮族自治区","city":"北海市","county":"海城区","community":"海角街道前进路社区渔轮厂宿舍","full_address":"广西壮族自治区北海市海城区海角街道前进路社区渔轮厂宿舍","info":""}},{"type":"Feature","geometry":{"type":"Point","coordinates":[109.108344,21.461467]},"properties":{"province":"广西壮族自治区","city":"北海市","county":"海城区","community":"西街街道云南南路社区贵州路50号石化小区","full_address":"广西壮族自治区北海市海城区西街街道云南南路社区贵州路50号石化小区","info":""}},{"type":"Feature","geometry":{"type":"Point","coordinates":[109.132452,21.47707]},"properties":{"province":"广西壮族自治区","city":"北海市","county":"海城区","community":"东街街道铜鼓里社区铜鼓里东区、西区","full_address":"广西壮族自治区北海市海城区东街街道铜鼓里社区铜鼓里东区、西区","info":""}},{"type":"Feature","geometry":{"type":"Point","coordinates":[109.169008,21.488178]},"properties":{"province":"广西壮族自治区","city":"北海市","county":"海城区","community":"高德街道马栏村委会尚源东城和谐苑","full_address":"广西壮族自治区北海市海城区高德街道马栏村委会尚源东城和谐苑","info":""}},{"type":"Feature","geometry":{"type":"Point","coordinates":[109.133319,21.475176]},"properties":{"province":"广西壮族自治区","city":"北海市","county":"海城区","community":"驿马街道铜鼓岭社区联通西里六巷华海小区","full_address":"广西壮族自治区北海市海城区驿马街道铜鼓岭社区联通西里六巷华海小区","info":""}},{"type":"Feature","geometry":{"type":"Point","coordinates":[109.104586,21.462003]},"properties":{"province":"广西壮族自治区","city":"北海市","county":"海城区","community":"西街街道云南南路社区皮肤医院宿舍","full_address":"广西壮族自治区北海市海城区西街街道云南南路社区皮肤医院宿舍","info":""}},{"type":"Feature","geometry":{"type":"Point","coordinates":[109.115021,21.459569]},"properties":{"province":"广西壮族自治区","city":"北海市","county":"海城区","community":"驿马街道白屋社区四川路九洲城","full_address":"广西壮族自治区北海市海城区驿马街道白屋社区四川路九洲城","info":""}},{"type":"Feature","geometry":{"type":"Point","coordinates":[109.080246,21.477087]},"properties":{"province":"广西壮族自治区","city":"北海市","county":"海城区","community":"地角街道昆明路社区地角共和一路中区、西区","full_address":"广西壮族自治区北海市海城区地角街道昆明路社区地角共和一路中区、西区","info":""}},{"type":"Feature","geometry":{"type":"Point","coordinates":[109.14213,21.491876]},"properties":{"province":"广西壮族自治区","city":"北海市","county":"海城区","community":"高德街道上海北路社区海湾新城","full_address":"广西壮族自治区北海市海城区高德街道上海北路社区海湾新城","info":""}},{"type":"Feature","geometry":{"type":"Point","coordinates":[109.130846,21.475038]},"properties":{"province":"广西壮族自治区","city":"北海市","county":"海城区","community":"东街街道铜鼓里社区铜鼓里七巷","full_address":"广西壮族自治区北海市海城区东街街道铜鼓里社区铜鼓里七巷","info":""}},{"type":"Feature","geometry":{"type":"Point","coordinates":[109.111175,21.456148]},"properties":{"province":"广西壮族自治区","city":"北海市","county":"海城区","community":"驿马街道白屋社区贵州路唐屋村","full_address":"广西壮族自治区北海市海城区驿马街道白屋社区贵州路唐屋村","info":""}},{"type":"Feature","geometry":{"type":"Point","coordinates":[109.162284,21.497805]},"properties":{"province":"广西壮族自治区","city":"北海市","county":"海城区","community":"高德街道高农村委会高德新街南","full_address":"广西壮族自治区北海市海城区高德街道高农村委会高德新街南","info":""}},{"type":"Feature","geometry":{"type":"Point","coordinates":[109.11205,21.478397]},"properties":{"province":"广西壮族自治区","city":"北海市","county":"海城区","community":"中街街道幸福里社区菜园里一巷至三巷","full_address":"广西壮族自治区北海市海城区中街街道幸福里社区菜园里一巷至三巷","info":""}},{"type":"Feature","geometry":{"type":"Point","coordinates":[109.095439,21.472649]},"properties":{"province":"广西壮族自治区","city":"北海市","county":"海城区","community":"海角街道树独根西社区云南路独树根西五巷","full_address":"广西壮族自治区北海市海城区海角街道树独根西社区云南路独树根西五巷","info":""}},{"type":"Feature","geometry":{"type":"Point","coordinates":[109.114163,21.456944]},"properties":{"province":"广西壮族自治区","city":"北海市","county":"海城区","community":"驿马街道白屋社区十五小住宅小区","full_address":"广西壮族自治区北海市海城区驿马街道白屋社区十五小住宅小区","info":""}},{"type":"Feature","geometry":{"type":"Point","coordinates":[109.120879,21.45228]},"properties":{"province":"广西壮族自治区","city":"北海市","county":"海城区","community":"驿马街道白屋社区站前路国际新城","full_address":"广西壮族自治区北海市海城区驿马街道白屋社区站前路国际新城","info":""}},{"type":"Feature","geometry":{"type":"Point","coordinates":[109.152567,21.495173]},"properties":{"province":"广西壮族自治区","city":"北海市","county":"海城区","community":"高德街道高菜村委会育才里","full_address":"广西壮族自治区北海市海城区高德街道高菜村委会育才里","info":""}},{"type":"Feature","geometry":{"type":"Point","coordinates":[109.11413,21.47921]},"properties":{"province":"广西壮族自治区","city":"北海市","county":"海城区","community":"中街街道幸福里社区文明路89至91号","full_address":"广西壮族自治区北海市海城区中街街道幸福里社区文明路89至91号","info":""}},{"type":"Feature","geometry":{"type":"Point","coordinates":[109.127588,21.466636]},"properties":{"province":"广西壮族自治区","city":"北海市","county":"海城区","community":"驿马街道西塘社区陈文村北路海玉小区","full_address":"广西壮族自治区北海市海城区驿马街道西塘社区陈文村北路海玉小区","info":""}},{"type":"Feature","geometry":{"type":"Point","coordinates":[109.111611,21.475157]},"properties":{"province":"广西壮族自治区","city":"北海市","county":"海城区","community":"西街街道平安街社区四川路渔业公司宿舍","full_address":"广西壮族自治区北海市海城区西街街道平安街社区四川路渔业公司宿舍","info":""}},{"type":"Feature","geometry":{"type":"Point","coordinates":[109.205788,21.661268]},"properties":{"province":"广西壮族自治区","city":"北海市","county":"海城区","community":"中街街道公园路社区公园路42至45号","full_address":"广西壮族自治区北海市海城区中街街道公园路社区公园路42至45号","info":""}},{"type":"Feature","geometry":{"type":"Point","coordinates":[109.133318,21.455125]},"properties":{"province":"广西壮族自治区","city":"北海市","county":"海城区","community":"驿马街道西塘社区站前路星海颐园小区","full_address":"广西壮族自治区北海市海城区驿马街道西塘社区站前路星海颐园小区","info":""}},{"type":"Feature","geometry":{"type":"Point","coordinates":[109.106644,21.453491]},"properties":{"province":"广西壮族自治区","city":"北海市","county":"海城区","community":"驿马街道白屋社区云南路107号景海豪庭","full_address":"广西壮族自治区北海市海城区驿马街道白屋社区云南路107号景海豪庭","info":""}},{"type":"Feature","geometry":{"type":"Point","coordinates":[109.080405,21.467617]},"properties":{"province":"广西壮族自治区","city":"北海市","county":"海城区","community":"地角街道昆明路社区听海一品","full_address":"广西壮族自治区北海市海城区地角街道昆明路社区听海一品","info":""}},{"type":"Feature","geometry":{"type":"Point","coordinates":[109.134732,21.477035]},"properties":{"province":"广西壮族自治区","city":"北海市","county":"海城区","community":"驿马街道湖海路社区湖海中路一巷1号至5号","full_address":"广西壮族自治区北海市海城区驿马街道湖海路社区湖海中路一巷1号至5号","info":""}},{"type":"Feature","geometry":{"type":"Point","coordinates":[109.140234,21.487942]},"properties":{"province":"广西壮族自治区","city":"北海市","county":"海城区","community":"东街街道黄海路社区东海街富逸花园","full_address":"广西壮族自治区北海市海城区东街街道黄海路社区东海街富逸花园","info":""}},{"type":"Feature","geometry":{"type":"Point","coordinates":[109.080405,21.467617]},"properties":{"province":"广西壮族自治区","city":"北海市","county":"海城区","community":"地角街道昆明路社区三号南区","full_address":"广西壮族自治区北海市海城区地角街道昆明路社区三号南区","info":""}},{"type":"Feature","geometry":{"type":"Point","coordinates":[109.13298,21.477701]},"properties":{"province":"广西壮族自治区","city":"北海市","county":"海城区","community":"东街街道铜鼓里社区工行宿舍（调整整个小区为高风险区）","full_address":"广西壮族自治区北海市海城区东街街道铜鼓里社区工行宿舍（调整整个小区为高风险区）","info":""}},{"type":"Feature","geometry":{"type":"Point","coordinates":[109.079848,21.464286]},"properties":{"province":"广西壮族自治区","city":"北海市","county":"海城区","community":"地角街道昆明路社区成都路2号永昶宿舍","full_address":"广西壮族自治区北海市海城区地角街道昆明路社区成都路2号永昶宿舍","info":""}},{"type":"Feature","geometry":{"type":"Point","coordinates":[109.16544,21.457926]},"properties":{"province":"广西壮族自治区","city":"北海市","county":"海城区","community":"驿马街道驿马村委会牛角塘村","full_address":"广西壮族自治区北海市海城区驿马街道驿马村委会牛角塘村","info":""}},{"type":"Feature","geometry":{"type":"Point","coordinates":[109.168542,21.496096]},"properties":{"province":"广西壮族自治区","city":"北海市","county":"海城区","community":"高德街道开江村委会银信花园","full_address":"广西壮族自治区北海市海城区高德街道开江村委会银信花园","info":""}},{"type":"Feature","geometry":{"type":"Point","coordinates":[109.170037,21.504635]},"properties":{"province":"广西壮族自治区","city":"北海市","county":"海城区","community":"高德街道开江村委会亚叉岭村","full_address":"广西壮族自治区北海市海城区高德街道开江村委会亚叉岭村","info":""}},{"type":"Feature","geometry":{"type":"Point","coordinates":[109.168652,21.46426]},"properties":{"province":"广西壮族自治区","city":"北海市","county":"海城区","community":"驿马街道驿马村委会福豪商住小区","full_address":"广西壮族自治区北海市海城区驿马街道驿马村委会福豪商住小区","info":""}},{"type":"Feature","geometry":{"type":"Point","coordinates":[109.16544,21.457926]},"properties":{"province":"广西壮族自治区","city":"北海市","county":"海城区","community":"驿马街道驿马村委会三塘村","full_address":"广西壮族自治区北海市海城区驿马街道驿马村委会三塘村","info":""}},{"type":"Feature","geometry":{"type":"Point","coordinates":[109.129024,21.470366]},"properties":{"province":"广西壮族自治区","city":"北海市","county":"海城区","community":"驿马街道西塘社区中央华府","full_address":"广西壮族自治区北海市海城区驿马街道西塘社区中央华府","info":""}},{"type":"Feature","geometry":{"type":"Point","coordinates":[109.139773,21.47706]},"properties":{"province":"广西壮族自治区","city":"北海市","county":"海城区","community":"驿马街道湖海路社区翟屋村","full_address":"广西壮族自治区北海市海城区驿马街道湖海路社区翟屋村","info":""}},{"type":"Feature","geometry":{"type":"Point","coordinates":[109.138122,21.448701]},"properties":{"province":"广西壮族自治区","city":"北海市","county":"银海区","community":"银滩镇和兴村委细垌小区","full_address":"广西壮族自治区北海市银海区银滩镇和兴村委细垌小区","info":""}},{"type":"Feature","geometry":{"type":"Point","coordinates":[109.153203,21.418734]},"properties":{"province":"广西壮族自治区","city":"北海市","county":"银海区","community":"银滩镇北背岭回建区银新西二路42号","full_address":"广西壮族自治区北海市银海区银滩镇北背岭回建区银新西二路42号","info":""}},{"type":"Feature","geometry":{"type":"Point","coordinates":[109.22341,21.51259]},"properties":{"province":"广西壮族自治区","city":"北海市","county":"银海区","community":"平阳镇平阳村委五队","full_address":"广西壮族自治区北海市银海区平阳镇平阳村委五队","info":""}},{"type":"Feature","geometry":{"type":"Point","coordinates":[109.160794,21.425305]},"properties":{"province":"广西壮族自治区","city":"北海市","county":"银海区","community":"银滩镇咸田村委原玻璃厂宿舍区","full_address":"广西壮族自治区北海市银海区银滩镇咸田村委原玻璃厂宿舍区","info":""}},{"type":"Feature","geometry":{"type":"Point","coordinates":[109.12434,21.421011]},"properties":{"province":"广西壮族自治区","city":"北海市","county":"银海区","community":"侨港镇半岛小区","full_address":"广西壮族自治区北海市银海区侨港镇半岛小区","info":""}},{"type":"Feature","geometry":{"type":"Point","coordinates":[109.141592,21.443646]},"properties":{"province":"广西壮族自治区","city":"北海市","county":"银海区","community":"银滩镇乾坤国际城小区","full_address":"广西壮族自治区北海市银海区银滩镇乾坤国际城小区","info":""}},{"type":"Feature","geometry":{"type":"Point","coordinates":[109.13967,21.446713]},"properties":{"province":"广西壮族自治区","city":"北海市","county":"银海区","community":"银滩镇镒建世纪城小区","full_address":"广西壮族自治区北海市银海区银滩镇镒建世纪城小区","info":""}},{"type":"Feature","geometry":{"type":"Point","coordinates":[109.131994,21.445811]},"properties":{"province":"广西壮族自治区","city":"北海市","county":"银海区","community":"银滩镇海兴社区嘉盛名都小区","full_address":"广西壮族自治区北海市银海区银滩镇海兴社区嘉盛名都小区","info":""}},{"type":"Feature","geometry":{"type":"Point","coordinates":[109.152385,21.438171]},"properties":{"province":"广西壮族自治区","city":"北海市","county":"银海区","community":"银滩镇浙江路公租房小区","full_address":"广西壮族自治区北海市银海区银滩镇浙江路公租房小区","info":""}},{"type":"Feature","geometry":{"type":"Point","coordinates":[109.139566,21.428961]},"properties":{"province":"广西壮族自治区","city":"北海市","county":"银海区","community":"银滩镇杭州路廉租房小区","full_address":"广西壮族自治区北海市银海区银滩镇杭州路廉租房小区","info":""}},{"type":"Feature","geometry":{"type":"Point","coordinates":[109.152385,21.438171]},"properties":{"province":"广西壮族自治区","city":"北海市","county":"银海区","community":"银滩镇江苏路公租房小区","full_address":"广西壮族自治区北海市银海区银滩镇江苏路公租房小区","info":""}},{"type":"Feature","geometry":{"type":"Point","coordinates":[109.131815,21.443066]},"properties":{"province":"广西壮族自治区","city":"北海市","county":"银海区","community":"银滩镇桐洋家园小区","full_address":"广西壮族自治区北海市银海区银滩镇桐洋家园小区","info":""}},{"type":"Feature","geometry":{"type":"Point","coordinates":[109.128473,21.442935]},"properties":{"province":"广西壮族自治区","city":"北海市","county":"银海区","community":"银滩镇九州家园南区","full_address":"广西壮族自治区北海市银海区银滩镇九州家园南区","info":""}},{"type":"Feature","geometry":{"type":"Point","coordinates":[109.162267,21.431616]},"properties":{"province":"广西壮族自治区","city":"北海市","county":"银海区","community":"银滩镇恒大名都小区","full_address":"广西壮族自治区北海市银海区银滩镇恒大名都小区","info":""}},{"type":"Feature","geometry":{"type":"Point","coordinates":[109.132755,21.426736]},"properties":{"province":"广西壮族自治区","city":"北海市","county":"银海区","community":"银滩镇万泉城1区","full_address":"广西壮族自治区北海市银海区银滩镇万泉城1区","info":""}},{"type":"Feature","geometry":{"type":"Point","coordinates":[109.133056,21.440738]},"properties":{"province":"广西壮族自治区","city":"北海市","county":"银海区","community":"银滩镇茗桂园小区","full_address":"广西壮族自治区北海市银海区银滩镇茗桂园小区","info":""}},{"type":"Feature","geometry":{"type":"Point","coordinates":[109.132821,21.448741]},"properties":{"province":"广西壮族自治区","city":"北海市","county":"银海区","community":"银滩镇新世纪住宅小区","full_address":"广西壮族自治区北海市银海区银滩镇新世纪住宅小区","info":""}},{"type":"Feature","geometry":{"type":"Point","coordinates":[109.155512,21.426366]},"properties":{"province":"广西壮族自治区","city":"北海市","county":"银海区","community":"银滩镇北背岭村委昊海梧桐小区","full_address":"广西壮族自治区北海市银海区银滩镇北背岭村委昊海梧桐小区","info":""}},{"type":"Feature","geometry":{"type":"Point","coordinates":[109.140088,21.43613]},"properties":{"province":"广西壮族自治区","city":"北海市","county":"银海区","community":"银滩镇兴海小区C39栋、C10栋、C18栋","full_address":"广西壮族自治区北海市银海区银滩镇兴海小区C39栋、C10栋、C18栋","info":""}},{"type":"Feature","geometry":{"type":"Point","coordinates":[109.134488,21.439839]},"properties":{"province":"广西壮族自治区","city":"北海市","county":"银海区","community":"银滩镇海兴社区碧海华庭小区","full_address":"广西壮族自治区北海市银海区银滩镇海兴社区碧海华庭小区","info":""}},{"type":"Feature","geometry":{"type":"Point","coordinates":[109.139526,21.441066]},"properties":{"province":"广西壮族自治区","city":"北海市","county":"银海区","community":"银滩镇天赐良缘小区","full_address":"广西壮族自治区北海市银海区银滩镇天赐良缘小区","info":""}},{"type":"Feature","geometry":{"type":"Point","coordinates":[109.139526,21.441066]},"properties":{"province":"广西壮族自治区","city":"北海市","county":"银海区","community":"银滩镇弘业海景广场小区","full_address":"广西壮族自治区北海市银海区银滩镇弘业海景广场小区","info":""}},{"type":"Feature","geometry":{"type":"Point","coordinates":[109.120483,21.43965]},"properties":{"province":"广西壮族自治区","city":"北海市","county":"银海区","community":"银滩镇汇海雅居小区","full_address":"广西壮族自治区北海市银海区银滩镇汇海雅居小区","info":""}},{"type":"Feature","geometry":{"type":"Point","coordinates":[109.156697,21.418886]},"properties":{"province":"广西壮族自治区","city":"北海市","county":"银海区","community":"银滩镇祥光花园小区","full_address":"广西壮族自治区北海市银海区银滩镇祥光花园小区","info":""}},{"type":"Feature","geometry":{"type":"Point","coordinates":[109.137286,21.428365]},"properties":{"province":"广西壮族自治区","city":"北海市","county":"银海区","community":"银滩镇海韵家园小区","full_address":"广西壮族自治区北海市银海区银滩镇海韵家园小区","info":""}},{"type":"Feature","geometry":{"type":"Point","coordinates":[109.124519,21.433333]},"properties":{"province":"广西壮族自治区","city":"北海市","county":"银海区","community":"银滩镇和平村委和平小区","full_address":"广西壮族自治区北海市银海区银滩镇和平村委和平小区","info":""}},{"type":"Feature","geometry":{"type":"Point","coordinates":[109.155172,21.455768]},"properties":{"province":"广西壮族自治区","city":"北海市","county":"银海区","community":"银滩镇阳光蓝洲花园小区","full_address":"广西壮族自治区北海市银海区银滩镇阳光蓝洲花园小区","info":""}},{"type":"Feature","geometry":{"type":"Point","coordinates":[109.131472,21.442141]},"properties":{"province":"广西壮族自治区","city":"北海市","county":"银海区","community":"银滩镇恒生嘉园小区","full_address":"广西壮族自治区北海市银海区银滩镇恒生嘉园小区","info":""}},{"type":"Feature","geometry":{"type":"Point","coordinates":[109.140278,21.450681]},"properties":{"province":"广西壮族自治区","city":"北海市","county":"银海区","community":"银滩镇和兴园小区","full_address":"广西壮族自治区北海市银海区银滩镇和兴园小区","info":""}},{"type":"Feature","geometry":{"type":"Point","coordinates":[109.156697,21.418886]},"properties":{"province":"广西壮族自治区","city":"北海市","county":"银海区","community":"银滩镇皇都花园小区","full_address":"广西壮族自治区北海市银海区银滩镇皇都花园小区","info":""}},{"type":"Feature","geometry":{"type":"Point","coordinates":[109.109852,21.444903]},"properties":{"province":"广西壮族自治区","city":"北海市","county":"银海区","community":"银滩镇贵兴社区鑫盛花园小区","full_address":"广西壮族自治区北海市银海区银滩镇贵兴社区鑫盛花园小区","info":""}},{"type":"Feature","geometry":{"type":"Point","coordinates":[109.119266,21.444087]},"properties":{"province":"广西壮族自治区","city":"北海市","county":"银海区","community":"银滩镇贵兴社区银州南寨小区","full_address":"广西壮族自治区北海市银海区银滩镇贵兴社区银州南寨小区","info":""}},{"type":"Feature","geometry":{"type":"Point","coordinates":[109.138122,21.448701]},"properties":{"province":"广西壮族自治区","city":"北海市","county":"银海区","community":"银滩镇和兴村委碧园海公馆","full_address":"广西壮族自治区北海市银海区银滩镇和兴村委碧园海公馆","info":""}},{"type":"Feature","geometry":{"type":"Point","coordinates":[109.117451,21.434235]},"properties":{"province":"广西壮族自治区","city":"北海市","county":"银海区","community":"银滩镇和平村委岳麓海岸小区","full_address":"广西壮族自治区北海市银海区银滩镇和平村委岳麓海岸小区","info":""}},{"type":"Feature","geometry":{"type":"Point","coordinates":[109.142906,21.427333]},"properties":{"province":"广西壮族自治区","city":"北海市","county":"银海区","community":"银滩镇海兴社区居委会圣美阳光家园","full_address":"广西壮族自治区北海市银海区银滩镇海兴社区居委会圣美阳光家园","info":""}},{"type":"Feature","geometry":{"type":"Point","coordinates":[109.142517,21.434783]},"properties":{"province":"广西壮族自治区","city":"北海市","county":"银海区","community":"银滩镇和兴社区碧海湾小区","full_address":"广西壮族自治区北海市银海区银滩镇和兴社区碧海湾小区","info":""}},{"type":"Feature","geometry":{"type":"Point","coordinates":[109.114377,21.444802]},"properties":{"province":"广西壮族自治区","city":"北海市","county":"银海区","community":"银滩镇贵兴社区龙珠新村e区","full_address":"广西壮族自治区北海市银海区银滩镇贵兴社区龙珠新村e区","info":""}},{"type":"Feature","geometry":{"type":"Point","coordinates":[109.139526,21.441066]},"properties":{"province":"广西壮族自治区","city":"北海市","county":"银海区","community":"银滩镇海兴社区居委会桂海小区","full_address":"广西壮族自治区北海市银海区银滩镇海兴社区居委会桂海小区","info":""}},{"type":"Feature","geometry":{"type":"Point","coordinates":[109.156697,21.418886]},"properties":{"province":"广西壮族自治区","city":"北海市","county":"银海区","community":"银滩镇疍家小镇","full_address":"广西壮族自治区北海市银海区银滩镇疍家小镇","info":""}},{"type":"Feature","geometry":{"type":"Point","coordinates":[109.100529,21.436857]},"properties":{"province":"广西壮族自治区","city":"北海市","county":"银海区","community":"银滩镇沙湾回建小区","full_address":"广西壮族自治区北海市银海区银滩镇沙湾回建小区","info":""}},{"type":"Feature","geometry":{"type":"Point","coordinates":[109.133761,21.434707]},"properties":{"province":"广西壮族自治区","city":"北海市","county":"银海区","community":"银滩镇上江尾村","full_address":"广西壮族自治区北海市银海区银滩镇上江尾村","info":""}},{"type":"Feature","geometry":{"type":"Point","coordinates":[109.120358,21.441041]},"properties":{"province":"广西壮族自治区","city":"北海市","county":"银海区","community":"银滩镇和平村委侨建新村","full_address":"广西壮族自治区北海市银海区银滩镇和平村委侨建新村","info":""}},{"type":"Feature","geometry":{"type":"Point","coordinates":[109.107517,21.433746]},"properties":{"province":"广西壮族自治区","city":"北海市","county":"银海区","community":"银滩镇和平村委烟西村","full_address":"广西壮族自治区北海市银海区银滩镇和平村委烟西村","info":""}},{"type":"Feature","geometry":{"type":"Point","coordinates":[109.107517,21.433746]},"properties":{"province":"广西壮族自治区","city":"北海市","county":"银海区","community":"银滩镇和平村委梁屋村","full_address":"广西壮族自治区北海市银海区银滩镇和平村委梁屋村","info":""}},{"type":"Feature","geometry":{"type":"Point","coordinates":[109.138122,21.448701]},"properties":{"province":"广西壮族自治区","city":"北海市","county":"银海区","community":"银滩镇和兴村委大江村","full_address":"广西壮族自治区北海市银海区银滩镇和兴村委大江村","info":""}},{"type":"Feature","geometry":{"type":"Point","coordinates":[109.138122,21.448701]},"properties":{"province":"广西壮族自治区","city":"北海市","county":"银海区","community":"银滩镇和兴村委三唐村","full_address":"广西壮族自治区北海市银海区银滩镇和兴村委三唐村","info":""}},{"type":"Feature","geometry":{"type":"Point","coordinates":[109.129498,21.448992]},"properties":{"province":"广西壮族自治区","city":"北海市","county":"银海区","community":"银滩镇和兴村委禾塘新村","full_address":"广西壮族自治区北海市银海区银滩镇和兴村委禾塘新村","info":""}},{"type":"Feature","geometry":{"type":"Point","coordinates":[109.143854,21.413128]},"properties":{"province":"广西壮族自治区","city":"北海市","county":"银海区","community":"银滩镇咸田村委会西边村","full_address":"广西壮族自治区北海市银海区银滩镇咸田村委会西边村","info":""}},{"type":"Feature","geometry":{"type":"Point","coordinates":[109.160794,21.425305]},"properties":{"province":"广西壮族自治区","city":"北海市","county":"银海区","community":"银滩镇咸田村委沙渔湾村","full_address":"广西壮族自治区北海市银海区银滩镇咸田村委沙渔湾村","info":""}},{"type":"Feature","geometry":{"type":"Point","coordinates":[109.160794,21.425305]},"properties":{"province":"广西壮族自治区","city":"北海市","county":"银海区","community":"银滩镇咸田村委高沙龙村","full_address":"广西壮族自治区北海市银海区银滩镇咸田村委高沙龙村","info":""}},{"type":"Feature","geometry":{"type":"Point","coordinates":[109.1762,21.439201]},"properties":{"province":"广西壮族自治区","city":"北海市","county":"银海区","community":"银滩镇曲湾村委捻塘村","full_address":"广西壮族自治区北海市银海区银滩镇曲湾村委捻塘村","info":""}},{"type":"Feature","geometry":{"type":"Point","coordinates":[109.1762,21.439201]},"properties":{"province":"广西壮族自治区","city":"北海市","county":"银海区","community":"银滩镇曲湾村委撑排路、小曲湾村、古城岭村","full_address":"广西壮族自治区北海市银海区银滩镇曲湾村委撑排路、小曲湾村、古城岭村","info":""}},{"type":"Feature","geometry":{"type":"Point","coordinates":[109.19626,21.419682]},"properties":{"province":"广西壮族自治区","city":"北海市","county":"银海区","community":"银滩镇下村村委下村","full_address":"广西壮族自治区北海市银海区银滩镇下村村委下村","info":""}},{"type":"Feature","geometry":{"type":"Point","coordinates":[109.198486,21.441105]},"properties":{"province":"广西壮族自治区","city":"北海市","county":"银海区","community":"银滩镇龙潭村委龙潭村1队","full_address":"广西壮族自治区北海市银海区银滩镇龙潭村委龙潭村1队","info":""}},{"type":"Feature","geometry":{"type":"Point","coordinates":[109.198486,21.441105]},"properties":{"province":"广西壮族自治区","city":"北海市","county":"银海区","community":"银滩镇龙潭村委9队、6队","full_address":"广西壮族自治区北海市银海区银滩镇龙潭村委9队、6队","info":""}},{"type":"Feature","geometry":{"type":"Point","coordinates":[109.139074,21.416737]},"properties":{"province":"广西壮族自治区","city":"北海市","county":"银海区","community":"银滩镇海泰别墅诗海主题酒店","full_address":"广西壮族自治区北海市银海区银滩镇海泰别墅诗海主题酒店","info":""}},{"type":"Feature","geometry":{"type":"Point","coordinates":[109.11766,21.418507]},"properties":{"province":"广西壮族自治区","city":"北海市","county":"银海区","community":"侨港镇电建东二巷133号-136号","full_address":"广西壮族自治区北海市银海区侨港镇电建东二巷133号-136号","info":""}},{"type":"Feature","geometry":{"type":"Point","coordinates":[109.223945,21.611078]},"properties":{"province":"广西壮族自治区","city":"北海市","county":"银海区","community":"平阳镇三合口农场马栏分场","full_address":"广西壮族自治区北海市银海区平阳镇三合口农场马栏分场","info":""}},{"type":"Feature","geometry":{"type":"Point","coordinates":[109.20899,21.499868]},"properties":{"province":"广西壮族自治区","city":"北海市","county":"银海区","community":"平阳镇平阳村吴氏农场","full_address":"广西壮族自治区北海市银海区平阳镇平阳村吴氏农场","info":""}},{"type":"Feature","geometry":{"type":"Point","coordinates":[109.22341,21.51259]},"properties":{"province":"广西壮族自治区","city":"北海市","county":"银海区","community":"平阳镇平阳村委平阳村8队、9队、10队","full_address":"广西壮族自治区北海市银海区平阳镇平阳村委平阳村8队、9队、10队","info":""}},{"type":"Feature","geometry":{"type":"Point","coordinates":[109.332412,21.572654]},"properties":{"province":"广西壮族自治区","city":"北海市","county":"银海区","community":"福成镇福成村委新建四街","full_address":"广西壮族自治区北海市银海区福成镇福成村委新建四街","info":""}},{"type":"Feature","geometry":{"type":"Point","coordinates":[109.332771,21.571358]},"properties":{"province":"广西壮族自治区","city":"北海市","county":"银海区","community":"福成镇福成村委福康一里","full_address":"广西壮族自治区北海市银海区福成镇福成村委福康一里","info":""}},{"type":"Feature","geometry":{"type":"Point","coordinates":[109.314789,21.584062]},"properties":{"province":"广西壮族自治区","city":"北海市","county":"银海区","community":"福成镇福成村委沙虫江村","full_address":"广西壮族自治区北海市银海区福成镇福成村委沙虫江村","info":""}},{"type":"Feature","geometry":{"type":"Point","coordinates":[109.371395,21.557702]},"properties":{"province":"广西壮族自治区","city":"北海市","county":"银海区","community":"福成镇红镜塘村委东本塘村","full_address":"广西壮族自治区北海市银海区福成镇红镜塘村委东本塘村","info":""}},{"type":"Feature","geometry":{"type":"Point","coordinates":[109.371395,21.557702]},"properties":{"province":"广西壮族自治区","city":"北海市","county":"银海区","community":"福成镇红镜塘村委大彬斗村","full_address":"广西壮族自治区北海市银海区福成镇红镜塘村委大彬斗村","info":""}},{"type":"Feature","geometry":{"type":"Point","coordinates":[109.193968,21.438707]},"properties":{"province":"广西壮族自治区","city":"北海市","county":"银海区","community":"福成镇红旗村委6队","full_address":"广西壮族自治区北海市银海区福成镇红旗村委6队","info":""}},{"type":"Feature","geometry":{"type":"Point","coordinates":[109.302244,21.511713]},"properties":{"province":"广西壮族自治区","city":"北海市","county":"银海区","community":"福成镇宁海村委下佳塘村","full_address":"广西壮族自治区北海市银海区福成镇宁海村委下佳塘村","info":""}},{"type":"Feature","geometry":{"type":"Point","coordinates":[109.265098,21.455732]},"properties":{"province":"广西壮族自治区","city":"北海市","county":"银海区","community":"福成镇西村5队","full_address":"广西壮族自治区北海市银海区福成镇西村5队","info":""}},{"type":"Feature","geometry":{"type":"Point","coordinates":[109.273538,21.487272]},"properties":{"province":"广西壮族自治区","city":"北海市","county":"银海区","community":"福成镇大坎村委小坎村","full_address":"广西壮族自治区北海市银海区福成镇大坎村委小坎村","info":""}},{"type":"Feature","geometry":{"type":"Point","coordinates":[109.356184,21.664986]},"properties":{"province":"广西壮族自治区","city":"北海市","county":"银海区","community":"福成镇松明村委塘督村","full_address":"广西壮族自治区北海市银海区福成镇松明村委塘督村","info":""}},{"type":"Feature","geometry":{"type":"Point","coordinates":[109.119516,21.444479]},"properties":{"province":"广西壮族自治区","city":"北海市","county":"银海区","community":"银滩镇贵兴社区贵兴市场丽华小区","full_address":"广西壮族自治区北海市银海区银滩镇贵兴社区贵兴市场丽华小区","info":""}},{"type":"Feature","geometry":{"type":"Point","coordinates":[109.142536,21.447644]},"properties":{"province":"广西壮族自治区","city":"北海市","county":"银海区","community":"银滩镇和兴村委东峰世纪公寓","full_address":"广西壮族自治区北海市银海区银滩镇和兴村委东峰世纪公寓","info":""}},{"type":"Feature","geometry":{"type":"Point","coordinates":[109.433567,21.885625]},"properties":{"province":"广西壮族自治区","city":"北海市","county":"合浦县","community":"常乐镇皇后村委会中四队","full_address":"广西壮族自治区北海市合浦县常乐镇皇后村委会中四队","info":""}},{"type":"Feature","geometry":{"type":"Point","coordinates":[109.606866,21.762133]},"properties":{"province":"广西壮族自治区","city":"北海市","county":"合浦县","community":"公馆镇浪坡村麻老角林某玉住房片区","full_address":"广西壮族自治区北海市合浦县公馆镇浪坡村麻老角林某玉住房片区","info":""}},{"type":"Feature","geometry":{"type":"Point","coordinates":[109.156217,21.572773]},"properties":{"province":"广西壮族自治区","city":"北海市","county":"合浦县","community":"廉州镇烟楼村委水儿村三组","full_address":"广西壮族自治区北海市合浦县廉州镇烟楼村委水儿村三组","info":""}},{"type":"Feature","geometry":{"type":"Point","coordinates":[109.479117,21.890236]},"properties":{"province":"广西壮族自治区","city":"北海市","county":"合浦县","community":"公馆镇香山村委会掌塘村（梁某萍）","full_address":"广西壮族自治区北海市合浦县公馆镇香山村委会掌塘村（梁某萍）","info":""}},{"type":"Feature","geometry":{"type":"Point","coordinates":[106.29466,29.428977]},"properties":{"province":"重庆市","city":"重庆市","county":"江津区","community":"双福国际农贸城","full_address":"重庆市重庆市江津区双福国际农贸城","info":""}},{"type":"Feature","geometry":{"type":"Point","coordinates":[106.268558,29.419664]},"properties":{"province":"重庆市","city":"重庆市","county":"江津区","community":"双福街道恒大金碧天下1期401栋楼","full_address":"重庆市重庆市江津区双福街道恒大金碧天下1期401栋楼","info":""}},{"type":"Feature","geometry":{"type":"Point","coordinates":[106.289741,29.431784]},"properties":{"province":"重庆市","city":"重庆市","county":"江津区","community":"双福珊瑚大道旁兴茂北座2号楼","full_address":"重庆市重庆市江津区双福珊瑚大道旁兴茂北座2号楼","info":""}},{"type":"Feature","geometry":{"type":"Point","coordinates":[103.984028,30.672069]},"properties":{"province":"四川省","city":"成都市","county":"青羊区","community":"苏坡街道苏坡中路77号院1、7、9栋（苏坡中路77号）","full_address":"四川省成都市青羊区苏坡街道苏坡中路77号院1、7、9栋（苏坡中路77号）","info":""}},{"type":"Feature","geometry":{"type":"Point","coordinates":[104.113444,30.769332]},"properties":{"province":"四川省","city":"成都市","county":"金牛区","community":"天回镇街道金华6组购地自建户及企业房产所在区域","full_address":"四川省成都市金牛区天回镇街道金华6组购地自建户及企业房产所在区域","info":""}},{"type":"Feature","geometry":{"type":"Point","coordinates":[104.036556,30.688252]},"properties":{"province":"四川省","city":"成都市","county":"金牛区","community":"茶店子街道五里墩东一巷 1 号院 1、2 栋包括底商","full_address":"四川省成都市金牛区茶店子街道五里墩东一巷 1 号院 1、2 栋包括底商","info":""}},{"type":"Feature","geometry":{"type":"Point","coordinates":[104.026223,30.692428]},"properties":{"province":"四川省","city":"成都市","county":"金牛区","community":"茶店子街道营康西路427号附1号小区1-6单元及底商","full_address":"四川省成都市金牛区茶店子街道营康西路427号附1号小区1-6单元及底商","info":""}},{"type":"Feature","geometry":{"type":"Point","coordinates":[104.087382,30.683714]},"properties":{"province":"四川省","city":"成都市","county":"金牛区","community":"驷马桥街道府青路1段36号大院38栋","full_address":"四川省成都市金牛区驷马桥街道府青路1段36号大院38栋","info":""}},{"type":"Feature","geometry":{"type":"Point","coordinates":[104.116833,30.763275]},"properties":{"province":"四川省","city":"成都市","county":"金牛区","community":"天回镇街道明月村五组175号，病例住房所在的一条街左右两排自建房区域","full_address":"四川省成都市金牛区天回镇街道明月村五组175号，病例住房所在的一条街左右两排自建房区域","info":""}},{"type":"Feature","geometry":{"type":"Point","coordinates":[104.117198,30.771318]},"properties":{"province":"四川省","city":"成都市","county":"金牛区","community":"天回镇街道芙蓉锦绣城西苑及底商","full_address":"四川省成都市金牛区天回镇街道芙蓉锦绣城西苑及底商","info":""}},{"type":"Feature","geometry":{"type":"Point","coordinates":[104.119039,30.76585]},"properties":{"province":"四川省","city":"成都市","county":"金牛区","community":"天回镇街道明月锦苑二期北苑及底商","full_address":"四川省成都市金牛区天回镇街道明月锦苑二期北苑及底商","info":""}},{"type":"Feature","geometry":{"type":"Point","coordinates":[104.082861,30.68958]},"properties":{"province":"四川省","city":"成都市","county":"金牛区","community":"驷马桥街道田家巷15号尚锦城1-3栋","full_address":"四川省成都市金牛区驷马桥街道田家巷15号尚锦城1-3栋","info":""}},{"type":"Feature","geometry":{"type":"Point","coordinates":[104.120063,30.679998]},"properties":{"province":"四川省","city":"成都市","county":"成华区","community":"府青路街道关家苑2-8栋（二仙桥南一路11号），包括楼栋底层商户","full_address":"四川省成都市成华区府青路街道关家苑2-8栋（二仙桥南一路11号），包括楼栋底层商户","info":""}},{"type":"Feature","geometry":{"type":"Point","coordinates":[104.118526,30.681475]},"properties":{"province":"四川省","city":"成都市","county":"成华区","community":"府青路街道祥和苑6栋(文德路231号)","full_address":"四川省成都市成华区府青路街道祥和苑6栋(文德路231号)","info":""}},{"type":"Feature","geometry":{"type":"Point","coordinates":[104.110349,30.674895]},"properties":{"province":"四川省","city":"成都市","county":"成华区","community":"跳蹬河街道龙湖三千城1期3栋","full_address":"四川省成都市成华区跳蹬河街道龙湖三千城1期3栋","info":""}},{"type":"Feature","geometry":{"type":"Point","coordinates":[104.160595,30.674292]},"properties":{"province":"四川省","city":"成都市","county":"成华区","community":"龙潭街道丛树家园1栋","full_address":"四川省成都市成华区龙潭街道丛树家园1栋","info":""}},{"type":"Feature","geometry":{"type":"Point","coordinates":[104.117784,30.678792]},"properties":{"province":"四川省","city":"成都市","county":"成华区","community":"府青路街道建设北路三段233号及小区入口一楼商铺","full_address":"四川省成都市成华区府青路街道建设北路三段233号及小区入口一楼商铺","info":""}},{"type":"Feature","geometry":{"type":"Point","coordinates":[104.118037,30.680561]},"properties":{"province":"四川省","city":"成都市","county":"成华区","community":"府青路街道小新华苑(二仙桥南一路2号)","full_address":"四川省成都市成华区府青路街道小新华苑(二仙桥南一路2号)","info":""}},{"type":"Feature","geometry":{"type":"Point","coordinates":[104.118859,30.680609]},"properties":{"province":"四川省","city":"成都市","county":"成华区","community":"府青路街道大新华苑(二仙桥南一路1号)","full_address":"四川省成都市成华区府青路街道大新华苑(二仙桥南一路1号)","info":""}},