{"type":"FeatureCollection","features":[{"type":"Feature","geometry":{"type":"Point","coordinates":[116.687463,39.938106]},"properties":{"province":"北京市","city":"通州区","county":"潞邑街道","community":"珠江拉维小镇小区","full_address":"北京市通州区潞邑街道珠江拉维小镇小区","info":""}},{"type":"Feature","geometry":{"type":"Point","coordinates":[116.506283,40.083147]},"properties":{"province":"北京市","city":"顺义区","county":"空港街道","community":"龙湾别墅5702栋","full_address":"北京市顺义区空港街道龙湾别墅5702栋","info":""}},{"type":"Feature","geometry":{"type":"Point","coordinates":[116.400704,40.067954]},"properties":{"province":"北京市","city":"昌平区","county":"东小口（地区）镇","community":"中东路121号院","full_address":"北京市昌平区东小口（地区）镇中东路121号院","info":""}},{"type":"Feature","geometry":{"type":"Point","coordinates":[116.055233,40.340545]},"properties":{"province":"北京市","city":"延庆区","county":"八达岭镇","community":"长城脚下的公社（酒店）","full_address":"北京市延庆区八达岭镇长城脚下的公社（酒店）","info":""}},{"type":"Feature","geometry":{"type":"Point","coordinates":[116.043795,40.340168]},"properties":{"province":"北京市","city":"延庆区","county":"八达岭镇","community":"石佛寺村","full_address":"北京市延庆区八达岭镇石佛寺村","info":""}},{"type":"Feature","geometry":{"type":"Point","coordinates":[117.26264,39.077006]},"properties":{"province":"天津市","city":"天津市","county":"河西区","community":"陈塘庄街复兴门家园","full_address":"天津市天津市河西区陈塘庄街复兴门家园","info":""}},{"type":"Feature","geometry":{"type":"Point","coordinates":[117.269861,39.059326]},"properties":{"province":"天津市","city":"天津市","county":"河西区","community":"柳林街珠峰里2门","full_address":"天津市天津市河西区柳林街珠峰里2门","info":""}},{"type":"Feature","geometry":{"type":"Point","coordinates":[117.270318,39.065038]},"properties":{"province":"天津市","city":"天津市","county":"河西区","community":"柳林街黄海里1门至18门","full_address":"天津市天津市河西区柳林街黄海里1门至18门","info":""}},{"type":"Feature","geometry":{"type":"Point","coordinates":[117.271076,39.065063]},"properties":{"province":"天津市","city":"天津市","county":"河西区","community":"柳林街东海里1门至8门","full_address":"天津市天津市河西区柳林街东海里1门至8门","info":""}},{"type":"Feature","geometry":{"type":"Point","coordinates":[117.314289,39.139464]},"properties":{"province":"天津市","city":"天津市","county":"东丽区","community":"万新街蔚秀花园9、10、11、14、15、22、23、26号楼","full_address":"天津市天津市东丽区万新街蔚秀花园9、10、11、14、15、22、23、26号楼","info":""}},{"type":"Feature","geometry":{"type":"Point","coordinates":[117.296287,39.048961]},"properties":{"province":"天津市","city":"天津市","county":"津南区","community":"双林街海天南苑","full_address":"天津市天津市津南区双林街海天南苑","info":""}},{"type":"Feature","geometry":{"type":"Point","coordinates":[117.343757,38.946914]},"properties":{"province":"天津市","city":"天津市","county":"津南区","community":"八里台镇瞰湖苑小区","full_address":"天津市天津市津南区八里台镇瞰湖苑小区","info":""}},{"type":"Feature","geometry":{"type":"Point","coordinates":[117.277327,39.049641]},"properties":{"province":"天津市","city":"天津市","county":"津南区","community":"双林街津铁惠苑-南区","full_address":"天津市天津市津南区双林街津铁惠苑-南区","info":""}},{"type":"Feature","geometry":{"type":"Point","coordinates":[117.316058,39.046749]},"properties":{"province":"天津市","city":"天津市","county":"津南区","community":"双港镇金地格林棕榈苑D区","full_address":"天津市天津市津南区双港镇金地格林棕榈苑D区","info":""}},{"type":"Feature","geometry":{"type":"Point","coordinates":[108.29051,41.102149]},"properties":{"province":"内蒙古自治区","city":"巴彦淖尔市","county":"五原县","community":"隆兴昌镇虹亚B区29号楼","full_address":"内蒙古自治区巴彦淖尔市五原县隆兴昌镇虹亚B区29号楼","info":""}},{"type":"Feature","geometry":{"type":"Point","coordinates":[108.291363,41.104323]},"properties":{"province":"内蒙古自治区","city":"巴彦淖尔市","county":"五原县","community":"隆兴昌镇李四骨科医院","full_address":"内蒙古自治区巴彦淖尔市五原县隆兴昌镇李四骨科医院","info":""}},{"type":"Feature","geometry":{"type":"Point","coordinates":[107.57805,42.40261]},"properties":{"province":"内蒙古自治区","city":"巴彦淖尔市","county":"乌拉特中旗","community":"甘其毛都镇中蒙花园小区","full_address":"内蒙古自治区巴彦淖尔市乌拉特中旗甘其毛都镇中蒙花园小区","info":""}},{"type":"Feature","geometry":{"type":"Point","coordinates":[107.57805,42.40261]},"properties":{"province":"内蒙古自治区","city":"巴彦淖尔市","county":"乌拉特中旗","community":"甘其毛都镇酒吧街A区","full_address":"内蒙古自治区巴彦淖尔市乌拉特中旗甘其毛都镇酒吧街A区","info":""}},{"type":"Feature","geometry":{"type":"Point","coordinates":[107.57805,42.40261]},"properties":{"province":"内蒙古自治区","city":"巴彦淖尔市","county":"乌拉特中旗","community":"甘其毛都镇汇鑫源超市所在平房生活区","full_address":"内蒙古自治区巴彦淖尔市乌拉特中旗甘其毛都镇汇鑫源超市所在平房生活区","info":""}},{"type":"Feature","geometry":{"type":"Point","coordinates":[108.530999,41.575831]},"properties":{"province":"内蒙古自治区","city":"巴彦淖尔市","county":"乌拉特中旗","community":"海流图镇惠民小区17号楼","full_address":"内蒙古自治区巴彦淖尔市乌拉特中旗海流图镇惠民小区17号楼","info":""}},{"type":"Feature","geometry":{"type":"Point","coordinates":[121.47722,31.231345]},"properties":{"province":"上海市","city":"上海市","county":"黄浦区","community":"南京东路街道西藏中路180号高盛商厦5楼（HD PUB汉登喝酒公司人民广场店）","full_address":"上海市上海市黄浦区南京东路街道西藏中路180号高盛商厦5楼（HD PUB汉登喝酒公司人民广场店）","info":""}},{"type":"Feature","geometry":{"type":"Point","coordinates":[121.446928,31.118948]},"properties":{"province":"上海市","city":"上海市","county":"徐汇区","community":"华泾镇华泾路1000弄","full_address":"上海市上海市徐汇区华泾镇华泾路1000弄","info":""}},{"type":"Feature","geometry":{"type":"Point","coordinates":[121.402439,31.20537]},"properties":{"province":"上海市","city":"上海市","county":"长宁区","community":"虹桥街道娄山关路85号A座2楼仙纳都量贩式KTV","full_address":"上海市上海市长宁区虹桥街道娄山关路85号A座2楼仙纳都量贩式KTV","info":""}},{"type":"Feature","geometry":{"type":"Point","coordinates":[121.44446,31.2662]},"properties":{"province":"上海市","city":"上海市","county":"静安区","community":"共和新路街道沪太路785号B座501西区天空音乐量贩式KTV","full_address":"上海市上海市静安区共和新路街道沪太路785号B座501西区天空音乐量贩式KTV","info":""}},{"type":"Feature","geometry":{"type":"Point","coordinates":[121.466691,31.225404]},"properties":{"province":"上海市","city":"上海市","county":"静安区","community":"南京西路街道大沽路395号","full_address":"上海市上海市静安区南京西路街道大沽路395号","info":""}},{"type":"Feature","geometry":{"type":"Point","coordinates":[121.407826,31.223057]},"properties":{"province":"上海市","city":"上海市","county":"普陀区","community":"长风新村街道光复西路2077弄小区","full_address":"上海市上海市普陀区长风新村街道光复西路2077弄小区","info":""}},{"type":"Feature","geometry":{"type":"Point","coordinates":[121.491337,31.252245]},"properties":{"province":"上海市","city":"上海市","county":"虹口区","community":"北外滩街道九龙路515号振兴公寓","full_address":"上海市上海市虹口区北外滩街道九龙路515号振兴公寓","info":""}},{"type":"Feature","geometry":{"type":"Point","coordinates":[121.479617,31.272209]},"properties":{"province":"上海市","city":"上海市","county":"虹口区","community":"欧阳路街道东江湾路456号","full_address":"上海市上海市虹口区欧阳路街道东江湾路456号","info":""}},{"type":"Feature","geometry":{"type":"Point","coordinates":[121.493867,31.17592]},"properties":{"province":"上海市","city":"上海市","county":"浦东新区","community":"上钢新村街道上钢二村小区","full_address":"上海市上海市浦东新区上钢新村街道上钢二村小区","info":""}},{"type":"Feature","geometry":{"type":"Point","coordinates":[121.603498,31.141829]},"properties":{"province":"上海市","city":"上海市","county":"浦东新区","community":"康桥镇环桥路1488弄小区","full_address":"上海市上海市浦东新区康桥镇环桥路1488弄小区","info":""}},{"type":"Feature","geometry":{"type":"Point","coordinates":[121.139792,31.0355]},"properties":{"province":"上海市","city":"上海市","county":"松江区","community":"小昆山镇平原街86弄平原新村","full_address":"上海市上海市松江区小昆山镇平原街86弄平原新村","info":""}},{"type":"Feature","geometry":{"type":"Point","coordinates":[121.315067,31.014986]},"properties":{"province":"上海市","city":"上海市","county":"松江区","community":"车墩镇大官塘路180弄松南城善德苑","full_address":"上海市上海市松江区车墩镇大官塘路180弄松南城善德苑","info":""}},{"type":"Feature","geometry":{"type":"Point","coordinates":[120.385685,31.632358]},"properties":{"province":"江苏省","city":"无锡市","county":"锡山区","community":"云林街道国泰精密机件无锡有限公司","full_address":"江苏省无锡市锡山区云林街道国泰精密机件无锡有限公司","info":""}},{"type":"Feature","geometry":{"type":"Point","coordinates":[120.372144,31.608245]},"properties":{"province":"江苏省","city":"无锡市","county":"锡山区","community":"云林街道春雷苑","full_address":"江苏省无锡市锡山区云林街道春雷苑","info":""}},{"type":"Feature","geometry":{"type":"Point","coordinates":[120.372243,31.577597]},"properties":{"province":"江苏省","city":"无锡市","county":"锡山区","community":"东亭街道隆亭新苑","full_address":"江苏省无锡市锡山区东亭街道隆亭新苑","info":""}},{"type":"Feature","geometry":{"type":"Point","coordinates":[120.481659,31.615094]},"properties":{"province":"江苏省","city":"无锡市","county":"锡山区","community":"安镇街道鑫安苑三期","full_address":"江苏省无锡市锡山区安镇街道鑫安苑三期","info":""}},{"type":"Feature","geometry":{"type":"Point","coordinates":[120.368209,31.576923]},"properties":{"province":"江苏省","city":"无锡市","county":"锡山区","community":"东亭街道蓝光五彩华庭","full_address":"江苏省无锡市锡山区东亭街道蓝光五彩华庭","info":""}},{"type":"Feature","geometry":{"type":"Point","coordinates":[120.280771,31.643996]},"properties":{"province":"江苏省","city":"无锡市","county":"惠山区","community":"堰桥街道阳光100国际新城西区、米娅公馆","full_address":"江苏省无锡市惠山区堰桥街道阳光100国际新城西区、米娅公馆","info":""}},{"type":"Feature","geometry":{"type":"Point","coordinates":[120.247862,31.504123]},"properties":{"province":"江苏省","city":"无锡市","county":"滨湖区","community":"雪浪街道山水花苑","full_address":"江苏省无锡市滨湖区雪浪街道山水花苑","info":""}},{"type":"Feature","geometry":{"type":"Point","coordinates":[120.337333,31.582733]},"properties":{"province":"江苏省","city":"无锡市","county":"梁溪区","community":"广益街道华东商贸城","full_address":"江苏省无锡市梁溪区广益街道华东商贸城","info":""}},{"type":"Feature","geometry":{"type":"Point","coordinates":[120.3408,31.581187]},"properties":{"province":"江苏省","city":"无锡市","county":"梁溪区","community":"广益街道银仁御墅","full_address":"江苏省无锡市梁溪区广益街道银仁御墅","info":""}},{"type":"Feature","geometry":{"type":"Point","coordinates":[120.30476,31.540131]},"properties":{"province":"江苏省","city":"无锡市","county":"梁溪区","community":"扬名街道时代上城C8","full_address":"江苏省无锡市梁溪区扬名街道时代上城C8","info":""}},{"type":"Feature","geometry":{"type":"Point","coordinates":[120.268674,31.587671]},"properties":{"province":"江苏省","city":"无锡市","county":"梁溪区","community":"广益街道惠盛路小区","full_address":"江苏省无锡市梁溪区广益街道惠盛路小区","info":""}},{"type":"Feature","geometry":{"type":"Point","coordinates":[120.288646,31.569594]},"properties":{"province":"江苏省","city":"无锡市","county":"梁溪区","community":"惠山街道无锡医博中医肛泰医院","full_address":"江苏省无锡市梁溪区惠山街道无锡医博中医肛泰医院","info":""}},{"type":"Feature","geometry":{"type":"Point","coordinates":[120.275577,31.590156]},"properties":{"province":"江苏省","city":"无锡市","county":"梁溪区","community":"黄巷街道前盛岸","full_address":"江苏省无锡市梁溪区黄巷街道前盛岸","info":""}},{"type":"Feature","geometry":{"type":"Point","coordinates":[120.277205,31.588844]},"properties":{"province":"江苏省","city":"无锡市","county":"梁溪区","community":"黄巷街道田屠里","full_address":"江苏省无锡市梁溪区黄巷街道田屠里","info":""}},{"type":"Feature","geometry":{"type":"Point","coordinates":[120.273331,31.591808]},"properties":{"province":"江苏省","city":"无锡市","county":"梁溪区","community":"黄巷街道盛岸里","full_address":"江苏省无锡市梁溪区黄巷街道盛岸里","info":""}},{"type":"Feature","geometry":{"type":"Point","coordinates":[120.267278,31.589802]},"properties":{"province":"江苏省","city":"无锡市","county":"梁溪区","community":"惠山街道盛岸二村6-174号","full_address":"江苏省无锡市梁溪区惠山街道盛岸二村6-174号","info":""}},{"type":"Feature","geometry":{"type":"Point","coordinates":[120.260901,31.597419]},"properties":{"province":"江苏省","city":"无锡市","county":"梁溪区","community":"山北街道惠华新村","full_address":"江苏省无锡市梁溪区山北街道惠华新村","info":""}},{"type":"Feature","geometry":{"type":"Point","coordinates":[120.271657,31.593528]},"properties":{"province":"江苏省","city":"无锡市","county":"梁溪区","community":"惠山街道造船二村","full_address":"江苏省无锡市梁溪区惠山街道造船二村","info":""}},{"type":"Feature","geometry":{"type":"Point","coordinates":[120.272571,31.59277]},"properties":{"province":"江苏省","city":"无锡市","county":"梁溪区","community":"山北街道盛岸市场周边片区（东至惠峰路、南至惠钱路、西至石门路、北至盛岸路区域：阅山花园小区，惠麓苑一期，惠麓苑二期A区、B区、C区、D区，惠峰新村，二泉花园小区）及盛岸一村","full_address":"江苏省无锡市梁溪区山北街道盛岸市场周边片区（东至惠峰路、南至惠钱路、西至石门路、北至盛岸路区域：阅山花园小区，惠麓苑一期，惠麓苑二期A区、B区、C区、D区，惠峰新村，二泉花园小区）及盛岸一村","info":""}},{"type":"Feature","geometry":{"type":"Point","coordinates":[120.41495,31.513625]},"properties":{"province":"江苏省","city":"无锡市","county":"新吴区","community":"无锡威孚高科技集团股份有限公司（锡兴路30号）","full_address":"江苏省无锡市新吴区无锡威孚高科技集团股份有限公司（锡兴路30号）","info":""}},{"type":"Feature","geometry":{"type":"Point","coordinates":[120.381952,31.476162]},"properties":{"province":"江苏省","city":"无锡市","county":"新吴区","community":"新安街道新安花苑一区南区","full_address":"江苏省无锡市新吴区新安街道新安花苑一区南区","info":""}},{"type":"Feature","geometry":{"type":"Point","coordinates":[120.336503,31.569748]},"properties":{"province":"江苏省","city":"无锡市","county":"新吴区","community":"江溪街道中海海雅锦园二期","full_address":"江苏省无锡市新吴区江溪街道中海海雅锦园二期","info":""}},{"type":"Feature","geometry":{"type":"Point","coordinates":[120.351665,31.553527]},"properties":{"province":"江苏省","city":"无锡市","county":"新吴区","community":"江溪街道万科东郡","full_address":"江苏省无锡市新吴区江溪街道万科东郡","info":""}},{"type":"Feature","geometry":{"type":"Point","coordinates":[120.429818,31.538079]},"properties":{"province":"江苏省","city":"无锡市","county":"新吴区","community":"梅村街道梅荆花苑五期","full_address":"江苏省无锡市新吴区梅村街道梅荆花苑五期","info":""}},{"type":"Feature","geometry":{"type":"Point","coordinates":[120.444556,31.547699]},"properties":{"province":"江苏省","city":"无锡市","county":"新吴区","community":"梅村街道泰伯花苑二期","full_address":"江苏省无锡市新吴区梅村街道泰伯花苑二期","info":""}},{"type":"Feature","geometry":{"type":"Point","coordinates":[120.439215,31.465215]},"properties":{"province":"江苏省","city":"无锡市","county":"新吴区","community":"硕放街道香楠佳苑","full_address":"江苏省无锡市新吴区硕放街道香楠佳苑","info":""}},{"type":"Feature","geometry":{"type":"Point","coordinates":[120.381619,31.499646]},"properties":{"province":"江苏省","city":"无锡市","county":"新吴区","community":"旺庄街道无锡威孚精密机械制造有限公司","full_address":"江苏省无锡市新吴区旺庄街道无锡威孚精密机械制造有限公司","info":""}},{"type":"Feature","geometry":{"type":"Point","coordinates":[120.370768,31.546639]},"properties":{"province":"江苏省","city":"无锡市","county":"新吴区","community":"旺庄街道春潮花园二区北区","full_address":"江苏省无锡市新吴区旺庄街道春潮花园二区北区","info":""}},{"type":"Feature","geometry":{"type":"Point","coordinates":[120.418957,31.545462]},"properties":{"province":"江苏省","city":"无锡市","county":"新吴区","community":"旺庄街道联心嘉园","full_address":"江苏省无锡市新吴区旺庄街道联心嘉园","info":""}},{"type":"Feature","geometry":{"type":"Point","coordinates":[120.439381,31.474747]},"properties":{"province":"江苏省","city":"无锡市","county":"新吴区","community":"硕放街道南星苑","full_address":"江苏省无锡市新吴区硕放街道南星苑","info":""}},{"type":"Feature","geometry":{"type":"Point","coordinates":[120.368033,31.533087]},"properties":{"province":"江苏省","city":"无锡市","county":"新吴区","community":"旺庄街道长江路19号","full_address":"江苏省无锡市新吴区旺庄街道长江路19号","info":""}},{"type":"Feature","geometry":{"type":"Point","coordinates":[120.35758,31.549581]},"properties":{"province":"江苏省","city":"无锡市","county":"新吴区","community":"旺庄街道长江路长欣公寓C区","full_address":"江苏省无锡市新吴区旺庄街道长江路长欣公寓C区","info":""}},{"type":"Feature","geometry":{"type":"Point","coordinates":[120.43588,31.518367]},"properties":{"province":"江苏省","city":"无锡市","county":"新吴区","community":"梅村街道无锡联运物流顺丰快递点（梅村东环路510号）","full_address":"江苏省无锡市新吴区梅村街道无锡联运物流顺丰快递点（梅村东环路510号）","info":""}},{"type":"Feature","geometry":{"type":"Point","coordinates":[120.45812,31.471909]},"properties":{"province":"江苏省","city":"无锡市","county":"新吴区","community":"硕放街道孙安路51-1号至51-34号","full_address":"江苏省无锡市新吴区硕放街道孙安路51-1号至51-34号","info":""}},{"type":"Feature","geometry":{"type":"Point","coordinates":[120.450231,31.483809]},"properties":{"province":"江苏省","city":"无锡市","county":"新吴区","community":"硕放街道丽新社区及周边地区（北至墙宅路，东至经一路（312国道），南至长江东路，西至丽富社区东围墙-新农路-里夫泾浜-通锡高速）区","full_address":"江苏省无锡市新吴区硕放街道丽新社区及周边地区（北至墙宅路，东至经一路（312国道），南至长江东路，西至丽富社区东围墙-新农路-里夫泾浜-通锡高速）区","info":""}},{"type":"Feature","geometry":{"type":"Point","coordinates":[120.444832,31.538108]},"properties":{"province":"江苏省","city":"无锡市","county":"新吴区","community":"梅村街道梅荆花苑三社区","full_address":"江苏省无锡市新吴区梅村街道梅荆花苑三社区","info":""}},{"type":"Feature","geometry":{"type":"Point","coordinates":[120.454318,31.51175]},"properties":{"province":"江苏省","city":"无锡市","county":"新吴区","community":"锡协路128号","full_address":"江苏省无锡市新吴区锡协路128号","info":""}},{"type":"Feature","geometry":{"type":"Point","coordinates":[120.414639,31.454809]},"properties":{"province":"江苏省","city":"无锡市","county":"新吴区","community":"新安街道干城路6号","full_address":"江苏省无锡市新吴区新安街道干城路6号","info":""}},{"type":"Feature","geometry":{"type":"Point","coordinates":[120.388429,31.475949]},"properties":{"province":"江苏省","city":"无锡市","county":"新吴区","community":"新安街道新安花苑五社区C区","full_address":"江苏省无锡市新吴区新安街道新安花苑五社区C区","info":""}},{"type":"Feature","geometry":{"type":"Point","coordinates":[120.362493,31.472105]},"properties":{"province":"江苏省","city":"无锡市","county":"新吴区","community":"新安街道国信观湖湾","full_address":"江苏省无锡市新吴区新安街道国信观湖湾","info":""}},{"type":"Feature","geometry":{"type":"Point","coordinates":[120.37421,31.469439]},"properties":{"province":"江苏省","city":"无锡市","county":"新吴区","community":"新安街道裕沁湖畔庭","full_address":"江苏省无锡市新吴区新安街道裕沁湖畔庭","info":""}},{"type":"Feature","geometry":{"type":"Point","coordinates":[120.346552,31.543125]},"properties":{"province":"江苏省","city":"无锡市","county":"新吴区","community":"旺庄街道春雷嘉苑三期","full_address":"江苏省无锡市新吴区旺庄街道春雷嘉苑三期","info":""}},{"type":"Feature","geometry":{"type":"Point","coordinates":[120.397468,31.512073]},"properties":{"province":"江苏省","city":"无锡市","county":"新吴区","community":"旺庄街道科园路科技产业园93-C","full_address":"江苏省无锡市新吴区旺庄街道科园路科技产业园93-C","info":""}},{"type":"Feature","geometry":{"type":"Point","coordinates":[120.390566,31.478133]},"properties":{"province":"江苏省","city":"无锡市","county":"新吴区","community":"新安街道新安花苑三区东区","full_address":"江苏省无锡市新吴区新安街道新安花苑三区东区","info":""}},{"type":"Feature","geometry":{"type":"Point","coordinates":[120.377278,31.47604]},"properties":{"province":"江苏省","city":"无锡市","county":"新吴区","community":"新安街道具区路88号","full_address":"江苏省无锡市新吴区新安街道具区路88号","info":""}},{"type":"Feature","geometry":{"type":"Point","coordinates":[120.438169,31.523602]},"properties":{"province":"江苏省","city":"无锡市","county":"无锡高新区","community":"新锦路2号","full_address":"江苏省无锡市无锡高新区新锦路2号","info":""}},{"type":"Feature","geometry":{"type":"Point","coordinates":[117.235924,34.209137]},"properties":{"province":"江苏省","city":"徐州市","county":"云龙区","community":"大郭庄街道如意家园","full_address":"江苏省徐州市云龙区大郭庄街道如意家园","info":""}},{"type":"Feature","geometry":{"type":"Point","coordinates":[117.210324,34.200617]},"properties":{"province":"江苏省","city":"徐州市","county":"泉山区","community":"翡翠路（北至姚庄路南至欣欣路）沿街商铺","full_address":"江苏省徐州市泉山区翡翠路（北至姚庄路南至欣欣路）沿街商铺","info":""}},{"type":"Feature","geometry":{"type":"Point","coordinates":[117.222224,34.205093]},"properties":{"province":"江苏省","city":"徐州市","county":"泉山区","community":"翡翠城高端幼儿园","full_address":"江苏省徐州市泉山区翡翠城高端幼儿园","info":""}},{"type":"Feature","geometry":{"type":"Point","coordinates":[117.222224,34.205093]},"properties":{"province":"江苏省","city":"徐州市","county":"泉山区","community":"翟山街道翡翠城","full_address":"江苏省徐州市泉山区翟山街道翡翠城","info":""}},{"type":"Feature","geometry":{"type":"Point","coordinates":[117.218145,34.204532]},"properties":{"province":"江苏省","city":"徐州市","county":"泉山区","community":"翟山街道文欣花园小区","full_address":"江苏省徐州市泉山区翟山街道文欣花园小区","info":""}},{"type":"Feature","geometry":{"type":"Point","coordinates":[117.229543,34.209976]},"properties":{"province":"江苏省","city":"徐州市","county":"泉山区","community":"翟山街道滨湖御景湾","full_address":"江苏省徐州市泉山区翟山街道滨湖御景湾","info":""}},{"type":"Feature","geometry":{"type":"Point","coordinates":[117.229423,34.206256]},"properties":{"province":"江苏省","city":"徐州市","county":"泉山区","community":"翟山街道东南郡一期、三期","full_address":"江苏省徐州市泉山区翟山街道东南郡一期、三期","info":""}},{"type":"Feature","geometry":{"type":"Point","coordinates":[117.222016,34.212468]},"properties":{"province":"江苏省","city":"徐州市","county":"泉山区","community":"翟山街道花语社区花语城","full_address":"江苏省徐州市泉山区翟山街道花语社区花语城","info":""}},{"type":"Feature","geometry":{"type":"Point","coordinates":[117.274153,34.473117]},"properties":{"province":"江苏省","city":"徐州市","county":"铜山区","community":"柳泉镇铙山村5组","full_address":"江苏省徐州市铜山区柳泉镇铙山村5组","info":""}},{"type":"Feature","geometry":{"type":"Point","coordinates":[117.22089,34.189793]},"properties":{"province":"江苏省","city":"徐州市","county":"铜山区","community":"新区街道福乐园18号楼和27号楼","full_address":"江苏省徐州市铜山区新区街道福乐园18号楼和27号楼","info":""}},{"type":"Feature","geometry":{"type":"Point","coordinates":[119.116635,34.912157]},"properties":{"province":"江苏省","city":"连云港市","county":"赣榆区","community":"赣马镇东官庄村","full_address":"江苏省连云港市赣榆区赣马镇东官庄村","info":""}},{"type":"Feature","geometry":{"type":"Point","coordinates":[119.317331,34.723567]},"properties":{"province":"江苏省","city":"连云港市","county":"连云港经济技术开发区","community":"东方国际集装箱（连云港）有限公司","full_address":"江苏省连云港市连云港经济技术开发区东方国际集装箱（连云港）有限公司","info":""}},{"type":"Feature","geometry":{"type":"Point","coordinates":[117.553795,33.544229]},"properties":{"province":"安徽省","city":"宿州市","county":"灵璧县","community":"灵城镇温州商城","full_address":"安徽省宿州市灵璧县灵城镇温州商城","info":""}},{"type":"Feature","geometry":{"type":"Point","coordinates":[117.603518,33.387177]},"properties":{"province":"安徽省","city":"宿州市","county":"灵璧县","community":"韦集镇代家村","full_address":"安徽省宿州市灵璧县韦集镇代家村","info":""}},{"type":"Feature","geometry":{"type":"Point","coordinates":[117.560745,33.390333]},"properties":{"province":"安徽省","city":"宿州市","county":"灵璧县","community":"韦集镇韦集村","full_address":"安徽省宿州市灵璧县韦集镇韦集村","info":""}},{"type":"Feature","geometry":{"type":"Point","coordinates":[117.65277,33.394962]},"properties":{"province":"安徽省","city":"宿州市","county":"灵璧县","community":"韦集镇藕庄村","full_address":"安徽省宿州市灵璧县韦集镇藕庄村","info":""}},{"type":"Feature","geometry":{"type":"Point","coordinates":[117.624898,33.415437]},"properties":{"province":"安徽省","city":"宿州市","county":"灵璧县","community":"向阳镇新湖村","full_address":"安徽省宿州市灵璧县向阳镇新湖村","info":""}},{"type":"Feature","geometry":{"type":"Point","coordinates":[117.552047,33.525131]},"properties":{"province":"安徽省","city":"宿州市","county":"灵璧县","community":"灵城镇星河湾小区（南区）及附属门面","full_address":"安徽省宿州市灵璧县灵城镇星河湾小区（南区）及附属门面","info":""}},{"type":"Feature","geometry":{"type":"Point","coordinates":[117.535432,33.544393]},"properties":{"province":"安徽省","city":"宿州市","county":"灵璧县","community":"灵城镇灵璧县技工学校工地","full_address":"安徽省宿州市灵璧县灵城镇灵璧县技工学校工地","info":""}},{"type":"Feature","geometry":{"type":"Point","coordinates":[117.57755,33.370274]},"properties":{"province":"安徽省","city":"宿州市","county":"灵璧县","community":"韦集镇双圩村","full_address":"安徽省宿州市灵璧县韦集镇双圩村","info":""}},{"type":"Feature","geometry":{"type":"Point","coordinates":[117.641584,33.371755]},"properties":{"province":"安徽省","city":"宿州市","county":"灵璧县","community":"韦集镇双龙村","full_address":"安徽省宿州市灵璧县韦集镇双龙村","info":""}},{"type":"Feature","geometry":{"type":"Point","coordinates":[117.59285,33.422756]},"properties":{"province":"安徽省","city":"宿州市","county":"灵璧县","community":"向阳镇河王村","full_address":"安徽省宿州市灵璧县向阳镇河王村","info":""}},{"type":"Feature","geometry":{"type":"Point","coordinates":[117.558668,33.461581]},"properties":{"province":"安徽省","city":"宿州市","county":"灵璧县","community":"向阳镇苏圩村","full_address":"安徽省宿州市灵璧县向阳镇苏圩村","info":""}},{"type":"Feature","geometry":{"type":"Point","coordinates":[117.536897,33.539915]},"properties":{"province":"安徽省","city":"宿州市","county":"灵璧县","community":"灵城镇君临天下小区","full_address":"安徽省宿州市灵璧县灵城镇君临天下小区","info":""}},{"type":"Feature","geometry":{"type":"Point","coordinates":[117.577236,33.328747]},"properties":{"province":"安徽省","city":"宿州市","county":"灵璧县","community":"韦集镇杨马村","full_address":"安徽省宿州市灵璧县韦集镇杨马村","info":""}},{"type":"Feature","geometry":{"type":"Point","coordinates":[117.566627,33.531954]},"properties":{"province":"安徽省","city":"宿州市","county":"灵璧县","community":"灵璧经济开发区罗河社区日月星城小区（含附属门面）及莱迪购物街","full_address":"安徽省宿州市灵璧县灵璧经济开发区罗河社区日月星城小区（含附属门面）及莱迪购物街","info":""}},{"type":"Feature","geometry":{"type":"Point","coordinates":[117.604085,33.557154]},"properties":{"province":"安徽省","city":"宿州市","county":"灵璧县","community":"虞姬镇朱桥村","full_address":"安徽省宿州市灵璧县虞姬镇朱桥村","info":""}},{"type":"Feature","geometry":{"type":"Point","coordinates":[117.436319,33.596414]},"properties":{"province":"安徽省","city":"宿州市","county":"灵璧县","community":"娄庄镇汴河村","full_address":"安徽省宿州市灵璧县娄庄镇汴河村","info":""}},{"type":"Feature","geometry":{"type":"Point","coordinates":[117.888762,33.455485]},"properties":{"province":"安徽省","city":"宿州市","county":"泗县","community":"运河街道汴河国际（南区、北区）","full_address":"安徽省宿州市泗县运河街道汴河国际（南区、北区）","info":""}},{"type":"Feature","geometry":{"type":"Point","coordinates":[117.887746,33.460141]},"properties":{"province":"安徽省","city":"宿州市","county":"泗县","community":"运河街道南都贵苑","full_address":"安徽省宿州市泗县运河街道南都贵苑","info":""}},{"type":"Feature","geometry":{"type":"Point","coordinates":[117.889839,33.468152]},"properties":{"province":"安徽省","city":"宿州市","county":"泗县","community":"运河街道泗水文苑","full_address":"安徽省宿州市泗县运河街道泗水文苑","info":""}},{"type":"Feature","geometry":{"type":"Point","coordinates":[117.907811,33.473944]},"properties":{"province":"安徽省","city":"宿州市","county":"泗县","community":"运河街道玉兰公馆","full_address":"安徽省宿州市泗县运河街道玉兰公馆","info":""}},{"type":"Feature","geometry":{"type":"Point","coordinates":[117.886137,33.468969]},"properties":{"province":"安徽省","city":"宿州市","county":"泗县","community":"运河街道百合花园小区","full_address":"安徽省宿州市泗县运河街道百合花园小区","info":""}},{"type":"Feature","geometry":{"type":"Point","coordinates":[117.899467,33.469447]},"properties":{"province":"安徽省","city":"宿州市","county":"泗县","community":"运河街道阜康联邦花园","full_address":"安徽省宿州市泗县运河街道阜康联邦花园","info":""}},{"type":"Feature","geometry":{"type":"Point","coordinates":[117.888924,33.471344]},"properties":{"province":"安徽省","city":"宿州市","county":"泗县","community":"运河街道富贵苑","full_address":"安徽省宿州市泗县运河街道富贵苑","info":""}},{"type":"Feature","geometry":{"type":"Point","coordinates":[117.882936,33.478012]},"properties":{"province":"安徽省","city":"宿州市","county":"泗县","community":"运河街道南柳小区","full_address":"安徽省宿州市泗县运河街道南柳小区","info":""}},{"type":"Feature","geometry":{"type":"Point","coordinates":[117.884997,33.474398]},"properties":{"province":"安徽省","city":"宿州市","county":"泗县","community":"运河街道丝绸厂北楼","full_address":"安徽省宿州市泗县运河街道丝绸厂北楼","info":""}},{"type":"Feature","geometry":{"type":"Point","coordinates":[117.902648,33.488784]},"properties":{"province":"安徽省","city":"宿州市","county":"泗县","community":"泗水街道康庄家园","full_address":"安徽省宿州市泗县泗水街道康庄家园","info":""}},{"type":"Feature","geometry":{"type":"Point","coordinates":[117.896,33.4958]},"properties":{"province":"安徽省","city":"宿州市","county":"泗县","community":"虹城街道城市之光东区","full_address":"安徽省宿州市泗县虹城街道城市之光东区","info":""}},{"type":"Feature","geometry":{"type":"Point","coordinates":[117.899416,33.486232]},"properties":{"province":"安徽省","city":"宿州市","county":"泗县","community":"虹城街道凤凰城（南区、北区）","full_address":"安徽省宿州市泗县虹城街道凤凰城（南区、北区）","info":""}},{"type":"Feature","geometry":{"type":"Point","coordinates":[117.899174,33.492921]},"properties":{"province":"安徽省","city":"宿州市","county":"泗县","community":"虹城街道虹乡家园","full_address":"安徽省宿州市泗县虹城街道虹乡家园","info":""}},{"type":"Feature","geometry":{"type":"Point","coordinates":[117.893358,33.475977]},"properties":{"province":"安徽省","city":"宿州市","county":"泗县","community":"虹城街道桃花源小区","full_address":"安徽省宿州市泗县虹城街道桃花源小区","info":""}},{"type":"Feature","geometry":{"type":"Point","coordinates":[117.888306,33.434049]},"properties":{"province":"安徽省","city":"宿州市","county":"泗县","community":"大路口镇大季村","full_address":"安徽省宿州市泗县大路口镇大季村","info":""}},{"type":"Feature","geometry":{"type":"Point","coordinates":[117.894231,33.384838]},"properties":{"province":"安徽省","city":"宿州市","county":"泗县","community":"大路口镇渔民上岸小区","full_address":"安徽省宿州市泗县大路口镇渔民上岸小区","info":""}},{"type":"Feature","geometry":{"type":"Point","coordinates":[117.757597,33.456083]},"properties":{"province":"安徽省","city":"宿州市","county":"泗县","community":"草沟镇大张村","full_address":"安徽省宿州市泗县草沟镇大张村","info":""}},{"type":"Feature","geometry":{"type":"Point","coordinates":[117.722861,33.368532]},"properties":{"province":"安徽省","city":"宿州市","county":"泗县","community":"草沟镇草沟村","full_address":"安徽省宿州市泗县草沟镇草沟村","info":""}},{"type":"Feature","geometry":{"type":"Point","coordinates":[117.686526,33.414401]},"properties":{"province":"安徽省","city":"宿州市","county":"泗县","community":"草沟镇孙巷村","full_address":"安徽省宿州市泗县草沟镇孙巷村","info":""}},{"type":"Feature","geometry":{"type":"Point","coordinates":[117.729141,33.338031]},"properties":{"province":"安徽省","city":"宿州市","county":"泗县","community":"草沟镇街南村","full_address":"安徽省宿州市泗县草沟镇街南村","info":""}},{"type":"Feature","geometry":{"type":"Point","coordinates":[117.678981,33.345822]},"properties":{"province":"安徽省","city":"宿州市","county":"泗县","community":"草沟镇大梁村","full_address":"安徽省宿州市泗县草沟镇大梁村","info":""}},{"type":"Feature","geometry":{"type":"Point","coordinates":[117.810034,33.442571]},"properties":{"province":"安徽省","city":"宿州市","county":"泗县","community":"丁湖镇春韩村","full_address":"安徽省宿州市泗县丁湖镇春韩村","info":""}},{"type":"Feature","geometry":{"type":"Point","coordinates":[117.869055,33.616163]},"properties":{"province":"安徽省","city":"宿州市","county":"泗县","community":"屏山镇大李村","full_address":"安徽省宿州市泗县屏山镇大李村","info":""}},{"type":"Feature","geometry":{"type":"Point","coordinates":[117.886957,33.459575]},"properties":{"province":"安徽省","city":"宿州市","county":"泗县","community":"运河街道高尤社区","full_address":"安徽省宿州市泗县运河街道高尤社区","info":""}},{"type":"Feature","geometry":{"type":"Point","coordinates":[117.884717,33.471462]},"properties":{"province":"安徽省","city":"宿州市","county":"泗县","community":"运河街道南关社区","full_address":"安徽省宿州市泗县运河街道南关社区","info":""}},{"type":"Feature","geometry":{"type":"Point","coordinates":[117.901278,33.46706]},"properties":{"province":"安徽省","city":"宿州市","county":"泗县","community":"运河街道衡尤社区","full_address":"安徽省宿州市泗县运河街道衡尤社区","info":""}},{"type":"Feature","geometry":{"type":"Point","coordinates":[117.868319,33.474552]},"properties":{"province":"安徽省","city":"宿州市","county":"泗县","community":"运河街道春暖花开","full_address":"安徽省宿州市泗县运河街道春暖花开","info":""}},{"type":"Feature","geometry":{"type":"Point","coordinates":[117.905829,33.484083]},"properties":{"province":"安徽省","city":"宿州市","county":"泗县","community":"运河街道东城虹郡","full_address":"安徽省宿州市泗县运河街道东城虹郡","info":""}},{"type":"Feature","geometry":{"type":"Point","coordinates":[117.911129,33.478705]},"properties":{"province":"安徽省","city":"宿州市","county":"泗县","community":"运河街道东城美郡","full_address":"安徽省宿州市泗县运河街道东城美郡","info":""}},{"type":"Feature","geometry":{"type":"Point","coordinates":[117.872596,33.480196]},"properties":{"province":"安徽省","city":"宿州市","county":"泗县","community":"运河街道清水湾景苑小区","full_address":"安徽省宿州市泗县运河街道清水湾景苑小区","info":""}},{"type":"Feature","geometry":{"type":"Point","coordinates":[117.909347,33.456131]},"properties":{"province":"安徽省","city":"宿州市","county":"泗县","community":"运河街道赵魏社区孙湾庄","full_address":"安徽省宿州市泗县运河街道赵魏社区孙湾庄","info":""}},{"type":"Feature","geometry":{"type":"Point","coordinates":[117.896,33.4958]},"properties":{"province":"安徽省","city":"宿州市","county":"泗县","community":"虹城街道城市之光中区","full_address":"安徽省宿州市泗县虹城街道城市之光中区","info":""}},{"type":"Feature","geometry":{"type":"Point","coordinates":[117.910629,33.482982]},"properties":{"province":"安徽省","city":"宿州市","county":"泗县","community":"虹城街道城市花园","full_address":"安徽省宿州市泗县虹城街道城市花园","info":""}},{"type":"Feature","geometry":{"type":"Point","coordinates":[117.878713,33.490324]},"properties":{"province":"安徽省","city":"宿州市","county":"泗县","community":"虹城街道尚品公馆","full_address":"安徽省宿州市泗县虹城街道尚品公馆","info":""}},{"type":"Feature","geometry":{"type":"Point","coordinates":[117.871875,33.466564]},"properties":{"province":"安徽省","city":"宿州市","county":"泗县","community":"泗城镇西城丽苑","full_address":"安徽省宿州市泗县泗城镇西城丽苑","info":""}},{"type":"Feature","geometry":{"type":"Point","coordinates":[117.773354,33.488617]},"properties":{"province":"安徽省","city":"宿州市","county":"泗县","community":"泗城镇大吴村","full_address":"安徽省宿州市泗县泗城镇大吴村","info":""}},{"type":"Feature","geometry":{"type":"Point","coordinates":[117.87725,33.423571]},"properties":{"province":"安徽省","city":"宿州市","county":"泗县","community":"大路口镇西李村","full_address":"安徽省宿州市泗县大路口镇西李村","info":""}},{"type":"Feature","geometry":{"type":"Point","coordinates":[117.945152,33.429224]},"properties":{"province":"安徽省","city":"宿州市","county":"泗县","community":"墩集镇石梁河村","full_address":"安徽省宿州市泗县墩集镇石梁河村","info":""}},{"type":"Feature","geometry":{"type":"Point","coordinates":[118.059792,33.5703]},"properties":{"province":"安徽省","city":"宿州市","county":"泗县","community":"黑塔镇韩徐村","full_address":"安徽省宿州市泗县黑塔镇韩徐村","info":""}},{"type":"Feature","geometry":{"type":"Point","coordinates":[117.684807,33.519566]},"properties":{"province":"安徽省","city":"宿州市","county":"泗县","community":"长沟镇汴河村","full_address":"安徽省宿州市泗县长沟镇汴河村","info":""}},{"type":"Feature","geometry":{"type":"Point","coordinates":[117.733049,33.503354]},"properties":{"province":"安徽省","city":"宿州市","county":"泗县","community":"长沟镇洋城湖村","full_address":"安徽省宿州市泗县长沟镇洋城湖村","info":""}},{"type":"Feature","geometry":{"type":"Point","coordinates":[117.740717,33.392705]},"properties":{"province":"安徽省","city":"宿州市","county":"泗县","community":"草沟镇于韩村","full_address":"安徽省宿州市泗县草沟镇于韩村","info":""}},{"type":"Feature","geometry":{"type":"Point","coordinates":[117.868596,33.478047]},"properties":{"province":"安徽省","city":"宿州市","county":"泗县","community":"运河街道荣辉国际小区","full_address":"安徽省宿州市泗县运河街道荣辉国际小区","info":""}},{"type":"Feature","geometry":{"type":"Point","coordinates":[117.921992,33.41307]},"properties":{"province":"安徽省","city":"宿州市","county":"泗县","community":"大路口镇河平村","full_address":"安徽省宿州市泗县大路口镇河平村","info":""}},{"type":"Feature","geometry":{"type":"Point","coordinates":[117.866013,33.379207]},"properties":{"province":"安徽省","city":"宿州市","county":"泗县","community":"大路口镇龙沟村","full_address":"安徽省宿州市泗县大路口镇龙沟村","info":""}},{"type":"Feature","geometry":{"type":"Point","coordinates":[117.746294,33.366217]},"properties":{"province":"安徽省","city":"宿州市","county":"泗县","community":"草沟镇桥东村","full_address":"安徽省宿州市泗县草沟镇桥东村","info":""}},{"type":"Feature","geometry":{"type":"Point","coordinates":[117.712502,33.46524]},"properties":{"province":"安徽省","city":"宿州市","county":"泗县","community":"草沟镇夏庙村","full_address":"安徽省宿州市泗县草沟镇夏庙村","info":""}},{"type":"Feature","geometry":{"type":"Point","coordinates":[117.70209,33.30906]},"properties":{"province":"安徽省","city":"宿州市","county":"泗县","community":"草沟镇李圩村","full_address":"安徽省宿州市泗县草沟镇李圩村","info":""}},{"type":"Feature","geometry":{"type":"Point","coordinates":[117.828246,33.32272]},"properties":{"province":"安徽省","city":"宿州市","county":"泗县","community":"丁湖镇汤湖村","full_address":"安徽省宿州市泗县丁湖镇汤湖村","info":""}},{"type":"Feature","geometry":{"type":"Point","coordinates":[117.782121,33.695278]},"properties":{"province":"安徽省","city":"宿州市","county":"泗县","community":"黄圩镇三侯村","full_address":"安徽省宿州市泗县黄圩镇三侯村","info":""}},{"type":"Feature","geometry":{"type":"Point","coordinates":[117.908351,33.486207]},"properties":{"province":"安徽省","city":"宿州市","county":"泗县","community":"运河街道东城英郡小区","full_address":"安徽省宿州市泗县运河街道东城英郡小区","info":""}},{"type":"Feature","geometry":{"type":"Point","coordinates":[117.903127,33.478116]},"properties":{"province":"安徽省","city":"宿州市","county":"泗县","community":"运河街道家和花园小区","full_address":"安徽省宿州市泗县运河街道家和花园小区","info":""}},{"type":"Feature","geometry":{"type":"Point","coordinates":[117.926388,33.479511]},"properties":{"province":"安徽省","city":"宿州市","county":"泗县","community":"泗水街道东城丽苑","full_address":"安徽省宿州市泗县泗水街道东城丽苑","info":""}},{"type":"Feature","geometry":{"type":"Point","coordinates":[117.882936,33.478012]},"properties":{"province":"安徽省","city":"宿州市","county":"泗县","community":"虹城街道紫宸苑","full_address":"安徽省宿州市泗县虹城街道紫宸苑","info":""}},{"type":"Feature","geometry":{"type":"Point","coordinates":[117.904879,33.712988]},"properties":{"province":"安徽省","city":"宿州市","county":"泗县","community":"大庄镇东风村","full_address":"安徽省宿州市泗县大庄镇东风村","info":""}},{"type":"Feature","geometry":{"type":"Point","coordinates":[117.991741,33.529019]},"properties":{"province":"安徽省","city":"宿州市","county":"泗县","community":"黑塔镇三葛村","full_address":"安徽省宿州市泗县黑塔镇三葛村","info":""}},{"type":"Feature","geometry":{"type":"Point","coordinates":[117.794129,33.625625]},"properties":{"province":"安徽省","city":"宿州市","county":"泗县","community":"大杨镇大杨镇卫生院","full_address":"安徽省宿州市泗县大杨镇大杨镇卫生院","info":""}},{"type":"Feature","geometry":{"type":"Point","coordinates":[117.889846,33.476417]},"properties":{"province":"安徽省","city":"宿州市","county":"泗县","community":"运河街道学士苑小区","full_address":"安徽省宿州市泗县运河街道学士苑小区","info":""}},{"type":"Feature","geometry":{"type":"Point","coordinates":[117.888048,33.476138]},"properties":{"province":"安徽省","city":"宿州市","county":"泗县","community":"运河街道南一环、人民路、老工业大棚、铁市街西合围区域","full_address":"安徽省宿州市泗县运河街道南一环、人民路、老工业大棚、铁市街西合围区域","info":""}},{"type":"Feature","geometry":{"type":"Point","coordinates":[117.896,33.4958]},"properties":{"province":"安徽省","city":"宿州市","county":"泗县","community":"虹城街道城市之光西区","full_address":"安徽省宿州市泗县虹城街道城市之光西区","info":""}},{"type":"Feature","geometry":{"type":"Point","coordinates":[117.863205,33.465693]},"properties":{"province":"安徽省","city":"宿州市","county":"泗县","community":"泗城镇三湾社区工业园凤还巢工业区","full_address":"安徽省宿州市泗县泗城镇三湾社区工业园凤还巢工业区","info":""}},{"type":"Feature","geometry":{"type":"Point","coordinates":[117.604323,24.631076]},"properties":{"province":"福建省","city":"漳州市","county":"芗城区","community":"浦南镇布坑村龙前社26-1号4幢","full_address":"福建省漳州市芗城区浦南镇布坑村龙前社26-1号4幢","info":""}},{"type":"Feature","geometry":{"type":"Point","coordinates":[117.607902,24.626923]},"properties":{"province":"福建省","city":"漳州市","county":"芗城区","community":"浦南镇布坑新村","full_address":"福建省漳州市芗城区浦南镇布坑新村","info":""}},{"type":"Feature","geometry":{"type":"Point","coordinates":[119.98723,26.884043]},"properties":{"province":"福建省","city":"宁德市","county":"霞浦县","community":"松城街道富荣弄196号","full_address":"福建省宁德市霞浦县松城街道富荣弄196号","info":""}},{"type":"Feature","geometry":{"type":"Point","coordinates":[120.000335,26.880099]},"properties":{"province":"福建省","city":"宁德市","county":"霞浦县","community":"东至松城街道永福弄348号，北至松城街道永福弄89号，西至松城街道茶厂路，南至松城街道茶厂路40号整个区域","full_address":"福建省宁德市霞浦县东至松城街道永福弄348号，北至松城街道永福弄89号，西至松城街道茶厂路，南至松城街道茶厂路40号整个区域","info":""}},{"type":"Feature","geometry":{"type":"Point","coordinates":[120.003855,26.876978]},"properties":{"province":"福建省","city":"宁德市","county":"霞浦县","community":"松城街道山河路96号","full_address":"福建省宁德市霞浦县松城街道山河路96号","info":""}},{"type":"Feature","geometry":{"type":"Point","coordinates":[120.004854,26.878762]},"properties":{"province":"福建省","city":"宁德市","county":"霞浦县","community":"松城街道龙首花园楼下盐田泡冰店","full_address":"福建省宁德市霞浦县松城街道龙首花园楼下盐田泡冰店","info":""}},{"type":"Feature","geometry":{"type":"Point","coordinates":[120.01309,26.885845]},"properties":{"province":"福建省","city":"宁德市","county":"霞浦县","community":"松港街道百丽花园12栋店面","full_address":"福建省宁德市霞浦县松港街道百丽花园12栋店面","info":""}},{"type":"Feature","geometry":{"type":"Point","coordinates":[120.010658,26.880858]},"properties":{"province":"福建省","city":"宁德市","county":"霞浦县","community":"松城街道燕窝里172号周边两排","full_address":"福建省宁德市霞浦县松城街道燕窝里172号周边两排","info":""}},{"type":"Feature","geometry":{"type":"Point","coordinates":[120.110444,26.772874]},"properties":{"province":"福建省","city":"宁德市","county":"霞浦县","community":"长春镇渔家地村（主村）","full_address":"福建省宁德市霞浦县长春镇渔家地村（主村）","info":""}},{"type":"Feature","geometry":{"type":"Point","coordinates":[120.028426,26.908484]},"properties":{"province":"福建省","city":"宁德市","county":"霞浦县","community":"松港街道金顶国际3号楼","full_address":"福建省宁德市霞浦县松港街道金顶国际3号楼","info":""}},{"type":"Feature","geometry":{"type":"Point","coordinates":[119.984562,26.865271]},"properties":{"province":"福建省","city":"宁德市","county":"霞浦县","community":"松城街道玉旺新村后四排","full_address":"福建省宁德市霞浦县松城街道玉旺新村后四排","info":""}},{"type":"Feature","geometry":{"type":"Point","coordinates":[120.012611,26.879709]},"properties":{"province":"福建省","city":"宁德市","county":"霞浦县","community":"松城街道家缘小区1号楼","full_address":"福建省宁德市霞浦县松城街道家缘小区1号楼","info":""}},{"type":"Feature","geometry":{"type":"Point","coordinates":[120.00825,26.88171]},"properties":{"province":"福建省","city":"宁德市","county":"霞浦县","community":"松城街道康辉花园2号楼","full_address":"福建省宁德市霞浦县松城街道康辉花园2号楼","info":""}},{"type":"Feature","geometry":{"type":"Point","coordinates":[119.996745,26.717584]},"properties":{"province":"福建省","city":"宁德市","county":"霞浦县","community":"长春镇文岐村主村","full_address":"福建省宁德市霞浦县长春镇文岐村主村","info":""}},{"type":"Feature","geometry":{"type":"Point","coordinates":[120.028253,26.908124]},"properties":{"province":"福建省","city":"宁德市","county":"霞浦县","community":"松港街道金顶国际一期1#、2#、5#","full_address":"福建省宁德市霞浦县松港街道金顶国际一期1#、2#、5#","info":""}},{"type":"Feature","geometry":{"type":"Point","coordinates":[120.021035,26.895487]},"properties":{"province":"福建省","city":"宁德市","county":"霞浦县","community":"松港街道东关永康路9号","full_address":"福建省宁德市霞浦县松港街道东关永康路9号","info":""}},{"type":"Feature","geometry":{"type":"Point","coordinates":[120.023167,26.887934]},"properties":{"province":"福建省","city":"宁德市","county":"霞浦县","community":"松港街道阳光城6号楼","full_address":"福建省宁德市霞浦县松港街道阳光城6号楼","info":""}},{"type":"Feature","geometry":{"type":"Point","coordinates":[120.016174,26.885216]},"properties":{"province":"福建省","city":"宁德市","county":"霞浦县","community":"松港街道金山花园19号楼","full_address":"福建省宁德市霞浦县松港街道金山花园19号楼","info":""}},{"type":"Feature","geometry":{"type":"Point","coordinates":[120.02722,26.890473]},"properties":{"province":"福建省","city":"宁德市","county":"霞浦县","community":"松港街道东阳社区东泰华府二期盐田湾海鲜楼店铺","full_address":"福建省宁德市霞浦县松港街道东阳社区东泰华府二期盐田湾海鲜楼店铺","info":""}},{"type":"Feature","geometry":{"type":"Point","coordinates":[120.043048,26.892402]},"properties":{"province":"福建省","city":"宁德市","county":"霞浦县","community":"松港街道后港村育英街103号","full_address":"福建省宁德市霞浦县松港街道后港村育英街103号","info":""}},{"type":"Feature","geometry":{"type":"Point","coordinates":[120.010439,26.887582]},"properties":{"province":"福建省","city":"宁德市","county":"霞浦县","community":"松城街道东吾华庭1号楼、3号楼","full_address":"福建省宁德市霞浦县松城街道东吾华庭1号楼、3号楼","info":""}},{"type":"Feature","geometry":{"type":"Point","coordinates":[120.005554,26.8817]},"properties":{"province":"福建省","city":"宁德市","county":"霞浦县","community":"松城街道天安花苑26号","full_address":"福建省宁德市霞浦县松城街道天安花苑26号","info":""}},{"type":"Feature","geometry":{"type":"Point","coordinates":[120.009187,26.880433]},"properties":{"province":"福建省","city":"宁德市","county":"霞浦县","community":"松城街道东园新村23号","full_address":"福建省宁德市霞浦县松城街道东园新村23号","info":""}},{"type":"Feature","geometry":{"type":"Point","coordinates":[119.973894,26.873964]},"properties":{"province":"福建省","city":"宁德市","county":"霞浦县","community":"松城街道七宝洋新村","full_address":"福建省宁德市霞浦县松城街道七宝洋新村","info":""}},{"type":"Feature","geometry":{"type":"Point","coordinates":[120.003198,26.883605]},"properties":{"province":"福建省","city":"宁德市","county":"霞浦县","community":"松城街道中乘社区中兴商场","full_address":"福建省宁德市霞浦县松城街道中乘社区中兴商场","info":""}},{"type":"Feature","geometry":{"type":"Point","coordinates":[120.005643,26.885204]},"properties":{"province":"福建省","city":"宁德市","county":"霞浦县","community":"松山街道红星美凯龙商场","full_address":"福建省宁德市霞浦县松山街道红星美凯龙商场","info":""}},{"type":"Feature","geometry":{"type":"Point","coordinates":[119.857975,26.777514]},"properties":{"province":"福建省","city":"宁德市","county":"霞浦县","community":"沙江镇坡头村渔民沃自然村","full_address":"福建省宁德市霞浦县沙江镇坡头村渔民沃自然村","info":""}},{"type":"Feature","geometry":{"type":"Point","coordinates":[120.009353,26.886321]},"properties":{"province":"福建省","city":"宁德市","county":"霞浦县","community":"松城街道气象弄45号","full_address":"福建省宁德市霞浦县松城街道气象弄45号","info":""}},{"type":"Feature","geometry":{"type":"Point","coordinates":[119.998381,26.885885]},"properties":{"province":"福建省","city":"宁德市","county":"霞浦县","community":"松城街道土产新村","full_address":"福建省宁德市霞浦县松城街道土产新村","info":""}},{"type":"Feature","geometry":{"type":"Point","coordinates":[119.99669,26.88174]},"properties":{"province":"福建省","city":"宁德市","county":"霞浦县","community":"松城街道松新街东至松新街路口、南至旧盐务局、西至西关社区交界处、北至省道201","full_address":"福建省宁德市霞浦县松城街道松新街东至松新街路口、南至旧盐务局、西至西关社区交界处、北至省道201","info":""}},{"type":"Feature","geometry":{"type":"Point","coordinates":[120.006779,26.877185]},"properties":{"province":"福建省","city":"宁德市","county":"霞浦县","community":"松城街道长溪兰庭2号楼","full_address":"福建省宁德市霞浦县松城街道长溪兰庭2号楼","info":""}},{"type":"Feature","geometry":{"type":"Point","coordinates":[120.01792,26.883893]},"properties":{"province":"福建省","city":"宁德市","county":"霞浦县","community":"松港街道好旺佳蒸的很爱你海鲜楼","full_address":"福建省宁德市霞浦县松港街道好旺佳蒸的很爱你海鲜楼","info":""}},{"type":"Feature","geometry":{"type":"Point","coordinates":[120.024701,26.886565]},"properties":{"province":"福建省","city":"宁德市","county":"霞浦县","community":"松港街道中茵蔚蓝国际5号楼","full_address":"福建省宁德市霞浦县松港街道中茵蔚蓝国际5号楼","info":""}},{"type":"Feature","geometry":{"type":"Point","coordinates":[120.027484,26.895089]},"properties":{"province":"福建省","city":"宁德市","county":"霞浦县","community":"松港街道街道富地中央城小区","full_address":"福建省宁德市霞浦县松港街道街道富地中央城小区","info":""}},{"type":"Feature","geometry":{"type":"Point","coordinates":[120.020173,26.899851]},"properties":{"province":"福建省","city":"宁德市","county":"霞浦县","community":"松港街道桥头村下塘弄1-5","full_address":"福建省宁德市霞浦县松港街道桥头村下塘弄1-5","info":""}},{"type":"Feature","geometry":{"type":"Point","coordinates":[120.002294,26.884986]},"properties":{"province":"福建省","city":"宁德市","county":"霞浦县","community":"松港街道后港村中心街二弄75号","full_address":"福建省宁德市霞浦县松港街道后港村中心街二弄75号","info":""}},{"type":"Feature","geometry":{"type":"Point","coordinates":[120.043048,26.892402]},"properties":{"province":"福建省","city":"宁德市","county":"霞浦县","community":"松港街道后港村佛塔街17号","full_address":"福建省宁德市霞浦县松港街道后港村佛塔街17号","info":""}},{"type":"Feature","geometry":{"type":"Point","coordinates":[120.038826,26.882808]},"properties":{"province":"福建省","city":"宁德市","county":"霞浦县","community":"松港街道利埕村5号、5-1号、5-2号、7号、9号、11号","full_address":"福建省宁德市霞浦县松港街道利埕村5号、5-1号、5-2号、7号、9号、11号","info":""}},{"type":"Feature","geometry":{"type":"Point","coordinates":[120.006353,26.882759]},"properties":{"province":"福建省","city":"宁德市","county":"霞浦县","community":"松城街道集贤社区南门外93-103、129-157范围内单号门牌楼房","full_address":"福建省宁德市霞浦县松城街道集贤社区南门外93-103、129-157范围内单号门牌楼房","info":""}},{"type":"Feature","geometry":{"type":"Point","coordinates":[120.004717,26.87781]},"properties":{"province":"福建省","city":"宁德市","county":"霞浦县","community":"松城街道俊贤社区龙首路13、15、17、19号及花园新村259、260、261号","full_address":"福建省宁德市霞浦县松城街道俊贤社区龙首路13、15、17、19号及花园新村259、260、261号","info":""}},{"type":"Feature","geometry":{"type":"Point","coordinates":[120.001378,26.881506]},"properties":{"province":"福建省","city":"宁德市","county":"霞浦县","community":"松城街道中乘社区花桥弄40、47号周边区域（北至河沿路、东至中心弄、南至文化广场北侧、西至花桥弄1－35号）","full_address":"福建省宁德市霞浦县松城街道中乘社区花桥弄40、47号周边区域（北至河沿路、东至中心弄、南至文化广场北侧、西至花桥弄1－35号）","info":""}},{"type":"Feature","geometry":{"type":"Point","coordinates":[119.992575,26.884382]},"properties":{"province":"福建省","city":"宁德市","county":"霞浦县","community":"松城街道龙津社区高罗洲39、40、42、42-1、42-2、43、46号","full_address":"福建省宁德市霞浦县松城街道龙津社区高罗洲39、40、42、42-1、42-2、43、46号","info":""}},{"type":"Feature","geometry":{"type":"Point","coordinates":[120.003944,26.880313]},"properties":{"province":"福建省","city":"宁德市","county":"霞浦县","community":"松城街道中乘社区育才新村5-11及33-38号","full_address":"福建省宁德市霞浦县松城街道中乘社区育才新村5-11及33-38号","info":""}},{"type":"Feature","geometry":{"type":"Point","coordinates":[120.005243,26.886795]},"properties":{"province":"福建省","city":"宁德市","county":"霞浦县","community":"松城街道万贤社区察院弄40号及周边（察院弄32、33、35-40、40-1、41、61-63号）","full_address":"福建省宁德市霞浦县松城街道万贤社区察院弄40号及周边（察院弄32、33、35-40、40-1、41、61-63号）","info":""}},{"type":"Feature","geometry":{"type":"Point","coordinates":[120.007112,26.877975]},"properties":{"province":"福建省","city":"宁德市","county":"霞浦县","community":"松城街道兴贤社区南洋新村南区156号及周边（东至南洋新村南区139-148号，西至南洋新村南区190-197号，南至南洋新村南区139-190号，北至南洋新村南区148-197号）","full_address":"福建省宁德市霞浦县松城街道兴贤社区南洋新村南区156号及周边（东至南洋新村南区139-148号，西至南洋新村南区190-197号，南至南洋新村南区139-190号，北至南洋新村南区148-197号）","info":""}},{"type":"Feature","geometry":{"type":"Point","coordinates":[120.016336,26.894356]},"properties":{"province":"福建省","city":"宁德市","county":"霞浦县","community":"松港街道东关平安路106号及周边（平安路29-56、96-116、160-173号）","full_address":"福建省宁德市霞浦县松港街道东关平安路106号及周边（平安路29-56、96-116、160-173号）","info":""}},{"type":"Feature","geometry":{"type":"Point","coordinates":[120.085749,26.887649]},"properties":{"province":"福建省","city":"宁德市","county":"霞浦县","community":"松港街道后岐村11-1号及周边（后岐村7、7-1、10、11、11-1、11-2、11-3、13、13-1号）","full_address":"福建省宁德市霞浦县松港街道后岐村11-1号及周边（后岐村7、7-1、10、11、11-1、11-2、11-3、13、13-1号）","info":""}},{"type":"Feature","geometry":{"type":"Point","coordinates":[120.018758,26.897246]},"properties":{"province":"福建省","city":"宁德市","county":"霞浦县","community":"松港街道东关村龙泉新村162号及周边（龙泉新村145-163、208号）","full_address":"福建省宁德市霞浦县松港街道东关村龙泉新村162号及周边（龙泉新村145-163、208号）","info":""}},{"type":"Feature","geometry":{"type":"Point","coordinates":[115.899262,28.685085]},"properties":{"province":"江西省","city":"南昌市","county":"东湖区","community":"PERRYS酒吧","full_address":"江西省南昌市东湖区PERRYS酒吧","info":""}},{"type":"Feature","geometry":{"type":"Point","coordinates":[115.885431,28.682887]},"properties":{"province":"江西省","city":"南昌市","county":"东湖区","community":"汉庭酒店（中山路店）","full_address":"江西省南昌市东湖区汉庭酒店（中山路店）","info":""}},{"type":"Feature","geometry":{"type":"Point","coordinates":[115.887519,28.668727]},"properties":{"province":"江西省","city":"南昌市","county":"东湖区","community":"赐福路和谐小区13号楼","full_address":"江西省南昌市东湖区赐福路和谐小区13号楼","info":""}},{"type":"Feature","geometry":{"type":"Point","coordinates":[115.886462,28.677536]},"properties":{"province":"江西省","city":"南昌市","county":"东湖区","community":"方糖量贩式KTV(民德路）","full_address":"江西省南昌市东湖区方糖量贩式KTV(民德路）","info":""}},{"type":"Feature","geometry":{"type":"Point","coordinates":[115.931651,28.682835]},"properties":{"province":"江西省","city":"南昌市","county":"青山湖区","community":"塘山镇南京东路99号青山湖-天湾小区","full_address":"江西省南昌市青山湖区塘山镇南京东路99号青山湖-天湾小区","info":""}},{"type":"Feature","geometry":{"type":"Point","coordinates":[116.014086,28.668463]},"properties":{"province":"江西省","city":"南昌市","county":"高新区","community":"昌东镇黄家村罗伊尔小区27栋1单元、2单元、3单元","full_address":"江西省南昌市高新区昌东镇黄家村罗伊尔小区27栋1单元、2单元、3单元","info":""}},{"type":"Feature","geometry":{"type":"Point","coordinates":[120.183127,35.973247]},"properties":{"province":"山东省","city":"青岛市","county":"黄岛区","community":"太行山一支路6号绿岛印象欣苑小区","full_address":"山东省青岛市黄岛区太行山一支路6号绿岛印象欣苑小区","info":""}},{"type":"Feature","geometry":{"type":"Point","coordinates":[120.184791,35.982925]},"properties":{"province":"山东省","city":"青岛市","county":"黄岛区","community":"青岛保税港区东京路49号（A）","full_address":"山东省青岛市黄岛区青岛保税港区东京路49号（A）","info":""}},{"type":"Feature","geometry":{"type":"Point","coordinates":[118.26083,35.148546]},"properties":{"province":"山东省","city":"临沂市","county":"兰山区","community":"义堂镇小邬埠湖村","full_address":"山东省临沂市兰山区义堂镇小邬埠湖村","info":""}},{"type":"Feature","geometry":{"type":"Point","coordinates":[118.26083,35.148546]},"properties":{"province":"山东省","city":"临沂市","county":"兰山区","community":"义堂镇大邬埠湖村","full_address":"山东省临沂市兰山区义堂镇大邬埠湖村","info":""}},{"type":"Feature","geometry":{"type":"Point","coordinates":[118.232707,35.136019]},"properties":{"province":"山东省","city":"临沂市","county":"兰山区","community":"义堂镇堰东村中央大街以东区域","full_address":"山东省临沂市兰山区义堂镇堰东村中央大街以东区域","info":""}},{"type":"Feature","geometry":{"type":"Point","coordinates":[118.305284,35.055025]},"properties":{"province":"山东省","city":"临沂市","county":"兰山区","community":"银雀山街道阳光新城小区","full_address":"山东省临沂市兰山区银雀山街道阳光新城小区","info":""}},{"type":"Feature","geometry":{"type":"Point","coordinates":[118.274177,35.078817]},"properties":{"province":"山东省","city":"临沂市","county":"兰山区","community":"兰山街道北道小区","full_address":"山东省临沂市兰山区兰山街道北道小区","info":""}},{"type":"Feature","geometry":{"type":"Point","coordinates":[118.254438,35.116805]},"properties":{"province":"山东省","city":"临沂市","county":"兰山区","community":"兰山街道刘家朱许村","full_address":"山东省临沂市兰山区兰山街道刘家朱许村","info":""}},{"type":"Feature","geometry":{"type":"Point","coordinates":[118.259809,35.126832]},"properties":{"province":"山东省","city":"临沂市","county":"兰山区","community":"兰山街道北沙埠村","full_address":"山东省临沂市兰山区兰山街道北沙埠村","info":""}},{"type":"Feature","geometry":{"type":"Point","coordinates":[118.233526,35.153091]},"properties":{"province":"山东省","city":"临沂市","county":"兰山区","community":"义堂镇开元上郡小区","full_address":"山东省临沂市兰山区义堂镇开元上郡小区","info":""}},{"type":"Feature","geometry":{"type":"Point","coordinates":[117.841061,34.859817]},"properties":{"province":"山东省","city":"临沂市","county":"兰陵县","community":"兰陵镇瑞福苑社区","full_address":"山东省临沂市兰陵县兰陵镇瑞福苑社区","info":""}},{"type":"Feature","geometry":{"type":"Point","coordinates":[117.872202,34.682038]},"properties":{"province":"山东省","city":"临沂市","county":"兰陵县","community":"兰陵镇西赵庄村","full_address":"山东省临沂市兰陵县兰陵镇西赵庄村","info":""}},{"type":"Feature","geometry":{"type":"Point","coordinates":[117.85256,34.687404]},"properties":{"province":"山东省","city":"临沂市","county":"兰陵县","community":"兰陵镇房庄村","full_address":"山东省临沂市兰陵县兰陵镇房庄村","info":""}},{"type":"Feature","geometry":{"type":"Point","coordinates":[117.869568,34.681997]},"properties":{"province":"山东省","city":"临沂市","county":"兰陵县","community":"兰陵镇臧桥村","full_address":"山东省临沂市兰陵县兰陵镇臧桥村","info":""}},{"type":"Feature","geometry":{"type":"Point","coordinates":[117.864196,34.699342]},"properties":{"province":"山东省","city":"临沂市","county":"兰陵县","community":"兰陵镇柳树王村","full_address":"山东省临沂市兰陵县兰陵镇柳树王村","info":""}},{"type":"Feature","geometry":{"type":"Point","coordinates":[117.870032,34.69432]},"properties":{"province":"山东省","city":"临沂市","county":"兰陵县","community":"兰陵镇高塘村","full_address":"山东省临沂市兰陵县兰陵镇高塘村","info":""}},{"type":"Feature","geometry":{"type":"Point","coordinates":[117.882907,34.691823]},"properties":{"province":"山东省","city":"临沂市","county":"兰陵县","community":"兰陵镇蔡庙村","full_address":"山东省临沂市兰陵县兰陵镇蔡庙村","info":""}},{"type":"Feature","geometry":{"type":"Point","coordinates":[117.871162,34.747398]},"properties":{"province":"山东省","city":"临沂市","county":"兰陵县","community":"兰陵镇书香苑社区","full_address":"山东省临沂市兰陵县兰陵镇书香苑社区","info":""}},{"type":"Feature","geometry":{"type":"Point","coordinates":[117.8388,34.683852]},"properties":{"province":"山东省","city":"临沂市","county":"兰陵县","community":"兰陵镇前黄墩村","full_address":"山东省临沂市兰陵县兰陵镇前黄墩村","info":""}},{"type":"Feature","geometry":{"type":"Point","coordinates":[117.836602,34.691393]},"properties":{"province":"山东省","city":"临沂市","county":"兰陵县","community":"兰陵镇后黄墩村","full_address":"山东省临沂市兰陵县兰陵镇后黄墩村","info":""}},{"type":"Feature","geometry":{"type":"Point","coordinates":[117.860059,34.739373]},"properties":{"province":"山东省","city":"临沂市","county":"兰陵县","community":"兰陵镇西北圩村","full_address":"山东省临沂市兰陵县兰陵镇西北圩村","info":""}},{"type":"Feature","geometry":{"type":"Point","coordinates":[113.327894,32.731456]},"properties":{"province":"河南省","city":"驻马店市","county":"泌阳县","community":"付庄乡范庄村委付庄街","full_address":"河南省驻马店市泌阳县付庄乡范庄村委付庄街","info":""}},{"type":"Feature","geometry":{"type":"Point","coordinates":[113.496165,32.969043]},"properties":{"province":"河南省","city":"驻马店市","county":"泌阳县","community":"付庄乡范庄村委马下庄自然村","full_address":"河南省驻马店市泌阳县付庄乡范庄村委马下庄自然村","info":""}},{"type":"Feature","geometry":{"type":"Point","coordinates":[113.506116,32.974861]},"properties":{"province":"河南省","city":"驻马店市","county":"泌阳县","community":"付庄乡李岗村委李岗自然村","full_address":"河南省驻马店市泌阳县付庄乡李岗村委李岗自然村","info":""}},{"type":"Feature","geometry":{"type":"Point","coordinates":[113.506116,32.974861]},"properties":{"province":"河南省","city":"驻马店市","county":"泌阳县","community":"付庄乡李岗村委土桥自然村","full_address":"河南省驻马店市泌阳县付庄乡李岗村委土桥自然村","info":""}},{"type":"Feature","geometry":{"type":"Point","coordinates":[113.328476,32.732037]},"properties":{"province":"河南省","city":"驻马店市","county":"泌阳县","community":"县城文化路与花园巷南交叉口以南、自该交叉口沿花园巷向南50米处巷西第一条居民出入道口以北、沿巷西第一条居民出入口向西100米处一条南北通道以东、花园巷东侧大门朝西的住户及门面以西的合围区域","full_address":"河南省驻马店市泌阳县县城文化路与花园巷南交叉口以南、自该交叉口沿花园巷向南50米处巷西第一条居民出入道口以北、沿巷西第一条居民出入口向西100米处一条南北通道以东、花园巷东侧大门朝西的住户及门面以西的合围区域","info":""}},{"type":"Feature","geometry":{"type":"Point","coordinates":[113.274339,23.07748]},"properties":{"province":"广东省","city":"广州市","county":"海珠区","community":"南石头街道顺意花园A5、A6、A7、A8、A9栋","full_address":"广东省广州市海珠区南石头街道顺意花园A5、A6、A7、A8、A9栋","info":""}},{"type":"Feature","geometry":{"type":"Point","coordinates":[113.338654,25.119662]},"properties":{"province":"广东省","city":"韶关市","county":"乐昌市","community":"乐城街道大昌路九巷小区","full_address":"广东省韶关市乐昌市乐城街道大昌路九巷小区","info":""}},{"type":"Feature","geometry":{"type":"Point","coordinates":[114.144897,22.564463]},"properties":{"province":"广东省","city":"深圳市","county":"罗湖区","community":"黄贝街道东深大院中区（7、8、9栋）","full_address":"广东省深圳市罗湖区黄贝街道东深大院中区（7、8、9栋）","info":""}},{"type":"Feature","geometry":{"type":"Point","coordinates":[114.120258,22.534455]},"properties":{"province":"广东省","city":"深圳市","county":"罗湖区","community":"南湖街道罗湖新村东区（81、82、83、84、85、86、87、88、89、90号）","full_address":"广东省深圳市罗湖区南湖街道罗湖新村东区（81、82、83、84、85、86、87、88、89、90号）","info":""}},{"type":"Feature","geometry":{"type":"Point","coordinates":[114.127476,22.550155]},"properties":{"province":"广东省","city":"深圳市","county":"罗湖区","community":"东门街道一品雅园东门168北座","full_address":"广东省深圳市罗湖区东门街道一品雅园东门168北座","info":""}},{"type":"Feature","geometry":{"type":"Point","coordinates":[114.141397,22.548684]},"properties":{"province":"广东省","city":"深圳市","county":"罗湖区","community":"黄贝街道黄贝岭中村50、54、55、56、64、65栋","full_address":"广东省深圳市罗湖区黄贝街道黄贝岭中村50、54、55、56、64、65栋","info":""}},{"type":"Feature","geometry":{"type":"Point","coordinates":[114.156377,22.553236]},"properties":{"province":"广东省","city":"深圳市","county":"罗湖区","community":"莲塘街道兰亭国际二座（5楼至50楼）","full_address":"广东省深圳市罗湖区莲塘街道兰亭国际二座（5楼至50楼）","info":""}},{"type":"Feature","geometry":{"type":"Point","coordinates":[114.118487,22.534583]},"properties":{"province":"广东省","city":"深圳市","county":"罗湖区","community":"南湖街道罗湖桥社区房地产大厦","full_address":"广东省深圳市罗湖区南湖街道罗湖桥社区房地产大厦","info":""}},{"type":"Feature","geometry":{"type":"Point","coordinates":[114.061507,22.521955]},"properties":{"province":"广东省","city":"深圳市","county":"福田区","community":"福田街道皇岗新村一期A区（第149号-第156号）","full_address":"广东省深圳市福田区福田街道皇岗新村一期A区（第149号-第156号）","info":""}},{"type":"Feature","geometry":{"type":"Point","coordinates":[113.968513,22.532767]},"properties":{"province":"广东省","city":"深圳市","county":"南山区","community":"沙河街道白石洲村东三坊","full_address":"广东省深圳市南山区沙河街道白石洲村东三坊","info":""}},{"type":"Feature","geometry":{"type":"Point","coordinates":[114.057076,22.598662]},"properties":{"province":"广东省","city":"深圳市","county":"龙华区","community":"民治街道民乐社区民乐翠园第9栋","full_address":"广东省深圳市龙华区民治街道民乐社区民乐翠园第9栋","info":""}},{"type":"Feature","geometry":{"type":"Point","coordinates":[113.16938,23.106663]},"properties":{"province":"广东省","city":"佛山市","county":"南海区","community":"大沥镇银丰花园南区31座","full_address":"广东省佛山市南海区大沥镇银丰花园南区31座","info":""}},{"type":"Feature","geometry":{"type":"Point","coordinates":[113.083401,23.078019]},"properties":{"province":"广东省","city":"佛山市","county":"南海区","community":"狮山镇联合大道19号广东壹江电线电缆有限公司","full_address":"广东省佛山市南海区狮山镇联合大道19号广东壹江电线电缆有限公司","info":""}},{"type":"Feature","geometry":{"type":"Point","coordinates":[113.080409,22.882455]},"properties":{"province":"广东省","city":"佛山市","county":"顺德区","community":"龙江镇灵辉药店","full_address":"广东省佛山市顺德区龙江镇灵辉药店","info":""}},{"type":"Feature","geometry":{"type":"Point","coordinates":[113.098785,22.84934]},"properties":{"province":"广东省","city":"佛山市","county":"顺德区","community":"龙江镇麦朗市场","full_address":"广东省佛山市顺德区龙江镇麦朗市场","info":""}},{"type":"Feature","geometry":{"type":"Point","coordinates":[113.07374,22.86874]},"properties":{"province":"广东省","city":"佛山市","county":"顺德区","community":"龙江镇西江府16、17栋","full_address":"广东省佛山市顺德区龙江镇西江府16、17栋","info":""}},{"type":"Feature","geometry":{"type":"Point","coordinates":[113.082439,22.876306]},"properties":{"province":"广东省","city":"佛山市","county":"顺德区","community":"龙江镇阳光嘉园4栋","full_address":"广东省佛山市顺德区龙江镇阳光嘉园4栋","info":""}},{"type":"Feature","geometry":{"type":"Point","coordinates":[113.09814,22.590175]},"properties":{"province":"广东省","city":"江门市","county":"蓬江区","community":"白沙街道侧贤里38号、39号","full_address":"广东省江门市蓬江区白沙街道侧贤里38号、39号","info":""}},{"type":"Feature","geometry":{"type":"Point","coordinates":[113.097927,22.592679]},"properties":{"province":"广东省","city":"江门市","county":"蓬江区","community":"凤阳里117号","full_address":"广东省江门市蓬江区凤阳里117号","info":""}},{"type":"Feature","geometry":{"type":"Point","coordinates":[113.092569,22.588309]},"properties":{"province":"广东省","city":"江门市","county":"蓬江区","community":"中远大厦","full_address":"广东省江门市蓬江区中远大厦","info":""}},{"type":"Feature","geometry":{"type":"Point","coordinates":[112.650356,22.306487]},"properties":{"province":"广东省","city":"江门市","county":"开平市","community":"赤坎镇中开高速赤坎服务区","full_address":"广东省江门市开平市赤坎镇中开高速赤坎服务区","info":""}},{"type":"Feature","geometry":{"type":"Point","coordinates":[110.577893,21.451601]},"properties":{"province":"广东省","city":"湛江市","county":"吴川市","community":"塘㙍镇新桥村委会水口大村","full_address":"广东省湛江市吴川市塘㙍镇新桥村委会水口大村","info":""}},{"type":"Feature","geometry":{"type":"Point","coordinates":[110.630845,21.460975]},"properties":{"province":"广东省","city":"湛江市","county":"吴川市","community":"塘㙍镇以板桥市场烤奶先生店、福万家超市为中心，东至张某明房屋、南至荣大药店、西至广发饲料店、北至锦锋门窗店的区域","full_address":"广东省湛江市吴川市塘㙍镇以板桥市场烤奶先生店、福万家超市为中心，东至张某明房屋、南至荣大药店、西至广发饲料店、北至锦锋门窗店的区域","info":""}},{"type":"Feature","geometry":{"type":"Point","coordinates":[110.912389,21.65308]},"properties":{"province":"广东省","city":"茂名市","county":"茂南区","community":"站前街道：名晟宾馆、名晟佳园16号梯、水东鸭粥店、陈记粥铺、茂名市第二职业技术学校宿舍楼和教学楼","full_address":"广东省茂名市茂南区站前街道：名晟宾馆、名晟佳园16号梯、水东鸭粥店、陈记粥铺、茂名市第二职业技术学校宿舍楼和教学楼","info":""}},{"type":"Feature","geometry":{"type":"Point","coordinates":[110.925469,21.68397]},"properties":{"province":"广东省","city":"茂名市","county":"茂南区","community":"官渡街道：粤西明珠小区5栋2梯","full_address":"广东省茂名市茂南区官渡街道：粤西明珠小区5栋2梯","info":""}},{"type":"Feature","geometry":{"type":"Point","coordinates":[110.902455,21.657331]},"properties":{"province":"广东省","city":"茂名市","county":"茂南区","community":"红旗街道：荔枝园37号、兴富楼1梯、新坡村委会","full_address":"广东省茂名市茂南区红旗街道：荔枝园37号、兴富楼1梯、新坡村委会","info":""}},{"type":"Feature","geometry":{"type":"Point","coordinates":[111.019409,21.662452]},"properties":{"province":"广东省","city":"茂名市","county":"茂南区","community":"羊角镇：竹营村委会田头屋村以李某平屋为中心，东至李某球屋、南至环村路、西至李某良屋、北至李某汉屋","full_address":"广东省茂名市茂南区羊角镇：竹营村委会田头屋村以李某平屋为中心，东至李某球屋、南至环村路、西至李某良屋、北至李某汉屋","info":""}},{"type":"Feature","geometry":{"type":"Point","coordinates":[110.865772,21.549346]},"properties":{"province":"广东省","city":"茂名市","county":"茂南区","community":"鳌头镇：塘边村委会上官地村以黄某新屋为中心，东至环村路、南至黄某富屋、西至黄某才屋、北至环村路","full_address":"广东省茂名市茂南区鳌头镇：塘边村委会上官地村以黄某新屋为中心，东至环村路、南至黄某富屋、西至黄某才屋、北至环村路","info":""}},{"type":"Feature","geometry":{"type":"Point","coordinates":[110.88465,21.567628]},"properties":{"province":"广东省","city":"茂名市","county":"茂南区","community":"鳌头镇：文运村委会车田仔村吴某英屋为中心，东至陈某仕屋、南至陈某英屋、西至陈某强屋、北至陈某财屋","full_address":"广东省茂名市茂南区鳌头镇：文运村委会车田仔村吴某英屋为中心，东至陈某仕屋、南至陈某英屋、西至陈某强屋、北至陈某财屋","info":""}},{"type":"Feature","geometry":{"type":"Point","coordinates":[112.130566,21.963958]},"properties":{"province":"广东省","city":"阳江市","county":"阳东区","community":"合山镇江畔明珠小区","full_address":"广东省阳江市阳东区合山镇江畔明珠小区","info":""}},{"type":"Feature","geometry":{"type":"Point","coordinates":[114.083197,22.784618]},"properties":{"province":"广东省","city":"东莞市","county":"塘厦镇","community":"蛟乙塘商业街北5号","full_address":"广东省东莞市塘厦镇蛟乙塘商业街北5号","info":""}},{"type":"Feature","geometry":{"type":"Point","coordinates":[114.167029,22.742911]},"properties":{"province":"广东省","city":"东莞市","county":"凤岗镇","community":"金凤凰大道智谷公寓及相邻楼栋（金凤凰大道83号、93号、97号、107号）","full_address":"广东省东莞市凤岗镇金凤凰大道智谷公寓及相邻楼栋（金凤凰大道83号、93号、97号、107号）","info":""}},{"type":"Feature","geometry":{"type":"Point","coordinates":[113.468443,22.706383]},"properties":{"province":"广东省","city":"中山市","county":"三角镇","community":"高平大道西侧1、3、5、7、9、11、13号、蔡份北街59号、60号之一至六号","full_address":"广东省中山市三角镇高平大道西侧1、3、5、7、9、11、13号、蔡份北街59号、60号之一至六号","info":""}},{"type":"Feature","geometry":{"type":"Point","coordinates":[110.339362,20.048692]},"properties":{"province":"海南省","city":"海口市","county":"美兰区","community":"海甸岛人民西里80号","full_address":"海南省海口市美兰区海甸岛人民西里80号","info":""}},{"type":"Feature","geometry":{"type":"Point","coordinates":[108.927792,34.209554]},"properties":{"province":"陕西省","city":"西安市","county":"雁塔区","community":"长延堡街道青松路社区西安市46中学家属院","full_address":"陕西省西安市雁塔区长延堡街道青松路社区西安市46中学家属院","info":""}},{"type":"Feature","geometry":{"type":"Point","coordinates":[108.898777,34.215171]},"properties":{"province":"陕西省","city":"西安市","county":"曲江新区","community":"曲江香都社区天地源曲江香都小区","full_address":"陕西省西安市曲江新区曲江香都社区天地源曲江香都小区","info":""}},{"type":"Feature","geometry":{"type":"Point","coordinates":[109.003863,34.214018]},"properties":{"province":"陕西省","city":"西安市","county":"曲江新区","community":"龙游北路社区万科翡翠国际城东区","full_address":"陕西省西安市曲江新区龙游北路社区万科翡翠国际城东区","info":""}},{"type":"Feature","geometry":{"type":"Point","coordinates":[108.972283,34.182977]},"properties":{"province":"陕西省","city":"西安市","county":"曲江新区","community":"金辉社区金辉世界城小区C区","full_address":"陕西省西安市曲江新区金辉社区金辉世界城小区C区","info":""}},{"type":"Feature","geometry":{"type":"Point","coordinates":[108.957875,34.160477]},"properties":{"province":"陕西省","city":"西安市","county":"航天基地","community":"上元郡社区航天新佳园一期（含临街商铺）","full_address":"陕西省西安市航天基地上元郡社区航天新佳园一期（含临街商铺）","info":""}},{"type":"Feature","geometry":{"type":"Point","coordinates":[108.898716,34.216575]},"properties":{"province":"陕西省","city":"西安市","county":"高新区","community":"丈八街道枫林绿洲社区万达天樾1期北区1号楼","full_address":"陕西省西安市高新区丈八街道枫林绿洲社区万达天樾1期北区1号楼","info":""}},{"type":"Feature","geometry":{"type":"Point","coordinates":[109.007682,34.319419]},"properties":{"province":"陕西省","city":"西安市","county":"浐灞生态区","community":"广运潭西路社区龙湖源著小区","full_address":"陕西省西安市浐灞生态区广运潭西路社区龙湖源著小区","info":""}},{"type":"Feature","geometry":{"type":"Point","coordinates":[103.804382,36.108615]},"properties":{"province":"甘肃省","city":"兰州市","county":"城关区","community":"九州主食厨房园区","full_address":"甘肃省兰州市城关区九州主食厨房园区","info":""}},{"type":"Feature","geometry":{"type":"Point","coordinates":[103.762978,36.057898]},"properties":{"province":"甘肃省","city":"兰州市","county":"七里河区","community":"中参雅园小区","full_address":"甘肃省兰州市七里河区中参雅园小区","info":""}},{"type":"Feature","geometry":{"type":"Point","coordinates":[104.998246,35.89727]},"properties":{"province":"甘肃省","city":"白银市","county":"会宁县","community":"甘沟驿镇六十铺村","full_address":"甘肃省白银市会宁县甘沟驿镇六十铺村","info":""}},{"type":"Feature","geometry":{"type":"Point","coordinates":[104.96845,35.869276]},"properties":{"province":"甘肃省","city":"白银市","county":"会宁县","community":"河西坡村上王社","full_address":"甘肃省白银市会宁县河西坡村上王社","info":""}}]}