{"type":"FeatureCollection","features":[{"type":"Feature","geometry":{"type":"Point","coordinates":[116.435662,39.782159]},"properties":{"province":"北京市","city":"大兴区","county":"旧宫（地区）镇","community":"上林苑小区14号楼","full_address":"北京市大兴区旧宫（地区）镇上林苑小区14号楼","info":""}},{"type":"Feature","geometry":{"type":"Point","coordinates":[117.215088,39.147083]},"properties":{"province":"天津市","city":"天津市","county":"河东区","community":"春华街道新博园小区上述高风险区之外的其他楼","full_address":"天津市天津市河东区春华街道新博园小区上述高风险区之外的其他楼","info":""}},{"type":"Feature","geometry":{"type":"Point","coordinates":[114.474411,38.030061]},"properties":{"province":"河北省","city":"石家庄市","county":"桥西区","community":"工农路西菜园街19号院","full_address":"河北省石家庄市桥西区工农路西菜园街19号院","info":""}},{"type":"Feature","geometry":{"type":"Point","coordinates":[114.51799,36.553915]},"properties":{"province":"河北省","city":"邯郸市","county":"邯山区","community":"南堡乡南堡崔村","full_address":"河北省邯郸市邯山区南堡乡南堡崔村","info":""}},{"type":"Feature","geometry":{"type":"Point","coordinates":[114.51799,36.553915]},"properties":{"province":"河北省","city":"邯郸市","county":"邯山区","community":"南堡乡南堡前村","full_address":"河北省邯郸市邯山区南堡乡南堡前村","info":""}},{"type":"Feature","geometry":{"type":"Point","coordinates":[114.518185,36.554068]},"properties":{"province":"河北省","city":"邯郸市","county":"邯山区","community":"南堡乡南堡李村","full_address":"河北省邯郸市邯山区南堡乡南堡李村","info":""}},{"type":"Feature","geometry":{"type":"Point","coordinates":[114.954458,36.557063]},"properties":{"province":"河北省","city":"邯郸市","county":"肥乡区","community":"西吕营镇吕营市场","full_address":"河北省邯郸市肥乡区西吕营镇吕营市场","info":""}},{"type":"Feature","geometry":{"type":"Point","coordinates":[115.713905,39.394317]},"properties":{"province":"河北省","city":"保定市","county":"涞水县","community":"县城建成区内除高风险区之外的区域","full_address":"河北省保定市涞水县县城建成区内除高风险区之外的区域","info":""}},{"type":"Feature","geometry":{"type":"Point","coordinates":[115.944626,39.412591]},"properties":{"province":"河北省","city":"保定市","county":"涿州市","community":"松林店镇辖区内除高风险区之外的区域","full_address":"河北省保定市涿州市松林店镇辖区内除高风险区之外的区域","info":""}},{"type":"Feature","geometry":{"type":"Point","coordinates":[115.961543,39.389963]},"properties":{"province":"河北省","city":"保定市","county":"涿州市","community":"林屯镇辖区内除高风险区之外的区域","full_address":"河北省保定市涿州市林屯镇辖区内除高风险区之外的区域","info":""}},{"type":"Feature","geometry":{"type":"Point","coordinates":[115.548767,40.405812]},"properties":{"province":"河北省","city":"张家口市","county":"怀来县","community":"沙城镇万悦庭院","full_address":"河北省张家口市怀来县沙城镇万悦庭院","info":""}},{"type":"Feature","geometry":{"type":"Point","coordinates":[115.548767,40.405812]},"properties":{"province":"河北省","city":"张家口市","county":"怀来县","community":"沙城镇四合家园西区","full_address":"河北省张家口市怀来县沙城镇四合家园西区","info":""}},{"type":"Feature","geometry":{"type":"Point","coordinates":[115.552335,40.481462]},"properties":{"province":"河北省","city":"张家口市","county":"怀来县","community":"存瑞镇北三营村","full_address":"河北省张家口市怀来县存瑞镇北三营村","info":""}},{"type":"Feature","geometry":{"type":"Point","coordinates":[115.525557,40.401457]},"properties":{"province":"河北省","city":"张家口市","county":"怀来县","community":"沙城镇新开路","full_address":"河北省张家口市怀来县沙城镇新开路","info":""}},{"type":"Feature","geometry":{"type":"Point","coordinates":[117.930731,40.976084]},"properties":{"province":"河北省","city":"承德市","county":"双桥区","community":"潘家沟街道文博园小区1-11栋楼（共47个单元）","full_address":"河北省承德市双桥区潘家沟街道文博园小区1-11栋楼（共47个单元）","info":""}},{"type":"Feature","geometry":{"type":"Point","coordinates":[117.929974,40.974208]},"properties":{"province":"河北省","city":"承德市","county":"双桥区","community":"潘家沟街道宏达山庄B区小区1-5号楼（共5栋楼10个单元，含惜农果蔬店、一航超市）","full_address":"河北省承德市双桥区潘家沟街道宏达山庄B区小区1-5号楼（共5栋楼10个单元，含惜农果蔬店、一航超市）","info":""}},{"type":"Feature","geometry":{"type":"Point","coordinates":[117.937567,40.958459]},"properties":{"province":"河北省","city":"承德市","county":"双桥区","community":"牛圈子沟镇长安小区一期2号楼（共5个单元，含万家美发店）","full_address":"河北省承德市双桥区牛圈子沟镇长安小区一期2号楼（共5个单元，含万家美发店）","info":""}},{"type":"Feature","geometry":{"type":"Point","coordinates":[117.965518,40.928716]},"properties":{"province":"河北省","city":"承德市","county":"双桥区","community":"西大街街道小溪沟小区路南5栋楼（共21个单元，含小溪沟卫生服务站）","full_address":"河北省承德市双桥区西大街街道小溪沟小区路南5栋楼（共21个单元，含小溪沟卫生服务站）","info":""}},{"type":"Feature","geometry":{"type":"Point","coordinates":[112.6606,37.484258]},"properties":{"province":"山西省","city":"晋中市","county":"太谷区","community":"胡村镇北阳村","full_address":"山西省晋中市太谷区胡村镇北阳村","info":""}},{"type":"Feature","geometry":{"type":"Point","coordinates":[112.655066,37.472381]},"properties":{"province":"山西省","city":"晋中市","county":"太谷区","community":"胡村镇南阳村","full_address":"山西省晋中市太谷区胡村镇南阳村","info":""}},{"type":"Feature","geometry":{"type":"Point","coordinates":[112.660359,37.480562]},"properties":{"province":"山西省","city":"晋中市","county":"太谷区","community":"胡村镇中阳村","full_address":"山西省晋中市太谷区胡村镇中阳村","info":""}},{"type":"Feature","geometry":{"type":"Point","coordinates":[112.675792,37.498549]},"properties":{"province":"山西省","city":"晋中市","county":"太谷区","community":"胡村镇孟高村","full_address":"山西省晋中市太谷区胡村镇孟高村","info":""}},{"type":"Feature","geometry":{"type":"Point","coordinates":[111.028215,35.036668]},"properties":{"province":"山西省","city":"运城市","county":"盐湖区","community":"御溪苑1号楼","full_address":"山西省运城市盐湖区御溪苑1号楼","info":""}},{"type":"Feature","geometry":{"type":"Point","coordinates":[117.457674,49.586717]},"properties":{"province":"内蒙古自治区","city":"呼伦贝尔市","county":"满洲里市","community":"富华社区木刻楞小区","full_address":"内蒙古自治区呼伦贝尔市满洲里市富华社区木刻楞小区","info":""}},{"type":"Feature","geometry":{"type":"Point","coordinates":[117.458134,49.586094]},"properties":{"province":"内蒙古自治区","city":"呼伦贝尔市","county":"满洲里市","community":"富华社区换装所住宅楼","full_address":"内蒙古自治区呼伦贝尔市满洲里市富华社区换装所住宅楼","info":""}},{"type":"Feature","geometry":{"type":"Point","coordinates":[117.37853,49.597841]},"properties":{"province":"内蒙古自治区","city":"呼伦贝尔市","county":"满洲里市","community":"二卡新村","full_address":"内蒙古自治区呼伦贝尔市满洲里市二卡新村","info":""}},{"type":"Feature","geometry":{"type":"Point","coordinates":[117.45714,49.591791]},"properties":{"province":"内蒙古自治区","city":"呼伦贝尔市","county":"满洲里市","community":"北区街道海关路陆桥小区","full_address":"内蒙古自治区呼伦贝尔市满洲里市北区街道海关路陆桥小区","info":""}},{"type":"Feature","geometry":{"type":"Point","coordinates":[111.9976,43.644991]},"properties":{"province":"内蒙古自治区","city":"锡林郭勒盟","county":"二连浩特市","community":"迎宾路东一街坊（十栋平房及东侧大院）","full_address":"内蒙古自治区锡林郭勒盟二连浩特市迎宾路东一街坊（十栋平房及东侧大院）","info":""}},{"type":"Feature","geometry":{"type":"Point","coordinates":[111.987084,43.633536]},"properties":{"province":"内蒙古自治区","city":"锡林郭勒盟","county":"二连浩特市","community":"景典小区","full_address":"内蒙古自治区锡林郭勒盟二连浩特市景典小区","info":""}},{"type":"Feature","geometry":{"type":"Point","coordinates":[121.582668,38.943009]},"properties":{"province":"辽宁省","city":"大连市","county":"沙河口区","community":"三合大厦","full_address":"辽宁省大连市沙河口区三合大厦","info":""}},{"type":"Feature","geometry":{"type":"Point","coordinates":[123.847072,42.29854]},"properties":{"province":"辽宁省","city":"铁岭市","county":"银州区","community":"柴河街以东、龙首山以西，北至北市路、南至南马路的区域（除4个高风险区外）","full_address":"辽宁省铁岭市银州区柴河街以东、龙首山以西，北至北市路、南至南马路的区域（除4个高风险区外）","info":""}},{"type":"Feature","geometry":{"type":"Point","coordinates":[123.753348,47.866652]},"properties":{"province":"黑龙江省","city":"齐齐哈尔市","county":"甘南县","community":"双河农场南方熟食店","full_address":"黑龙江省齐齐哈尔市甘南县双河农场南方熟食店","info":""}},{"type":"Feature","geometry":{"type":"Point","coordinates":[123.753348,47.866652]},"properties":{"province":"黑龙江省","city":"齐齐哈尔市","county":"甘南县","community":"双河农场七彩复印社","full_address":"黑龙江省齐齐哈尔市甘南县双河农场七彩复印社","info":""}},{"type":"Feature","geometry":{"type":"Point","coordinates":[123.515214,47.914238]},"properties":{"province":"黑龙江省","city":"齐齐哈尔市","county":"甘南县","community":"王子花苑小区除6号楼外其他区域","full_address":"黑龙江省齐齐哈尔市甘南县王子花苑小区除6号楼外其他区域","info":""}},{"type":"Feature","geometry":{"type":"Point","coordinates":[123.513844,47.912342]},"properties":{"province":"黑龙江省","city":"齐齐哈尔市","county":"甘南县","community":"红太阳美发店","full_address":"黑龙江省齐齐哈尔市甘南县红太阳美发店","info":""}},{"type":"Feature","geometry":{"type":"Point","coordinates":[125.109397,46.598266]},"properties":{"province":"黑龙江省","city":"大庆市","county":"萨尔图区","community":"东风街道东风新村花样年华小区","full_address":"黑龙江省大庆市萨尔图区东风街道东风新村花样年华小区","info":""}},{"type":"Feature","geometry":{"type":"Point","coordinates":[125.114361,46.598594]},"properties":{"province":"黑龙江省","city":"大庆市","county":"萨尔图区","community":"东风街道东风新村香榭丽小区","full_address":"黑龙江省大庆市萨尔图区东风街道东风新村香榭丽小区","info":""}},{"type":"Feature","geometry":{"type":"Point","coordinates":[125.105088,46.592829]},"properties":{"province":"黑龙江省","city":"大庆市","county":"萨尔图区","community":"东风街道东风新村H高层","full_address":"黑龙江省大庆市萨尔图区东风街道东风新村H高层","info":""}},{"type":"Feature","geometry":{"type":"Point","coordinates":[125.112994,46.597379]},"properties":{"province":"黑龙江省","city":"大庆市","county":"萨尔图区","community":"东风街道东风新村东安阳光公寓","full_address":"黑龙江省大庆市萨尔图区东风街道东风新村东安阳光公寓","info":""}},{"type":"Feature","geometry":{"type":"Point","coordinates":[125.11196,46.59584]},"properties":{"province":"黑龙江省","city":"大庆市","county":"萨尔图区","community":"东风街道东风新村义耕小区（含东安市场）","full_address":"黑龙江省大庆市萨尔图区东风街道东风新村义耕小区（含东安市场）","info":""}},{"type":"Feature","geometry":{"type":"Point","coordinates":[125.111514,46.5999]},"properties":{"province":"黑龙江省","city":"大庆市","county":"萨尔图区","community":"东风街道东风新村二区新源小区A、B、C、D组团","full_address":"黑龙江省大庆市萨尔图区东风街道东风新村二区新源小区A、B、C、D组团","info":""}},{"type":"Feature","geometry":{"type":"Point","coordinates":[125.102539,46.598395]},"properties":{"province":"黑龙江省","city":"大庆市","county":"萨尔图区","community":"东风街道东风新村经三街商服组团（利民医院周边）","full_address":"黑龙江省大庆市萨尔图区东风街道东风新村经三街商服组团（利民医院周边）","info":""}},{"type":"Feature","geometry":{"type":"Point","coordinates":[125.128509,46.624688]},"properties":{"province":"黑龙江省","city":"大庆市","county":"萨尔图区","community":"东安街道东风新村四区","full_address":"黑龙江省大庆市萨尔图区东安街道东风新村四区","info":""}},{"type":"Feature","geometry":{"type":"Point","coordinates":[125.085646,46.70192]},"properties":{"province":"黑龙江省","city":"大庆市","county":"萨尔图区","community":"火炬街道萨北社区","full_address":"黑龙江省大庆市萨尔图区火炬街道萨北社区","info":""}},{"type":"Feature","geometry":{"type":"Point","coordinates":[125.125254,46.649958]},"properties":{"province":"黑龙江省","city":"大庆市","county":"萨尔图区","community":"火炬街道慧园社区","full_address":"黑龙江省大庆市萨尔图区火炬街道慧园社区","info":""}},{"type":"Feature","geometry":{"type":"Point","coordinates":[125.107148,46.604747]},"properties":{"province":"黑龙江省","city":"大庆市","county":"萨尔图区","community":"绿园街道书香名邸小区9-1号楼","full_address":"黑龙江省大庆市萨尔图区绿园街道书香名邸小区9-1号楼","info":""}},{"type":"Feature","geometry":{"type":"Point","coordinates":[125.10019,46.602059]},"properties":{"province":"黑龙江省","city":"大庆市","county":"萨尔图区","community":"东风街道东风新村4-28号楼","full_address":"黑龙江省大庆市萨尔图区东风街道东风新村4-28号楼","info":""}},{"type":"Feature","geometry":{"type":"Point","coordinates":[125.146419,46.675729]},"properties":{"province":"黑龙江省","city":"大庆市","county":"萨尔图区","community":"火炬街道721职业学院北校区","full_address":"黑龙江省大庆市萨尔图区火炬街道721职业学院北校区","info":""}},{"type":"Feature","geometry":{"type":"Point","coordinates":[125.096952,46.601551]},"properties":{"province":"黑龙江省","city":"大庆市","county":"萨尔图区","community":"绿园街道益民墨哥粥铺","full_address":"黑龙江省大庆市萨尔图区绿园街道益民墨哥粥铺","info":""}},{"type":"Feature","geometry":{"type":"Point","coordinates":[125.132379,46.578425]},"properties":{"province":"黑龙江省","city":"大庆市","county":"萨尔图区","community":"绿园街道东风新村0-10号楼","full_address":"黑龙江省大庆市萨尔图区绿园街道东风新村0-10号楼","info":""}},{"type":"Feature","geometry":{"type":"Point","coordinates":[125.07653,46.59812]},"properties":{"province":"黑龙江省","city":"大庆市","county":"萨尔图区","community":"会战街道中林小区时畅生活超市","full_address":"黑龙江省大庆市萨尔图区会战街道中林小区时畅生活超市","info":""}},{"type":"Feature","geometry":{"type":"Point","coordinates":[125.07653,46.59812]},"properties":{"province":"黑龙江省","city":"大庆市","county":"萨尔图区","community":"会战街道中林小区1-47楼到1-50楼","full_address":"黑龙江省大庆市萨尔图区会战街道中林小区1-47楼到1-50楼","info":""}},{"type":"Feature","geometry":{"type":"Point","coordinates":[125.07653,46.59812]},"properties":{"province":"黑龙江省","city":"大庆市","county":"萨尔图区","community":"会战街道中林小区1-52楼","full_address":"黑龙江省大庆市萨尔图区会战街道中林小区1-52楼","info":""}},{"type":"Feature","geometry":{"type":"Point","coordinates":[125.07653,46.59812]},"properties":{"province":"黑龙江省","city":"大庆市","county":"萨尔图区","community":"会战街道中林小区1-55楼到1-57楼","full_address":"黑龙江省大庆市萨尔图区会战街道中林小区1-55楼到1-57楼","info":""}},{"type":"Feature","geometry":{"type":"Point","coordinates":[125.07653,46.59812]},"properties":{"province":"黑龙江省","city":"大庆市","county":"萨尔图区","community":"会战街道中林小区1-62楼","full_address":"黑龙江省大庆市萨尔图区会战街道中林小区1-62楼","info":""}},{"type":"Feature","geometry":{"type":"Point","coordinates":[125.003973,46.593124]},"properties":{"province":"黑龙江省","city":"大庆市","county":"萨尔图区","community":"萨尔图区街道铁西馨民苑A04号楼栋","full_address":"黑龙江省大庆市萨尔图区萨尔图区街道铁西馨民苑A04号楼栋","info":""}},{"type":"Feature","geometry":{"type":"Point","coordinates":[125.01301,46.581985]},"properties":{"province":"黑龙江省","city":"大庆市","county":"萨尔图区","community":"萨尔图街道萨环东路北侧旧货市场","full_address":"黑龙江省大庆市萨尔图区萨尔图街道萨环东路北侧旧货市场","info":""}},{"type":"Feature","geometry":{"type":"Point","coordinates":[125.138817,46.576997]},"properties":{"province":"黑龙江省","city":"大庆市","county":"萨尔图区","community":"（高新区）景程小区","full_address":"黑龙江省大庆市萨尔图区（高新区）景程小区","info":""}},{"type":"Feature","geometry":{"type":"Point","coordinates":[125.07653,46.59812]},"properties":{"province":"黑龙江省","city":"大庆市","county":"萨尔图区","community":"会战街道中林小区1-53楼","full_address":"黑龙江省大庆市萨尔图区会战街道中林小区1-53楼","info":""}},{"type":"Feature","geometry":{"type":"Point","coordinates":[125.073392,46.570545]},"properties":{"province":"黑龙江省","city":"大庆市","county":"萨尔图区","community":"万宝街道万峰大市场北侧无名路以南、热源街南段以西、万峰大市场北侧无名路以北、大广高速万峰大市场段以东万峰大市场所属区域","full_address":"黑龙江省大庆市萨尔图区万宝街道万峰大市场北侧无名路以南、热源街南段以西、万峰大市场北侧无名路以北、大广高速万峰大市场段以东万峰大市场所属区域","info":""}},{"type":"Feature","geometry":{"type":"Point","coordinates":[125.123601,46.589836]},"properties":{"province":"黑龙江省","city":"大庆市","county":"萨尔图区","community":"东安街道东风新村庆龙小区","full_address":"黑龙江省大庆市萨尔图区东安街道东风新村庆龙小区","info":""}},{"type":"Feature","geometry":{"type":"Point","coordinates":[125.117977,46.534987]},"properties":{"province":"黑龙江省","city":"大庆市","county":"龙凤区","community":"铁路小区5号楼","full_address":"黑龙江省大庆市龙凤区铁路小区5号楼","info":""}},{"type":"Feature","geometry":{"type":"Point","coordinates":[124.85659,46.635808]},"properties":{"province":"黑龙江省","city":"大庆市","county":"让胡路区","community":"西苑街报废库","full_address":"黑龙江省大庆市让胡路区西苑街报废库","info":""}},{"type":"Feature","geometry":{"type":"Point","coordinates":[124.884818,46.541411]},"properties":{"province":"黑龙江省","city":"大庆市","county":"让胡路区","community":"乘风庄炼化公司厂前区A楼","full_address":"黑龙江省大庆市让胡路区乘风庄炼化公司厂前区A楼","info":""}},{"type":"Feature","geometry":{"type":"Point","coordinates":[127.520693,50.235812]},"properties":{"province":"黑龙江省","city":"黑河市","county":"爱辉区","community":"花园街道博文社区星辉小区6号楼楼下门市龙江路146号（王志国内科诊所、大众医药）","full_address":"黑龙江省黑河市爱辉区花园街道博文社区星辉小区6号楼楼下门市龙江路146号（王志国内科诊所、大众医药）","info":""}},{"type":"Feature","geometry":{"type":"Point","coordinates":[127.520141,50.235805]},"properties":{"province":"黑龙江省","city":"黑河市","county":"爱辉区","community":"花园街道龙江路148号（福利堂中草药有限责任公司）","full_address":"黑龙江省黑河市爱辉区花园街道龙江路148号（福利堂中草药有限责任公司）","info":""}},{"type":"Feature","geometry":{"type":"Point","coordinates":[127.520041,50.235776]},"properties":{"province":"黑龙江省","city":"黑河市","county":"爱辉区","community":"花园街道龙江路150号（兔宝宝全屋定制）","full_address":"黑龙江省黑河市爱辉区花园街道龙江路150号（兔宝宝全屋定制）","info":""}},{"type":"Feature","geometry":{"type":"Point","coordinates":[127.519912,50.235744]},"properties":{"province":"黑龙江省","city":"黑河市","county":"爱辉区","community":"花园街道龙江路150-2号（美大集成灶）","full_address":"黑龙江省黑河市爱辉区花园街道龙江路150-2号（美大集成灶）","info":""}},{"type":"Feature","geometry":{"type":"Point","coordinates":[127.516412,50.235128]},"properties":{"province":"黑龙江省","city":"黑河市","county":"爱辉区","community":"花园街道博文社区警苑小区（不包含警苑小区2号楼及附属门市楼）","full_address":"黑龙江省黑河市爱辉区花园街道博文社区警苑小区（不包含警苑小区2号楼及附属门市楼）","info":""}},{"type":"Feature","geometry":{"type":"Point","coordinates":[127.466921,50.210306]},"properties":{"province":"黑龙江省","city":"黑河市","county":"爱辉区","community":"幸福乡上二公村（不包含永兴旺超市西侧路口道南某阳性感染者住所及周边8户住宅）","full_address":"黑龙江省黑河市爱辉区幸福乡上二公村（不包含永兴旺超市西侧路口道南某阳性感染者住所及周边8户住宅）","info":""}},{"type":"Feature","geometry":{"type":"Point","coordinates":[127.516533,50.240419]},"properties":{"province":"黑龙江省","city":"黑河市","county":"爱辉区","community":"花园街道长海社区金盾小区（不含2号楼）","full_address":"黑龙江省黑河市爱辉区花园街道长海社区金盾小区（不含2号楼）","info":""}},{"type":"Feature","geometry":{"type":"Point","coordinates":[127.514709,50.239951]},"properties":{"province":"黑龙江省","city":"黑河市","county":"爱辉区","community":"花园街道长海社区龙滨花园小区（不含4号楼）","full_address":"黑龙江省黑河市爱辉区花园街道长海社区龙滨花园小区（不含4号楼）","info":""}},{"type":"Feature","geometry":{"type":"Point","coordinates":[121.551644,31.311702]},"properties":{"province":"上海市","city":"上海市","county":"杨浦区","community":"长海路街道民星路158号、160号、162号（包括沿街商铺）","full_address":"上海市上海市杨浦区长海路街道民星路158号、160号、162号（包括沿街商铺）","info":""}},{"type":"Feature","geometry":{"type":"Point","coordinates":[121.515519,31.287117]},"properties":{"province":"上海市","city":"上海市","county":"杨浦区","community":"五角场街道政本路268号所在楼栋及沿街商铺","full_address":"上海市上海市杨浦区五角场街道政本路268号所在楼栋及沿街商铺","info":""}},{"type":"Feature","geometry":{"type":"Point","coordinates":[121.514076,31.294742]},"properties":{"province":"上海市","city":"上海市","county":"杨浦区","community":"五角场街道政法路315号","full_address":"上海市上海市杨浦区五角场街道政法路315号","info":""}},{"type":"Feature","geometry":{"type":"Point","coordinates":[121.513548,31.294634]},"properties":{"province":"上海市","city":"上海市","county":"杨浦区","community":"五角场街道四平路2152号富庆国定大厦及其裙楼相关沿街商铺","full_address":"上海市上海市杨浦区五角场街道四平路2152号富庆国定大厦及其裙楼相关沿街商铺","info":""}},{"type":"Feature","geometry":{"type":"Point","coordinates":[121.39275,31.35366]},"properties":{"province":"上海市","city":"上海市","county":"宝山区","community":"顾村镇电台路398弄（世纪长江怡园）","full_address":"上海市上海市宝山区顾村镇电台路398弄（世纪长江怡园）","info":""}},{"type":"Feature","geometry":{"type":"Point","coordinates":[121.698839,31.227705]},"properties":{"province":"上海市","city":"上海市","county":"浦东新区","community":"合庆镇东风村二队","full_address":"上海市上海市浦东新区合庆镇东风村二队","info":""}},{"type":"Feature","geometry":{"type":"Point","coordinates":[121.558367,31.240788]},"properties":{"province":"上海市","city":"上海市","county":"浦东新区","community":"洋泾街道张杨路2238弄、崮山路626弄小区","full_address":"上海市上海市浦东新区洋泾街道张杨路2238弄、崮山路626弄小区","info":""}},{"type":"Feature","geometry":{"type":"Point","coordinates":[118.642982,32.036529]},"properties":{"province":"江苏省","city":"南京市","county":"江北新区","community":"盘城街道盘城社区管西组东北片","full_address":"江苏省南京市江北新区盘城街道盘城社区管西组东北片","info":""}},{"type":"Feature","geometry":{"type":"Point","coordinates":[118.735953,32.069207]},"properties":{"province":"江苏省","city":"南京市","county":"江北新区","community":"泰山街道大桥北路12号桥北菜场内外铺9号门面房（燕子理发店）","full_address":"江苏省南京市江北新区泰山街道大桥北路12号桥北菜场内外铺9号门面房（燕子理发店）","info":""}},{"type":"Feature","geometry":{"type":"Point","coordinates":[121.602764,29.801329]},"properties":{"province":"浙江省","city":"宁波市","county":"鄞州区","community":"下应街道东兴小区最北面，南至东兴社区居委会前主干道，东至启明南路，西至东兴内河","full_address":"浙江省宁波市鄞州区下应街道东兴小区最北面，南至东兴社区居委会前主干道，东至启明南路，西至东兴内河","info":""}},{"type":"Feature","geometry":{"type":"Point","coordinates":[120.336952,27.63605]},"properties":{"province":"浙江省","city":"温州市","county":"平阳县","community":"水头镇亿豪名邸小区","full_address":"浙江省温州市平阳县水头镇亿豪名邸小区","info":""}},{"type":"Feature","geometry":{"type":"Point","coordinates":[120.287275,27.662381]},"properties":{"province":"浙江省","city":"温州市","county":"平阳县","community":"凤卧镇平凤村","full_address":"浙江省温州市平阳县凤卧镇平凤村","info":""}},{"type":"Feature","geometry":{"type":"Point","coordinates":[120.288171,27.662123]},"properties":{"province":"浙江省","city":"温州市","county":"平阳县","community":"凤卧镇凤东村","full_address":"浙江省温州市平阳县凤卧镇凤东村","info":""}},{"type":"Feature","geometry":{"type":"Point","coordinates":[116.709435,30.566508]},"properties":{"province":"安徽省","city":"安庆市","county":"怀宁县","community":"三桥镇南方村（可丛组和东风组除外）","full_address":"安徽省安庆市怀宁县三桥镇南方村（可丛组和东风组除外）","info":""}},{"type":"Feature","geometry":{"type":"Point","coordinates":[116.766514,30.59753]},"properties":{"province":"安徽省","city":"安庆市","county":"怀宁县","community":"黄墩镇独秀山居委会（和谐东路174号和老梗组除外）","full_address":"安徽省安庆市怀宁县黄墩镇独秀山居委会（和谐东路174号和老梗组除外）","info":""}},{"type":"Feature","geometry":{"type":"Point","coordinates":[116.789851,30.605713]},"properties":{"province":"安徽省","city":"安庆市","county":"怀宁县","community":"黄墩镇岭北村（立新组、楼西组和大塘组除外）","full_address":"安徽省安庆市怀宁县黄墩镇岭北村（立新组、楼西组和大塘组除外）","info":""}},{"type":"Feature","geometry":{"type":"Point","coordinates":[116.789861,30.570046]},"properties":{"province":"安徽省","city":"安庆市","county":"怀宁县","community":"黄墩镇花山村（背屋组除外）","full_address":"安徽省安庆市怀宁县黄墩镇花山村（背屋组除外）","info":""}},{"type":"Feature","geometry":{"type":"Point","coordinates":[116.712837,30.55099]},"properties":{"province":"安徽省","city":"安庆市","county":"怀宁县","community":"清河乡清河社区（清河街除外）","full_address":"安徽省安庆市怀宁县清河乡清河社区（清河街除外）","info":""}},{"type":"Feature","geometry":{"type":"Point","coordinates":[116.76941,30.555585]},"properties":{"province":"安徽省","city":"安庆市","county":"怀宁县","community":"清河乡硖石村（何老组除外）","full_address":"安徽省安庆市怀宁县清河乡硖石村（何老组除外）","info":""}},{"type":"Feature","geometry":{"type":"Point","coordinates":[116.790583,30.58516]},"properties":{"province":"安徽省","city":"安庆市","county":"怀宁县","community":"黄墩镇皖埠村（小屋组除外）","full_address":"安徽省安庆市怀宁县黄墩镇皖埠村（小屋组除外）","info":""}},{"type":"Feature","geometry":{"type":"Point","coordinates":[119.530094,26.205833]},"properties":{"province":"福建省","city":"福州市","county":"连江县","community":"凤城镇丹凤西路8号树德学校","full_address":"福建省福州市连江县凤城镇丹凤西路8号树德学校","info":""}},{"type":"Feature","geometry":{"type":"Point","coordinates":[117.054536,28.238733]},"properties":{"province":"江西省","city":"鹰潭市","county":"月湖区","community":"梅园街道东二村南片区32栋","full_address":"江西省鹰潭市月湖区梅园街道东二村南片区32栋","info":""}},{"type":"Feature","geometry":{"type":"Point","coordinates":[117.216554,28.284155]},"properties":{"province":"江西省","city":"鹰潭市","county":"贵溪市","community":"东门街道筲箕山社区筲箕山菜市场","full_address":"江西省鹰潭市贵溪市东门街道筲箕山社区筲箕山菜市场","info":""}},{"type":"Feature","geometry":{"type":"Point","coordinates":[117.224172,28.288766]},"properties":{"province":"江西省","city":"鹰潭市","county":"贵溪市","community":"东门街道贵电社区阳光花城（除11栋、12栋）","full_address":"江西省鹰潭市贵溪市东门街道贵电社区阳光花城（除11栋、12栋）","info":""}},{"type":"Feature","geometry":{"type":"Point","coordinates":[117.214696,28.287539]},"properties":{"province":"江西省","city":"鹰潭市","county":"贵溪市","community":"东门街道信江社区石油公司","full_address":"江西省鹰潭市贵溪市东门街道信江社区石油公司","info":""}},{"type":"Feature","geometry":{"type":"Point","coordinates":[117.221285,28.287311]},"properties":{"province":"江西省","city":"鹰潭市","county":"贵溪市","community":"东门街道筲箕山社区御水苑小区","full_address":"江西省鹰潭市贵溪市东门街道筲箕山社区御水苑小区","info":""}},{"type":"Feature","geometry":{"type":"Point","coordinates":[117.210203,28.270002]},"properties":{"province":"江西省","city":"鹰潭市","county":"贵溪市","community":"雄石街道象山村狮源樊家","full_address":"江西省鹰潭市贵溪市雄石街道象山村狮源樊家","info":""}},{"type":"Feature","geometry":{"type":"Point","coordinates":[117.241065,28.306482]},"properties":{"province":"江西省","city":"鹰潭市","county":"贵溪市","community":"花园街道铜城社区铜苑小区","full_address":"江西省鹰潭市贵溪市花园街道铜城社区铜苑小区","info":""}},{"type":"Feature","geometry":{"type":"Point","coordinates":[117.250632,28.294641]},"properties":{"province":"江西省","city":"鹰潭市","county":"贵溪市","community":"花园街道四冶社区3区","full_address":"江西省鹰潭市贵溪市花园街道四冶社区3区","info":""}},{"type":"Feature","geometry":{"type":"Point","coordinates":[117.187095,28.285464]},"properties":{"province":"江西省","city":"鹰潭市","county":"贵溪市","community":"滨江镇御园小区","full_address":"江西省鹰潭市贵溪市滨江镇御园小区","info":""}},{"type":"Feature","geometry":{"type":"Point","coordinates":[117.195049,28.305886]},"properties":{"province":"江西省","city":"鹰潭市","county":"贵溪市","community":"滨江镇黄坑村塘背组","full_address":"江西省鹰潭市贵溪市滨江镇黄坑村塘背组","info":""}},{"type":"Feature","geometry":{"type":"Point","coordinates":[117.238938,28.290104]},"properties":{"province":"江西省","city":"鹰潭市","county":"贵溪市","community":"花园街道晋兴社区福润印象城商场","full_address":"江西省鹰潭市贵溪市花园街道晋兴社区福润印象城商场","info":""}},{"type":"Feature","geometry":{"type":"Point","coordinates":[117.228249,28.291182]},"properties":{"province":"江西省","city":"鹰潭市","county":"贵溪市","community":"花园街道白果社区凤凰城小区123栋","full_address":"江西省鹰潭市贵溪市花园街道白果社区凤凰城小区123栋","info":""}},{"type":"Feature","geometry":{"type":"Point","coordinates":[117.209849,28.292644]},"properties":{"province":"江西省","city":"鹰潭市","county":"贵溪市","community":"东门街道雄石社区新都花苑小区（除1栋、5栋外）","full_address":"江西省鹰潭市贵溪市东门街道雄石社区新都花苑小区（除1栋、5栋外）","info":""}},{"type":"Feature","geometry":{"type":"Point","coordinates":[117.224703,28.282897]},"properties":{"province":"江西省","city":"鹰潭市","county":"贵溪市","community":"东门街道芗溪社区电厂东区（除6栋、13栋、阳光花苑G栋2单元外）","full_address":"江西省鹰潭市贵溪市东门街道芗溪社区电厂东区（除6栋、13栋、阳光花苑G栋2单元外）","info":""}},{"type":"Feature","geometry":{"type":"Point","coordinates":[117.226447,28.289037]},"properties":{"province":"江西省","city":"鹰潭市","county":"贵溪市","community":"东门街道筲箕山社区商场波浪街","full_address":"江西省鹰潭市贵溪市东门街道筲箕山社区商场波浪街","info":""}},{"type":"Feature","geometry":{"type":"Point","coordinates":[117.221573,28.273296]},"properties":{"province":"江西省","city":"鹰潭市","county":"贵溪市","community":"雄石街道仙桥社区福达家园小区（除瑞景楼外）","full_address":"江西省鹰潭市贵溪市雄石街道仙桥社区福达家园小区（除瑞景楼外）","info":""}},{"type":"Feature","geometry":{"type":"Point","coordinates":[117.202858,28.526333]},"properties":{"province":"江西省","city":"鹰潭市","county":"贵溪市","community":"周坊镇杨家村刘子华组","full_address":"江西省鹰潭市贵溪市周坊镇杨家村刘子华组","info":""}},{"type":"Feature","geometry":{"type":"Point","coordinates":[117.251201,28.332984]},"properties":{"province":"江西省","city":"鹰潭市","county":"贵溪市","community":"滨江镇滨江社区祥和小区","full_address":"江西省鹰潭市贵溪市滨江镇滨江社区祥和小区","info":""}},{"type":"Feature","geometry":{"type":"Point","coordinates":[117.17761,28.271693]},"properties":{"province":"江西省","city":"鹰潭市","county":"贵溪市","community":"滨江镇长石社区幸福小区","full_address":"江西省鹰潭市贵溪市滨江镇长石社区幸福小区","info":""}},{"type":"Feature","geometry":{"type":"Point","coordinates":[117.180706,28.371181]},"properties":{"province":"江西省","city":"鹰潭市","county":"贵溪市","community":"泗沥镇东洪村刑源组","full_address":"江西省鹰潭市贵溪市泗沥镇东洪村刑源组","info":""}},{"type":"Feature","geometry":{"type":"Point","coordinates":[117.210746,28.297872]},"properties":{"province":"江西省","city":"鹰潭市","county":"贵溪市","community":"东门街道城北社区和谐小区","full_address":"江西省鹰潭市贵溪市东门街道城北社区和谐小区","info":""}},{"type":"Feature","geometry":{"type":"Point","coordinates":[117.215577,28.283536]},"properties":{"province":"江西省","city":"鹰潭市","county":"贵溪市","community":"东门街道江边社区雄石东路国税局旁","full_address":"江西省鹰潭市贵溪市东门街道江边社区雄石东路国税局旁","info":""}},{"type":"Feature","geometry":{"type":"Point","coordinates":[117.216597,28.283792]},"properties":{"province":"江西省","city":"鹰潭市","county":"贵溪市","community":"东门街道江边社区木材公司宿舍楼","full_address":"江西省鹰潭市贵溪市东门街道江边社区木材公司宿舍楼","info":""}},{"type":"Feature","geometry":{"type":"Point","coordinates":[117.210782,28.295505]},"properties":{"province":"江西省","city":"鹰潭市","county":"贵溪市","community":"东门街道雄石社区柏里大道方家岭","full_address":"江西省鹰潭市贵溪市东门街道雄石社区柏里大道方家岭","info":""}},{"type":"Feature","geometry":{"type":"Point","coordinates":[117.211314,28.317085]},"properties":{"province":"江西省","city":"鹰潭市","county":"贵溪市","community":"滨江镇柏里村委会鲤塘组","full_address":"江西省鹰潭市贵溪市滨江镇柏里村委会鲤塘组","info":""}},{"type":"Feature","geometry":{"type":"Point","coordinates":[117.229104,28.448686]},"properties":{"province":"江西省","city":"鹰潭市","county":"贵溪市","community":"泗沥镇赤石村吕家组","full_address":"江西省鹰潭市贵溪市泗沥镇赤石村吕家组","info":""}},{"type":"Feature","geometry":{"type":"Point","coordinates":[117.134092,28.371587]},"properties":{"province":"江西省","city":"鹰潭市","county":"贵溪市","community":"泗沥镇何家村樊上何家组","full_address":"江西省鹰潭市贵溪市泗沥镇何家村樊上何家组","info":""}},{"type":"Feature","geometry":{"type":"Point","coordinates":[117.236779,28.294024]},"properties":{"province":"江西省","city":"鹰潭市","county":"贵溪市","community":"花园街道白果社区阳光时尚广场A1区","full_address":"江西省鹰潭市贵溪市花园街道白果社区阳光时尚广场A1区","info":""}},{"type":"Feature","geometry":{"type":"Point","coordinates":[117.020574,28.2384]},"properties":{"province":"江西省","city":"鹰潭市","county":"贵溪市","community":"花园街道花园社区江二组","full_address":"江西省鹰潭市贵溪市花园街道花园社区江二组","info":""}},{"type":"Feature","geometry":{"type":"Point","coordinates":[117.020574,28.2384]},"properties":{"province":"江西省","city":"鹰潭市","county":"贵溪市","community":"花园街道武陵社区中央公园","full_address":"江西省鹰潭市贵溪市花园街道武陵社区中央公园","info":""}},{"type":"Feature","geometry":{"type":"Point","coordinates":[117.224225,28.27878]},"properties":{"province":"江西省","city":"鹰潭市","county":"贵溪市","community":"花园街道武陵社区信江国际1期","full_address":"江西省鹰潭市贵溪市花园街道武陵社区信江国际1期","info":""}},{"type":"Feature","geometry":{"type":"Point","coordinates":[117.381661,28.102992]},"properties":{"province":"江西省","city":"鹰潭市","county":"贵溪市","community":"文坊镇沙垅村前进组","full_address":"江西省鹰潭市贵溪市文坊镇沙垅村前进组","info":""}},{"type":"Feature","geometry":{"type":"Point","coordinates":[117.221301,28.290043]},"properties":{"province":"江西省","city":"鹰潭市","county":"贵溪市","community":"东门街道石林社区嘉裕花苑小区","full_address":"江西省鹰潭市贵溪市东门街道石林社区嘉裕花苑小区","info":""}},{"type":"Feature","geometry":{"type":"Point","coordinates":[117.142054,27.998226]},"properties":{"province":"江西省","city":"鹰潭市","county":"贵溪市","community":"耳口乡圳上村","full_address":"江西省鹰潭市贵溪市耳口乡圳上村","info":""}},{"type":"Feature","geometry":{"type":"Point","coordinates":[117.319013,28.06544]},"properties":{"province":"江西省","city":"鹰潭市","county":"贵溪市","community":"文坊镇斗楼村、沙垅村","full_address":"江西省鹰潭市贵溪市文坊镇斗楼村、沙垅村","info":""}},{"type":"Feature","geometry":{"type":"Point","coordinates":[117.141674,28.156775]},"properties":{"province":"江西省","city":"鹰潭市","county":"贵溪市","community":"罗河镇太田村、翁源村、罗田村、新区、贵碧村、周家村","full_address":"江西省鹰潭市贵溪市罗河镇太田村、翁源村、罗田村、新区、贵碧村、周家村","info":""}},{"type":"Feature","geometry":{"type":"Point","coordinates":[117.194147,28.233093]},"properties":{"province":"江西省","city":"鹰潭市","county":"贵溪市","community":"雷溪镇张桥村、富港村","full_address":"江西省鹰潭市贵溪市雷溪镇张桥村、富港村","info":""}},{"type":"Feature","geometry":{"type":"Point","coordinates":[117.134092,28.371587]},"properties":{"province":"江西省","city":"鹰潭市","county":"贵溪市","community":"泗沥镇尹家村、中村村、东洪村、赤石村、何家村","full_address":"江西省鹰潭市贵溪市泗沥镇尹家村、中村村、东洪村、赤石村、何家村","info":""}},{"type":"Feature","geometry":{"type":"Point","coordinates":[117.148813,28.303727]},"properties":{"province":"江西省","city":"鹰潭市","county":"贵溪市","community":"滨江镇青石桥村、洪塘村、江南村、黄坑村、铜都村（除五里台吴家）、浮桥村、柏里村（除竹山组）、金沙村、江北村","full_address":"江西省鹰潭市贵溪市滨江镇青石桥村、洪塘村、江南村、黄坑村、铜都村（除五里台吴家）、浮桥村、柏里村（除竹山组）、金沙村、江北村","info":""}},{"type":"Feature","geometry":{"type":"Point","coordinates":[117.247166,28.235862]},"properties":{"province":"江西省","city":"鹰潭市","county":"贵溪市","community":"流口镇新溪村、横路村、李源村","full_address":"江西省鹰潭市贵溪市流口镇新溪村、横路村、李源村","info":""}},{"type":"Feature","geometry":{"type":"Point","coordinates":[117.274859,28.324829]},"properties":{"province":"江西省","city":"鹰潭市","county":"贵溪市","community":"河潭镇集镇、九夏村","full_address":"江西省鹰潭市贵溪市河潭镇集镇、九夏村","info":""}},{"type":"Feature","geometry":{"type":"Point","coordinates":[117.218409,28.289561]},"properties":{"province":"江西省","city":"鹰潭市","county":"贵溪市","community":"东门街道城北社区、雄石社区、木丝岭社区、江边社区、筲箕山社区、芗溪社区、贵电社区、石林社区","full_address":"江西省鹰潭市贵溪市东门街道城北社区、雄石社区、木丝岭社区、江边社区、筲箕山社区、芗溪社区、贵电社区、石林社区","info":""}},{"type":"Feature","geometry":{"type":"Point","coordinates":[117.205584,28.281802]},"properties":{"province":"江西省","city":"鹰潭市","county":"贵溪市","community":"雄石街道北街社区、西街社区、象山村、南街社区、仙桥社区、挂榜山社区、东街社区","full_address":"江西省鹰潭市贵溪市雄石街道北街社区、西街社区、象山村、南街社区、仙桥社区、挂榜山社区、东街社区","info":""}},{"type":"Feature","geometry":{"type":"Point","coordinates":[117.249823,28.290564]},"properties":{"province":"江西省","city":"鹰潭市","county":"贵溪市","community":"花园街道建设社区、紫金堂社区、白果社区、武陵社区、铜城社区、晋兴社区、花园社区、四冶社区","full_address":"江西省鹰潭市贵溪市花园街道建设社区、紫金堂社区、白果社区、武陵社区、铜城社区、晋兴社区、花园社区、四冶社区","info":""}},{"type":"Feature","geometry":{"type":"Point","coordinates":[117.245497,28.292519]},"properties":{"province":"江西省","city":"鹰潭市","county":"贵溪市","community":"彭弯乡集镇","full_address":"江西省鹰潭市贵溪市彭弯乡集镇","info":""}},{"type":"Feature","geometry":{"type":"Point","coordinates":[117.149913,28.199119]},"properties":{"province":"江西省","city":"鹰潭市","county":"贵溪市","community":"罗河镇杨桥村","full_address":"江西省鹰潭市贵溪市罗河镇杨桥村","info":""}},{"type":"Feature","geometry":{"type":"Point","coordinates":[117.137978,28.2602]},"properties":{"province":"江西省","city":"鹰潭市","county":"贵溪市","community":"罗河镇潜岭村、童源村","full_address":"江西省鹰潭市贵溪市罗河镇潜岭村、童源村","info":""}},{"type":"Feature","geometry":{"type":"Point","coordinates":[117.240909,28.31549]},"properties":{"province":"江西省","city":"鹰潭市","county":"贵溪市","community":"花园街道高石社区、贵化社区","full_address":"江西省鹰潭市贵溪市花园街道高石社区、贵化社区","info":""}},{"type":"Feature","geometry":{"type":"Point","coordinates":[117.192094,28.258935]},"properties":{"province":"江西省","city":"鹰潭市","county":"贵溪市","community":"雄石街道挂榜山社区","full_address":"江西省鹰潭市贵溪市雄石街道挂榜山社区","info":""}},{"type":"Feature","geometry":{"type":"Point","coordinates":[117.189753,28.28998]},"properties":{"province":"江西省","city":"鹰潭市","county":"贵溪市","community":"滨江镇浮桥村潭湾周家","full_address":"江西省鹰潭市贵溪市滨江镇浮桥村潭湾周家","info":""}},{"type":"Feature","geometry":{"type":"Point","coordinates":[117.214696,28.287539]},"properties":{"province":"江西省","city":"鹰潭市","county":"贵溪市","community":"东门街道信江社区","full_address":"江西省鹰潭市贵溪市东门街道信江社区","info":""}},{"type":"Feature","geometry":{"type":"Point","coordinates":[117.250407,28.274326]},"properties":{"province":"江西省","city":"鹰潭市","county":"贵溪市","community":"流口镇龙腾山庄小区","full_address":"江西省鹰潭市贵溪市流口镇龙腾山庄小区","info":""}},{"type":"Feature","geometry":{"type":"Point","coordinates":[117.051893,28.264648]},"properties":{"province":"江西省","city":"鹰潭市","county":"信江新区","community":"夏埠乡滨江社区恒大一期9栋","full_address":"江西省鹰潭市信江新区夏埠乡滨江社区恒大一期9栋","info":""}},{"type":"Feature","geometry":{"type":"Point","coordinates":[117.051893,28.264648]},"properties":{"province":"江西省","city":"鹰潭市","county":"信江新区","community":"夏埠乡滨江社区恒大二期（除26栋）所有楼栋","full_address":"江西省鹰潭市信江新区夏埠乡滨江社区恒大二期（除26栋）所有楼栋","info":""}},{"type":"Feature","geometry":{"type":"Point","coordinates":[117.044,28.259853]},"properties":{"province":"江西省","city":"鹰潭市","county":"信江新区","community":"夏埠乡祝家社区和佳园5栋","full_address":"江西省鹰潭市信江新区夏埠乡祝家社区和佳园5栋","info":""}},{"type":"Feature","geometry":{"type":"Point","coordinates":[112.159722,34.714531]},"properties":{"province":"河南省","city":"洛阳市","county":"新安县","community":"汉关街道河南社区利民小区5号楼之外的区域","full_address":"河南省洛阳市新安县汉关街道河南社区利民小区5号楼之外的区域","info":""}},{"type":"Feature","geometry":{"type":"Point","coordinates":[112.150874,34.726386]},"properties":{"province":"河南省","city":"洛阳市","county":"新安县","community":"汉关街道学林社区亚威金城1区","full_address":"河南省洛阳市新安县汉关街道学林社区亚威金城1区","info":""}},{"type":"Feature","geometry":{"type":"Point","coordinates":[112.4748,34.161569]},"properties":{"province":"河南省","city":"洛阳市","county":"汝阳县","community":"城关镇刘伶路北段今晚友聚饭店","full_address":"河南省洛阳市汝阳县城关镇刘伶路北段今晚友聚饭店","info":""}},{"type":"Feature","geometry":{"type":"Point","coordinates":[112.478357,34.151426]},"properties":{"province":"河南省","city":"洛阳市","county":"汝阳县","community":"城关镇刘伶路206号","full_address":"河南省洛阳市汝阳县城关镇刘伶路206号","info":""}},{"type":"Feature","geometry":{"type":"Point","coordinates":[112.477608,34.155047]},"properties":{"province":"河南省","city":"洛阳市","county":"汝阳县","community":"城关镇人民路西段85号","full_address":"河南省洛阳市汝阳县城关镇人民路西段85号","info":""}},{"type":"Feature","geometry":{"type":"Point","coordinates":[112.467915,34.151383]},"properties":{"province":"河南省","city":"洛阳市","county":"汝阳县","community":"城关镇隆盛路中段6号楼1门市","full_address":"河南省洛阳市汝阳县城关镇隆盛路中段6号楼1门市","info":""}},{"type":"Feature","geometry":{"type":"Point","coordinates":[112.474556,34.148672]},"properties":{"province":"河南省","city":"洛阳市","county":"汝阳县","community":"城关镇凤山南路139号","full_address":"河南省洛阳市汝阳县城关镇凤山南路139号","info":""}},{"type":"Feature","geometry":{"type":"Point","coordinates":[112.473968,34.15374]},"properties":{"province":"河南省","city":"洛阳市","county":"汝阳县","community":"城关镇人民路51号","full_address":"河南省洛阳市汝阳县城关镇人民路51号","info":""}},{"type":"Feature","geometry":{"type":"Point","coordinates":[111.18378,34.775704]},"properties":{"province":"河南省","city":"三门峡市","county":"湖滨区","community":"涧河街道六西社区域内除高风险区以外其他区域","full_address":"河南省三门峡市湖滨区涧河街道六西社区域内除高风险区以外其他区域","info":""}},{"type":"Feature","geometry":{"type":"Point","coordinates":[111.216673,34.780489]},"properties":{"province":"河南省","city":"三门峡市","county":"湖滨区","community":"湖滨街道桥西社区域内除高风险区以外其他区域","full_address":"河南省三门峡市湖滨区湖滨街道桥西社区域内除高风险区以外其他区域","info":""}},{"type":"Feature","geometry":{"type":"Point","coordinates":[111.187042,34.780091]},"properties":{"province":"河南省","city":"三门峡市","county":"湖滨区","community":"前进街道大岭路社区域内除高风险区以外其他区域","full_address":"河南省三门峡市湖滨区前进街道大岭路社区域内除高风险区以外其他区域","info":""}},{"type":"Feature","geometry":{"type":"Point","coordinates":[111.202319,34.787201]},"properties":{"province":"河南省","city":"三门峡市","county":"湖滨区","community":"前进街道六楼社区域内除高风险区以外其他区域","full_address":"河南省三门峡市湖滨区前进街道六楼社区域内除高风险区以外其他区域","info":""}},{"type":"Feature","geometry":{"type":"Point","coordinates":[111.222798,34.768526]},"properties":{"province":"河南省","city":"三门峡市","county":"湖滨区","community":"车站街道东风社区域内除高风险区以外其他区域","full_address":"河南省三门峡市湖滨区车站街道东风社区域内除高风险区以外其他区域","info":""}},{"type":"Feature","geometry":{"type":"Point","coordinates":[111.192849,34.770644]},"properties":{"province":"河南省","city":"三门峡市","county":"湖滨区","community":"涧河街道五原路社区域内除高风险区以外其他区域","full_address":"河南省三门峡市湖滨区涧河街道五原路社区域内除高风险区以外其他区域","info":""}},{"type":"Feature","geometry":{"type":"Point","coordinates":[111.211535,34.77508]},"properties":{"province":"河南省","city":"三门峡市","county":"湖滨区","community":"崖底街道师家渠村域内除高风险区以外其他区域","full_address":"河南省三门峡市湖滨区崖底街道师家渠村域内除高风险区以外其他区域","info":""}},{"type":"Feature","geometry":{"type":"Point","coordinates":[111.231324,34.75852]},"properties":{"province":"河南省","city":"三门峡市","county":"湖滨区","community":"车站街道峡东社区域内除高风险区以外其他区域","full_address":"河南省三门峡市湖滨区车站街道峡东社区域内除高风险区以外其他区域","info":""}},{"type":"Feature","geometry":{"type":"Point","coordinates":[111.227496,34.765492]},"properties":{"province":"河南省","city":"三门峡市","county":"湖滨区","community":"车站街道文峪社区域内除高风险区以外其他区域","full_address":"河南省三门峡市湖滨区车站街道文峪社区域内除高风险区以外其他区域","info":""}},{"type":"Feature","geometry":{"type":"Point","coordinates":[111.209967,34.754828]},"properties":{"province":"河南省","city":"三门峡市","county":"湖滨区","community":"涧河街道德馨苑社区域内除高风险区以外其他区域","full_address":"河南省三门峡市湖滨区涧河街道德馨苑社区域内除高风险区以外其他区域","info":""}},{"type":"Feature","geometry":{"type":"Point","coordinates":[111.212606,34.766886]},"properties":{"province":"河南省","city":"三门峡市","county":"湖滨区","community":"涧河街道文二社区域内除高风险区以外其他区域","full_address":"河南省三门峡市湖滨区涧河街道文二社区域内除高风险区以外其他区域","info":""}},{"type":"Feature","geometry":{"type":"Point","coordinates":[111.206079,34.786218]},"properties":{"province":"河南省","city":"三门峡市","county":"湖滨区","community":"湖滨街道建设社区域内除高风险区以外其他区域","full_address":"河南省三门峡市湖滨区湖滨街道建设社区域内除高风险区以外其他区域","info":""}},{"type":"Feature","geometry":{"type":"Point","coordinates":[111.225738,34.780968]},"properties":{"province":"河南省","city":"三门峡市","county":"湖滨区","community":"会兴街道上村域内除高风险区以外其他区域","full_address":"河南省三门峡市湖滨区会兴街道上村域内除高风险区以外其他区域","info":""}},{"type":"Feature","geometry":{"type":"Point","coordinates":[111.174557,34.765596]},"properties":{"province":"河南省","city":"三门峡市","county":"湖滨区","community":"崖底街道商务中心社区合鑫中央公园除高风险区外的其他区域","full_address":"河南省三门峡市湖滨区崖底街道商务中心社区合鑫中央公园除高风险区外的其他区域","info":""}},{"type":"Feature","geometry":{"type":"Point","coordinates":[115.342431,34.406641]},"properties":{"province":"河南省","city":"商丘市","county":"宁陵县","community":"柳河镇邵庄村委北郭庄村","full_address":"河南省商丘市宁陵县柳河镇邵庄村委北郭庄村","info":""}},{"type":"Feature","geometry":{"type":"Point","coordinates":[115.356512,34.591894]},"properties":{"province":"河南省","city":"商丘市","county":"宁陵县","community":"柳河镇梁庄村委梁庄村","full_address":"河南省商丘市宁陵县柳河镇梁庄村委梁庄村","info":""}},{"type":"Feature","geometry":{"type":"Point","coordinates":[116.403742,34.263704]},"properties":{"province":"河南省","city":"商丘市","county":"夏邑县","community":"韩道口镇政府路五金店（东到穆家饭庄、西到红绿灯十字路口、南到南环路、北到韩桑路）","full_address":"河南省商丘市夏邑县韩道口镇政府路五金店（东到穆家饭庄、西到红绿灯十字路口、南到南环路、北到韩桑路）","info":""}},{"type":"Feature","geometry":{"type":"Point","coordinates":[115.058182,32.135539]},"properties":{"province":"河南省","city":"信阳市","county":"潢川县","community":"东起旱湖路农贸市场入口，沿沟北中路至沟北东路南北各50米，沟北中路与沟北东路交叉口向南至沟北南路东西各50米","full_address":"河南省信阳市潢川县东起旱湖路农贸市场入口，沿沟北中路至沟北东路南北各50米，沟北中路与沟北东路交叉口向南至沟北南路东西各50米","info":""}},{"type":"Feature","geometry":{"type":"Point","coordinates":[115.05598,32.138426]},"properties":{"province":"河南省","city":"信阳市","county":"潢川县","community":"北起二环路、东至新生路、西起旱湖路、南至沟北南路（县汽车站除外）","full_address":"河南省信阳市潢川县北起二环路、东至新生路、西起旱湖路、南至沟北南路（县汽车站除外）","info":""}},{"type":"Feature","geometry":{"type":"Point","coordinates":[115.055689,32.136086]},"properties":{"province":"河南省","city":"信阳市","county":"潢川县","community":"汽车站全域","full_address":"河南省信阳市潢川县汽车站全域","info":""}},{"type":"Feature","geometry":{"type":"Point","coordinates":[114.324616,30.649714]},"properties":{"province":"湖北省","city":"武汉市","county":"黄陂区","community":"盘龙城经济开发区刘店村张医生诊所","full_address":"湖北省武汉市黄陂区盘龙城经济开发区刘店村张医生诊所","info":""}},{"type":"Feature","geometry":{"type":"Point","coordinates":[114.237797,30.712122]},"properties":{"province":"湖北省","city":"武汉市","county":"黄陂区","community":"盘龙城经济开发区洪福美境3栋","full_address":"湖北省武汉市黄陂区盘龙城经济开发区洪福美境3栋","info":""}},{"type":"Feature","geometry":{"type":"Point","coordinates":[114.31307,30.691875]},"properties":{"province":"湖北省","city":"武汉市","county":"黄陂区","community":"盘龙城经济开发区刘店龙辰丽湾1栋","full_address":"湖北省武汉市黄陂区盘龙城经济开发区刘店龙辰丽湾1栋","info":""}},{"type":"Feature","geometry":{"type":"Point","coordinates":[111.85735,31.775388]},"properties":{"province":"湖北省","city":"襄阳市","county":"南漳县","community":"金漳大道未来城小区","full_address":"湖北省襄阳市南漳县金漳大道未来城小区","info":""}},{"type":"Feature","geometry":{"type":"Point","coordinates":[112.581694,29.482198]},"properties":{"province":"湖南省","city":"岳阳市","county":"华容县","community":"章华镇兴南村","full_address":"湖南省岳阳市华容县章华镇兴南村","info":""}},{"type":"Feature","geometry":{"type":"Point","coordinates":[112.551863,29.534978]},"properties":{"province":"湖南省","city":"岳阳市","county":"华容县","community":"章华镇南门菜市场","full_address":"湖南省岳阳市华容县章华镇南门菜市场","info":""}},{"type":"Feature","geometry":{"type":"Point","coordinates":[113.277304,23.142339]},"properties":{"province":"广东省","city":"广州市","county":"越秀区","community":"登峰街东至麓景路，北至麓景路辅路、上塘街、北闸街，西至登峰小学交界，南至象岗街、北约街、平安里、东约直街一巷","full_address":"广东省广州市越秀区登峰街东至麓景路，北至麓景路辅路、上塘街、北闸街，西至登峰小学交界，南至象岗街、北约街、平安里、东约直街一巷","info":""}},{"type":"Feature","geometry":{"type":"Point","coordinates":[114.074234,22.525604]},"properties":{"province":"广东省","city":"深圳市","county":"福田区","community":"福田街道口岸社区御花园第16栋、第18栋、第19栋","full_address":"广东省深圳市福田区福田街道口岸社区御花园第16栋、第18栋、第19栋","info":""}},{"type":"Feature","geometry":{"type":"Point","coordinates":[114.085789,22.53359]},"properties":{"province":"广东省","city":"深圳市","county":"福田区","community":"南园街道赤尾社区御景华城第1栋A座","full_address":"广东省深圳市福田区南园街道赤尾社区御景华城第1栋A座","info":""}},{"type":"Feature","geometry":{"type":"Point","coordinates":[114.028376,22.52848]},"properties":{"province":"广东省","city":"深圳市","county":"福田区","community":"沙头街道上沙社区中洲滨海商业中心一期2栋A、B座","full_address":"广东省深圳市福田区沙头街道上沙社区中洲滨海商业中心一期2栋A、B座","info":""}},{"type":"Feature","geometry":{"type":"Point","coordinates":[114.100661,22.557067]},"properties":{"province":"广东省","city":"深圳市","county":"福田区","community":"园岭街道鹏盛社区鹏盛年华A栋","full_address":"广东省深圳市福田区园岭街道鹏盛社区鹏盛年华A栋","info":""}},{"type":"Feature","geometry":{"type":"Point","coordinates":[113.91655,22.542971]},"properties":{"province":"广东省","city":"深圳市","county":"南山区","community":"南头街道星海名城五期（除高风险区外）","full_address":"广东省深圳市南山区南头街道星海名城五期（除高风险区外）","info":""}},{"type":"Feature","geometry":{"type":"Point","coordinates":[113.927001,22.512044]},"properties":{"province":"广东省","city":"深圳市","county":"南山区","community":"粤海街道梦想家园（除高风险区外）","full_address":"广东省深圳市南山区粤海街道梦想家园（除高风险区外）","info":""}},{"type":"Feature","geometry":{"type":"Point","coordinates":[113.933862,22.48808]},"properties":{"province":"广东省","city":"深圳市","county":"南山区","community":"蛇口街道栖游家园（除高风险区外）","full_address":"广东省深圳市南山区蛇口街道栖游家园（除高风险区外）","info":""}},{"type":"Feature","geometry":{"type":"Point","coordinates":[113.919708,22.482768]},"properties":{"province":"广东省","city":"深圳市","county":"南山区","community":"招商街道双玺花园三期（除高风险区外）","full_address":"广东省深圳市南山区招商街道双玺花园三期（除高风险区外）","info":""}},{"type":"Feature","geometry":{"type":"Point","coordinates":[113.926685,22.519107]},"properties":{"province":"广东省","city":"深圳市","county":"南山区","community":"南山街道龙城新苑（除高风险区外）","full_address":"广东省深圳市南山区南山街道龙城新苑（除高风险区外）","info":""}},{"type":"Feature","geometry":{"type":"Point","coordinates":[113.823705,22.725787]},"properties":{"province":"广东省","city":"深圳市","county":"宝安区","community":"新桥街道万丰社区荣泰园一区101号","full_address":"广东省深圳市宝安区新桥街道万丰社区荣泰园一区101号","info":""}},{"type":"Feature","geometry":{"type":"Point","coordinates":[113.828575,22.730296]},"properties":{"province":"广东省","city":"深圳市","county":"宝安区","community":"新桥街道深圳书城宝安城","full_address":"广东省深圳市宝安区新桥街道深圳书城宝安城","info":""}},{"type":"Feature","geometry":{"type":"Point","coordinates":[113.829828,22.729257]},"properties":{"province":"广东省","city":"深圳市","county":"宝安区","community":"新桥街道中心路102号时代中心B座","full_address":"广东省深圳市宝安区新桥街道中心路102号时代中心B座","info":""}},{"type":"Feature","geometry":{"type":"Point","coordinates":[113.897546,22.559667]},"properties":{"province":"广东省","city":"深圳市","county":"宝安区","community":"新安街道海乐社区43区城中村自建房小区安乐三街（136号、138号、142号、146号、148号、150号）及海乐社区43区兴华一路北十四巷6号、7号、8号、9号","full_address":"广东省深圳市宝安区新安街道海乐社区43区城中村自建房小区安乐三街（136号、138号、142号、146号、148号、150号）及海乐社区43区兴华一路北十四巷6号、7号、8号、9号","info":""}},{"type":"Feature","geometry":{"type":"Point","coordinates":[113.86833,22.570616]},"properties":{"province":"广东省","city":"深圳市","county":"宝安区","community":"西乡街道渔业社区轻铁西十巷至西十六巷及轻铁花园818、819栋（除高风险区域以外）","full_address":"广东省深圳市宝安区西乡街道渔业社区轻铁西十巷至西十六巷及轻铁花园818、819栋（除高风险区域以外）","info":""}},{"type":"Feature","geometry":{"type":"Point","coordinates":[113.870606,22.577287]},"properties":{"province":"广东省","city":"深圳市","county":"宝安区","community":"西乡街道共乐社区宝莲新村四巷至十三巷围合区域、共乐小学、骏丰花园（除高风险区域以外，以实际围合为准）","full_address":"广东省深圳市宝安区西乡街道共乐社区宝莲新村四巷至十三巷围合区域、共乐小学、骏丰花园（除高风险区域以外，以实际围合为准）","info":""}},{"type":"Feature","geometry":{"type":"Point","coordinates":[114.107917,22.596658]},"properties":{"province":"广东省","city":"深圳市","county":"龙岗区","community":"布吉街道凤凰社区西环路何格统建楼生活区（除高风险区外）和布吉圩社区莲花山庄一村","full_address":"广东省深圳市龙岗区布吉街道凤凰社区西环路何格统建楼生活区（除高风险区外）和布吉圩社区莲花山庄一村","info":""}},{"type":"Feature","geometry":{"type":"Point","coordinates":[114.102153,22.610824]},"properties":{"province":"广东省","city":"深圳市","county":"龙岗区","community":"吉华街道水径社区石龙坑新村","full_address":"广东省深圳市龙岗区吉华街道水径社区石龙坑新村","info":""}},{"type":"Feature","geometry":{"type":"Point","coordinates":[114.115872,22.605393]},"properties":{"province":"广东省","city":"深圳市","county":"龙岗区","community":"布吉街道长龙社区吉华路、金利路、金鹏路、金龙路围合区域（高风险区和龙岗区第二人民医院黄码采样点除外）","full_address":"广东省深圳市龙岗区布吉街道长龙社区吉华路、金利路、金鹏路、金龙路围合区域（高风险区和龙岗区第二人民医院黄码采样点除外）","info":""}},{"type":"Feature","geometry":{"type":"Point","coordinates":[114.231615,22.549558]},"properties":{"province":"广东省","city":"深圳市","county":"盐田区","community":"沙头角街道沙盐路、官下路、金融路、公园路的围合区域（高风险区域除外）","full_address":"广东省深圳市盐田区沙头角街道沙盐路、官下路、金融路、公园路的围合区域（高风险区域除外）","info":""}},{"type":"Feature","geometry":{"type":"Point","coordinates":[114.233626,22.549915]},"properties":{"province":"广东省","city":"深圳市","county":"盐田区","community":"诗宁里小区（高风险区域除外）","full_address":"广东省深圳市盐田区诗宁里小区（高风险区域除外）","info":""}},{"type":"Feature","geometry":{"type":"Point","coordinates":[114.23389,22.550394]},"properties":{"province":"广东省","city":"深圳市","county":"盐田区","community":"文和园小区","full_address":"广东省深圳市盐田区文和园小区","info":""}},{"type":"Feature","geometry":{"type":"Point","coordinates":[114.028734,22.662186]},"properties":{"province":"广东省","city":"深圳市","county":"龙华区","community":"龙华街道和联社区弓村二区（除高风险区外）","full_address":"广东省深圳市龙华区龙华街道和联社区弓村二区（除高风险区外）","info":""}},{"type":"Feature","geometry":{"type":"Point","coordinates":[113.129139,23.552007]},"properties":{"province":"广东省","city":"清远市","county":"清城区","community":"龙塘镇银盏中心村全区域，银盏社区银一村、银二村、高桥村、盛泰工业园、泰基工业园（含生活配套区）","full_address":"广东省清远市清城区龙塘镇银盏中心村全区域，银盏社区银一村、银二村、高桥村、盛泰工业园、泰基工业园（含生活配套区）","info":""}},{"type":"Feature","geometry":{"type":"Point","coordinates":[113.94981,22.958339]},"properties":{"province":"广东省","city":"东莞市","county":"大朗镇","community":"朗东路18号大朗碧桂园小区","full_address":"广东省东莞市大朗镇朗东路18号大朗碧桂园小区","info":""}},{"type":"Feature","geometry":{"type":"Point","coordinates":[109.693746,18.316832]},"properties":{"province":"海南省","city":"三亚市","county":"海棠区","community":"湾坡村除新建小组、青塘小组外的区域","full_address":"海南省三亚市海棠区湾坡村除新建小组、青塘小组外的区域","info":""}},{"type":"Feature","geometry":{"type":"Point","coordinates":[109.732918,18.377865]},"properties":{"province":"海南省","city":"三亚市","county":"海棠区","community":"龙海风情小镇G、H、J区","full_address":"海南省三亚市海棠区龙海风情小镇G、H、J区","info":""}},{"type":"Feature","geometry":{"type":"Point","coordinates":[109.728242,18.409977]},"properties":{"province":"海南省","city":"三亚市","county":"海棠区","community":"南田居巨龙队芒果坡","full_address":"海南省三亚市海棠区南田居巨龙队芒果坡","info":""}},{"type":"Feature","geometry":{"type":"Point","coordinates":[109.567815,18.284968]},"properties":{"province":"海南省","city":"三亚市","county":"吉阳区","community":"龙坡社区","full_address":"海南省三亚市吉阳区龙坡社区","info":""}},{"type":"Feature","geometry":{"type":"Point","coordinates":[109.537709,18.294574]},"properties":{"province":"海南省","city":"三亚市","county":"吉阳区","community":"卓达社区除同心家园五期北区","full_address":"海南省三亚市吉阳区卓达社区除同心家园五期北区","info":""}},{"type":"Feature","geometry":{"type":"Point","coordinates":[109.581738,18.273569]},"properties":{"province":"海南省","city":"三亚市","county":"吉阳区","community":"红土坎村第一、二、三、四网格","full_address":"海南省三亚市吉阳区红土坎村第一、二、三、四网格","info":""}},{"type":"Feature","geometry":{"type":"Point","coordinates":[109.523831,18.286562]},"properties":{"province":"海南省","city":"三亚市","county":"吉阳区","community":"东岸村","full_address":"海南省三亚市吉阳区东岸村","info":""}},{"type":"Feature","geometry":{"type":"Point","coordinates":[109.595309,18.289902]},"properties":{"province":"海南省","city":"三亚市","county":"吉阳区","community":"新村居委会第一、三、四、五、七网格","full_address":"海南省三亚市吉阳区新村居委会第一、三、四、五、七网格","info":""}},{"type":"Feature","geometry":{"type":"Point","coordinates":[109.530557,18.281391]},"properties":{"province":"海南省","city":"三亚市","county":"吉阳区","community":"海罗村","full_address":"海南省三亚市吉阳区海罗村","info":""}},{"type":"Feature","geometry":{"type":"Point","coordinates":[109.608359,18.304777]},"properties":{"province":"海南省","city":"三亚市","county":"吉阳区","community":"经济场","full_address":"海南省三亚市吉阳区经济场","info":""}},{"type":"Feature","geometry":{"type":"Point","coordinates":[109.51155,18.268785]},"properties":{"province":"海南省","city":"三亚市","county":"吉阳区","community":"新月社区第一、五网格","full_address":"海南省三亚市吉阳区新月社区第一、五网格","info":""}},{"type":"Feature","geometry":{"type":"Point","coordinates":[109.516638,18.30522]},"properties":{"province":"海南省","city":"三亚市","county":"吉阳区","community":"抱坡村委会第一、三、五、六、七网格","full_address":"海南省三亚市吉阳区抱坡村委会第一、三、五、六、七网格","info":""}},{"type":"Feature","geometry":{"type":"Point","coordinates":[109.555439,18.293829]},"properties":{"province":"海南省","city":"三亚市","county":"吉阳区","community":"荔枝沟社区第三网格","full_address":"海南省三亚市吉阳区荔枝沟社区第三网格","info":""}},{"type":"Feature","geometry":{"type":"Point","coordinates":[109.539176,18.303024]},"properties":{"province":"海南省","city":"三亚市","county":"吉阳区","community":"南丁村委会除南丁生态产业园","full_address":"海南省三亚市吉阳区南丁村委会除南丁生态产业园","info":""}},{"type":"Feature","geometry":{"type":"Point","coordinates":[109.52281,18.28335]},"properties":{"province":"海南省","city":"三亚市","county":"吉阳区","community":"春河东岸小区","full_address":"海南省三亚市吉阳区春河东岸小区","info":""}},{"type":"Feature","geometry":{"type":"Point","coordinates":[109.572614,18.268847]},"properties":{"province":"海南省","city":"三亚市","county":"吉阳区","community":"榆红村第三、四、七、九网格","full_address":"海南省三亚市吉阳区榆红村第三、四、七、九网格","info":""}},{"type":"Feature","geometry":{"type":"Point","coordinates":[109.522633,18.295683]},"properties":{"province":"海南省","city":"三亚市","county":"吉阳区","community":"南新居第一、四、九、十一、十二、十三、十五网格","full_address":"海南省三亚市吉阳区南新居第一、四、九、十一、十二、十三、十五网格","info":""}},{"type":"Feature","geometry":{"type":"Point","coordinates":[109.51713,18.264809]},"properties":{"province":"海南省","city":"三亚市","county":"吉阳区","community":"春光社区","full_address":"海南省三亚市吉阳区春光社区","info":""}},{"type":"Feature","geometry":{"type":"Point","coordinates":[109.57833,18.281397]},"properties":{"province":"海南省","city":"三亚市","county":"吉阳区","community":"海澜社区第一、二、四、五网格","full_address":"海南省三亚市吉阳区海澜社区第一、二、四、五网格","info":""}},{"type":"Feature","geometry":{"type":"Point","coordinates":[109.491658,18.213091]},"properties":{"province":"海南省","city":"三亚市","county":"吉阳区","community":"鹿回头社区","full_address":"海南省三亚市吉阳区鹿回头社区","info":""}},{"type":"Feature","geometry":{"type":"Point","coordinates":[109.560299,18.24092]},"properties":{"province":"海南省","city":"三亚市","county":"吉阳区","community":"红沙社区第四、六、七、八、九、十一、十二网格","full_address":"海南省三亚市吉阳区红沙社区第四、六、七、八、九、十一、十二网格","info":""}},{"type":"Feature","geometry":{"type":"Point","coordinates":[109.570667,18.279998]},"properties":{"province":"海南省","city":"三亚市","county":"吉阳区","community":"干沟村第一、三、四、八网格","full_address":"海南省三亚市吉阳区干沟村第一、三、四、八网格","info":""}},{"type":"Feature","geometry":{"type":"Point","coordinates":[109.611028,18.294887]},"properties":{"province":"海南省","city":"三亚市","county":"吉阳区","community":"田独村","full_address":"海南省三亚市吉阳区田独村","info":""}},{"type":"Feature","geometry":{"type":"Point","coordinates":[109.512696,18.281405]},"properties":{"province":"海南省","city":"三亚市","county":"吉阳区","community":"丹州社区第一、二、三、六网格","full_address":"海南省三亚市吉阳区丹州社区第一、二、三、六网格","info":""}},{"type":"Feature","geometry":{"type":"Point","coordinates":[109.521819,18.223633]},"properties":{"province":"海南省","city":"三亚市","county":"吉阳区","community":"大东海社区第一、二、三、六网格","full_address":"海南省三亚市吉阳区大东海社区第一、二、三、六网格","info":""}},{"type":"Feature","geometry":{"type":"Point","coordinates":[109.499194,18.2701]},"properties":{"province":"海南省","city":"三亚市","county":"吉阳区","community":"月河社区","full_address":"海南省三亚市吉阳区月河社区","info":""}},{"type":"Feature","geometry":{"type":"Point","coordinates":[109.641393,18.239059]},"properties":{"province":"海南省","city":"三亚市","county":"吉阳区","community":"亚龙湾片区","full_address":"海南省三亚市吉阳区亚龙湾片区","info":""}},{"type":"Feature","geometry":{"type":"Point","coordinates":[109.483586,18.316036]},"properties":{"province":"海南省","city":"三亚市","county":"天涯区","community":"槟榔村","full_address":"海南省三亚市天涯区槟榔村","info":""}},{"type":"Feature","geometry":{"type":"Point","coordinates":[109.506149,18.286814]},"properties":{"province":"海南省","city":"三亚市","county":"天涯区","community":"岭北社区除金鸡岭市政府保障房小区、怡和豪庭小区","full_address":"海南省三亚市天涯区岭北社区除金鸡岭市政府保障房小区、怡和豪庭小区","info":""}},{"type":"Feature","geometry":{"type":"Point","coordinates":[109.485375,18.286168]},"properties":{"province":"海南省","city":"三亚市","county":"天涯区","community":"育春路社区除南方南方航空城、凯丰花园小区","full_address":"海南省三亚市天涯区育春路社区除南方南方航空城、凯丰花园小区","info":""}},{"type":"Feature","geometry":{"type":"Point","coordinates":[109.493896,18.293065]},"properties":{"province":"海南省","city":"三亚市","county":"天涯区","community":"鸭仔塘社区第二网格","full_address":"海南省三亚市天涯区鸭仔塘社区第二网格","info":""}},{"type":"Feature","geometry":{"type":"Point","coordinates":[109.49785,18.2658]},"properties":{"province":"海南省","city":"三亚市","county":"天涯区","community":"友谊路社区第一、七网格","full_address":"海南省三亚市天涯区友谊路社区第一、七网格","info":""}},{"type":"Feature","geometry":{"type":"Point","coordinates":[109.490205,18.272515]},"properties":{"province":"海南省","city":"三亚市","county":"天涯区","community":"场站社区第三网格（除金泉星河小区）、五网格（除领海小区）","full_address":"海南省三亚市天涯区场站社区第三网格（除金泉星河小区）、五网格（除领海小区）","info":""}},{"type":"Feature","geometry":{"type":"Point","coordinates":[109.489933,18.271222]},"properties":{"province":"海南省","city":"三亚市","county":"天涯区","community":"机场路社区第三、七网格","full_address":"海南省三亚市天涯区机场路社区第三、七网格","info":""}},{"type":"Feature","geometry":{"type":"Point","coordinates":[109.498373,18.285716]},"properties":{"province":"海南省","city":"三亚市","county":"天涯区","community":"金鸡岭社区第四、六、七网格","full_address":"海南省三亚市天涯区金鸡岭社区第四、六、七网格","info":""}},{"type":"Feature","geometry":{"type":"Point","coordinates":[109.388656,18.296868]},"properties":{"province":"海南省","city":"三亚市","county":"天涯区","community":"桶井村第二、三、五网格","full_address":"海南省三亚市天涯区桶井村第二、三、五网格","info":""}},{"type":"Feature","geometry":{"type":"Point","coordinates":[109.508732,18.235073]},"properties":{"province":"海南省","city":"三亚市","county":"天涯区","community":"榆港社区第一、二、四、五、六、七网格","full_address":"海南省三亚市天涯区榆港社区第一、二、四、五、六、七网格","info":""}},{"type":"Feature","geometry":{"type":"Point","coordinates":[109.332122,18.335441]},"properties":{"province":"海南省","city":"三亚市","county":"天涯区","community":"文门村委会上中下那后小组","full_address":"海南省三亚市天涯区文门村委会上中下那后小组","info":""}},{"type":"Feature","geometry":{"type":"Point","coordinates":[109.477305,18.28331]},"properties":{"province":"海南省","city":"三亚市","county":"天涯区","community":"回新社区第一、四、七网格","full_address":"海南省三亚市天涯区回新社区第一、四、七网格","info":""}},{"type":"Feature","geometry":{"type":"Point","coordinates":[109.498746,18.260277]},"properties":{"province":"海南省","city":"三亚市","county":"天涯区","community":"朝阳社区第七网格","full_address":"海南省三亚市天涯区朝阳社区第七网格","info":""}},{"type":"Feature","geometry":{"type":"Point","coordinates":[109.509221,18.22266]},"properties":{"province":"海南省","city":"三亚市","county":"天涯区","community":"南海社区第五网格","full_address":"海南省三亚市天涯区南海社区第五网格","info":""}},{"type":"Feature","geometry":{"type":"Point","coordinates":[109.176052,18.34999]},"properties":{"province":"海南省","city":"三亚市","county":"崖州区","community":"南滨居南滨兴滨路西片区（西至科宝酒店，东至南滨路口， 南至G225国道，北至万桂花园）","full_address":"海南省三亚市崖州区南滨居南滨兴滨路西片区（西至科宝酒店，东至南滨路口， 南至G225国道，北至万桂花园）","info":""}},{"type":"Feature","geometry":{"type":"Point","coordinates":[109.458894,19.507168]},"properties":{"province":"海南省","city":"儋州市","county":"市辖区","community":"白马井镇禾能村委会区域","full_address":"海南省儋州市市辖区白马井镇禾能村委会区域","info":""}},{"type":"Feature","geometry":{"type":"Point","coordinates":[109.218734,19.696407]},"properties":{"province":"海南省","city":"儋州市","county":"市辖区","community":"白马井镇福村村","full_address":"海南省儋州市市辖区白马井镇福村村","info":""}},{"type":"Feature","geometry":{"type":"Point","coordinates":[109.35023,19.80393]},"properties":{"province":"海南省","city":"儋州市","county":"市辖区","community":"木棠镇墟","full_address":"海南省儋州市市辖区木棠镇墟","info":""}},{"type":"Feature","geometry":{"type":"Point","coordinates":[109.667295,19.550804]},"properties":{"province":"海南省","city":"儋州市","county":"市辖区","community":"和庆镇木排热作场","full_address":"海南省儋州市市辖区和庆镇木排热作场","info":""}},{"type":"Feature","geometry":{"type":"Point","coordinates":[109.597305,19.507419]},"properties":{"province":"海南省","city":"儋州市","county":"市辖区","community":"南丰镇南丰社区","full_address":"海南省儋州市市辖区南丰镇南丰社区","info":""}},{"type":"Feature","geometry":{"type":"Point","coordinates":[109.581762,19.522664]},"properties":{"province":"海南省","city":"儋州市","county":"市辖区","community":"那大镇先锋社区（除高风险区外）","full_address":"海南省儋州市市辖区那大镇先锋社区（除高风险区外）","info":""}},{"type":"Feature","geometry":{"type":"Point","coordinates":[109.574497,19.511094]},"properties":{"province":"海南省","city":"儋州市","county":"市辖区","community":"那大镇解放社区（除高风险区外）","full_address":"海南省儋州市市辖区那大镇解放社区（除高风险区外）","info":""}},{"type":"Feature","geometry":{"type":"Point","coordinates":[109.594022,19.542165]},"properties":{"province":"海南省","city":"儋州市","county":"市辖区","community":"那大镇城北社区：丰华苑小区、丰华和家园小区、鼎尚公馆","full_address":"海南省儋州市市辖区那大镇城北社区：丰华苑小区、丰华和家园小区、鼎尚公馆","info":""}},{"type":"Feature","geometry":{"type":"Point","coordinates":[109.592065,19.509734]},"properties":{"province":"海南省","city":"儋州市","county":"市辖区","community":"那大镇东风社区：清平小区、武侯村","full_address":"海南省儋州市市辖区那大镇东风社区：清平小区、武侯村","info":""}},{"type":"Feature","geometry":{"type":"Point","coordinates":[109.57085,19.51597]},"properties":{"province":"海南省","city":"儋州市","county":"市辖区","community":"那大镇那恁村委会","full_address":"海南省儋州市市辖区那大镇那恁村委会","info":""}},{"type":"Feature","geometry":{"type":"Point","coordinates":[109.534853,19.533024]},"properties":{"province":"海南省","city":"儋州市","county":"市辖区","community":"那大镇头潭村委会","full_address":"海南省儋州市市辖区那大镇头潭村委会","info":""}},{"type":"Feature","geometry":{"type":"Point","coordinates":[109.458894,19.507168]},"properties":{"province":"海南省","city":"儋州市","county":"市辖区","community":"那大镇蔬菜村委会","full_address":"海南省儋州市市辖区那大镇蔬菜村委会","info":""}},{"type":"Feature","geometry":{"type":"Point","coordinates":[109.592872,19.531]},"properties":{"province":"海南省","city":"儋州市","county":"市辖区","community":"那大镇王桐村委会","full_address":"海南省儋州市市辖区那大镇王桐村委会","info":""}},{"type":"Feature","geometry":{"type":"Point","coordinates":[109.590425,19.501382]},"properties":{"province":"海南省","city":"儋州市","county":"市辖区","community":"那大镇清平村委会","full_address":"海南省儋州市市辖区那大镇清平村委会","info":""}},{"type":"Feature","geometry":{"type":"Point","coordinates":[109.458894,19.507168]},"properties":{"province":"海南省","city":"儋州市","county":"市辖区","community":"那大镇红旗村委会","full_address":"海南省儋州市市辖区那大镇红旗村委会","info":""}},{"type":"Feature","geometry":{"type":"Point","coordinates":[109.547679,19.516257]},"properties":{"province":"海南省","city":"儋州市","county":"市辖区","community":"那大镇东干社区","full_address":"海南省儋州市市辖区那大镇东干社区","info":""}},{"type":"Feature","geometry":{"type":"Point","coordinates":[109.574482,19.529124]},"properties":{"province":"海南省","city":"儋州市","county":"市辖区","community":"那大镇茶山村委会区域","full_address":"海南省儋州市市辖区那大镇茶山村委会区域","info":""}},{"type":"Feature","geometry":{"type":"Point","coordinates":[109.526823,19.502645]},"properties":{"province":"海南省","city":"儋州市","county":"市辖区","community":"那大镇铺仔社区","full_address":"海南省儋州市市辖区那大镇铺仔社区","info":""}},{"type":"Feature","geometry":{"type":"Point","coordinates":[109.222772,19.688423]},"properties":{"province":"海南省","city":"儋州市","county":"市辖区","community":"白马井镇寨基村","full_address":"海南省儋州市市辖区白马井镇寨基村","info":""}},{"type":"Feature","geometry":{"type":"Point","coordinates":[109.221805,19.696121]},"properties":{"province":"海南省","city":"儋州市","county":"市辖区","community":"白马井镇墟中七路","full_address":"海南省儋州市市辖区白马井镇墟中七路","info":""}},{"type":"Feature","geometry":{"type":"Point","coordinates":[109.567105,19.530034]},"properties":{"province":"海南省","city":"儋州市","county":"市辖区","community":"那大镇西干社区（除高险区以外）","full_address":"海南省儋州市市辖区那大镇西干社区（除高险区以外）","info":""}},{"type":"Feature","geometry":{"type":"Point","coordinates":[109.585436,19.513964]},"properties":{"province":"海南省","city":"儋州市","county":"市辖区","community":"那大镇东风社区（除高险区以外）","full_address":"海南省儋州市市辖区那大镇东风社区（除高险区以外）","info":""}},{"type":"Feature","geometry":{"type":"Point","coordinates":[109.749909,19.544077]},"properties":{"province":"海南省","city":"儋州市","county":"市辖区","community":"那大镇尖岭片区（除高险区以外）","full_address":"海南省儋州市市辖区那大镇尖岭片区（除高险区以外）","info":""}},{"type":"Feature","geometry":{"type":"Point","coordinates":[109.583184,19.502735]},"properties":{"province":"海南省","city":"儋州市","county":"市辖区","community":"那大镇群英社区（除高险区以外）","full_address":"海南省儋州市市辖区那大镇群英社区（除高险区以外）","info":""}},{"type":"Feature","geometry":{"type":"Point","coordinates":[109.550672,19.538221]},"properties":{"province":"海南省","city":"儋州市","county":"市辖区","community":"那大镇军屯村委会（除高险区以外）","full_address":"海南省儋州市市辖区那大镇军屯村委会（除高险区以外）","info":""}},{"type":"Feature","geometry":{"type":"Point","coordinates":[109.57243,19.508936]},"properties":{"province":"海南省","city":"儋州市","county":"市辖区","community":"那大镇胜利社区（除高险区以外）","full_address":"海南省儋州市市辖区那大镇胜利社区（除高险区以外）","info":""}},{"type":"Feature","geometry":{"type":"Point","coordinates":[109.570392,19.506223]},"properties":{"province":"海南省","city":"儋州市","county":"市辖区","community":"那大镇大同社区（除高险区以外）","full_address":"海南省儋州市市辖区那大镇大同社区（除高险区以外）","info":""}},{"type":"Feature","geometry":{"type":"Point","coordinates":[109.228486,19.708544]},"properties":{"province":"海南省","city":"儋州市","county":"市辖区","community":"白马井镇马口井村","full_address":"海南省儋州市市辖区白马井镇马口井村","info":""}},{"type":"Feature","geometry":{"type":"Point","coordinates":[109.185099,19.740525]},"properties":{"province":"海南省","city":"儋州市","county":"市辖区","community":"光村镇泊潮居委会区域","full_address":"海南省儋州市市辖区光村镇泊潮居委会区域","info":""}},{"type":"Feature","geometry":{"type":"Point","coordinates":[109.279132,19.709133]},"properties":{"province":"海南省","city":"儋州市","county":"市辖区","community":"新州镇英均村","full_address":"海南省儋州市市辖区新州镇英均村","info":""}},{"type":"Feature","geometry":{"type":"Point","coordinates":[109.240259,19.810107]},"properties":{"province":"海南省","city":"儋州市","county":"市辖区","community":"洋浦片区三都区颜村","full_address":"海南省儋州市市辖区洋浦片区三都区颜村","info":""}},{"type":"Feature","geometry":{"type":"Point","coordinates":[109.562507,19.567192]},"properties":{"province":"海南省","city":"儋州市","county":"市辖区","community":"那大镇槟榔村委会区域","full_address":"海南省儋州市市辖区那大镇槟榔村委会区域","info":""}},{"type":"Feature","geometry":{"type":"Point","coordinates":[109.449735,19.506717]},"properties":{"province":"海南省","city":"儋州市","county":"市辖区","community":"排浦镇南华墟","full_address":"海南省儋州市市辖区排浦镇南华墟","info":""}},{"type":"Feature","geometry":{"type":"Point","coordinates":[110.392279,18.807261]},"properties":{"province":"海南省","city":"省直辖县级行政单位","county":"万宁市","community":"万城镇新海社区排溪村","full_address":"海南省省直辖县级行政单位万宁市万城镇新海社区排溪村","info":""}},{"type":"Feature","geometry":{"type":"Point","coordinates":[110.401814,18.714928]},"properties":{"province":"海南省","city":"省直辖县级行政单位","county":"万宁市","community":"东澳镇全域","full_address":"海南省省直辖县级行政单位万宁市东澳镇全域","info":""}},{"type":"Feature","geometry":{"type":"Point","coordinates":[110.460944,18.791659]},"properties":{"province":"海南省","city":"省直辖县级行政单位","county":"万宁市","community":"万城镇南岛村委会","full_address":"海南省省直辖县级行政单位万宁市万城镇南岛村委会","info":""}},{"type":"Feature","geometry":{"type":"Point","coordinates":[110.376935,18.789939]},"properties":{"province":"海南省","city":"省直辖县级行政单位","county":"万宁市","community":"万城镇丰园社区","full_address":"海南省省直辖县级行政单位万宁市万城镇丰园社区","info":""}},{"type":"Feature","geometry":{"type":"Point","coordinates":[110.438722,18.759402]},"properties":{"province":"海南省","city":"省直辖县级行政单位","county":"万宁市","community":"万城镇流溪村委会","full_address":"海南省省直辖县级行政单位万宁市万城镇流溪村委会","info":""}},{"type":"Feature","geometry":{"type":"Point","coordinates":[110.503533,18.856434]},"properties":{"province":"海南省","city":"省直辖县级行政单位","county":"万宁市","community":"和乐镇英豪村委会","full_address":"海南省省直辖县级行政单位万宁市和乐镇英豪村委会","info":""}},{"type":"Feature","geometry":{"type":"Point","coordinates":[110.383914,18.829586]},"properties":{"province":"海南省","city":"省直辖县级行政单位","county":"万宁市","community":"大茂镇红石村委会","full_address":"海南省省直辖县级行政单位万宁市大茂镇红石村委会","info":""}},{"type":"Feature","geometry":{"type":"Point","coordinates":[110.357611,18.766915]},"properties":{"province":"海南省","city":"省直辖县级行政单位","county":"万宁市","community":"礼纪镇合丰村委会","full_address":"海南省省直辖县级行政单位万宁市礼纪镇合丰村委会","info":""}},{"type":"Feature","geometry":{"type":"Point","coordinates":[110.296783,18.72128]},"properties":{"province":"海南省","city":"省直辖县级行政单位","county":"万宁市","community":"礼纪镇竹林村委会","full_address":"海南省省直辖县级行政单位万宁市礼纪镇竹林村委会","info":""}},{"type":"Feature","geometry":{"type":"Point","coordinates":[110.317655,18.75043]},"properties":{"province":"海南省","city":"省直辖县级行政单位","county":"万宁市","community":"礼纪镇礼纪墟","full_address":"海南省省直辖县级行政单位万宁市礼纪镇礼纪墟","info":""}},{"type":"Feature","geometry":{"type":"Point","coordinates":[110.329797,18.825979]},"properties":{"province":"海南省","city":"省直辖县级行政单位","county":"万宁市","community":"北大镇北大村委会","full_address":"海南省省直辖县级行政单位万宁市北大镇北大村委会","info":""}},{"type":"Feature","geometry":{"type":"Point","coordinates":[108.655603,19.051806]},"properties":{"province":"海南省","city":"省直辖县级行政单位","county":"东方市","community":"八所镇十所村","full_address":"海南省省直辖县级行政单位东方市八所镇十所村","info":""}},{"type":"Feature","geometry":{"type":"Point","coordinates":[108.669085,19.060119]},"properties":{"province":"海南省","city":"省直辖县级行政单位","county":"东方市","community":"八所镇罗带村","full_address":"海南省省直辖县级行政单位东方市八所镇罗带村","info":""}},{"type":"Feature","geometry":{"type":"Point","coordinates":[108.678718,19.110248]},"properties":{"province":"海南省","city":"省直辖县级行政单位","county":"东方市","community":"八所镇福耀村","full_address":"海南省省直辖县级行政单位东方市八所镇福耀村","info":""}},{"type":"Feature","geometry":{"type":"Point","coordinates":[108.686006,19.102489]},"properties":{"province":"海南省","city":"省直辖县级行政单位","county":"东方市","community":"八所镇皇宁村","full_address":"海南省省直辖县级行政单位东方市八所镇皇宁村","info":""}},{"type":"Feature","geometry":{"type":"Point","coordinates":[108.648631,19.108975]},"properties":{"province":"海南省","city":"省直辖县级行政单位","county":"东方市","community":"八所镇滨海社区","full_address":"海南省省直辖县级行政单位东方市八所镇滨海社区","info":""}},{"type":"Feature","geometry":{"type":"Point","coordinates":[108.672941,18.976578]},"properties":{"province":"海南省","city":"省直辖县级行政单位","county":"东方市","community":"新龙镇上通天村","full_address":"海南省省直辖县级行政单位东方市新龙镇上通天村","info":""}},{"type":"Feature","geometry":{"type":"Point","coordinates":[108.656074,18.977847]},"properties":{"province":"海南省","city":"省直辖县级行政单位","county":"东方市","community":"新龙镇下通天村","full_address":"海南省省直辖县级行政单位东方市新龙镇下通天村","info":""}},{"type":"Feature","geometry":{"type":"Point","coordinates":[108.678503,19.013781]},"properties":{"province":"海南省","city":"省直辖县级行政单位","county":"东方市","community":"新龙镇那斗村","full_address":"海南省省直辖县级行政单位东方市新龙镇那斗村","info":""}},{"type":"Feature","geometry":{"type":"Point","coordinates":[108.666448,18.998819]},"properties":{"province":"海南省","city":"省直辖县级行政单位","county":"东方市","community":"新龙镇道达村","full_address":"海南省省直辖县级行政单位东方市新龙镇道达村","info":""}},{"type":"Feature","geometry":{"type":"Point","coordinates":[108.681397,19.007711]},"properties":{"province":"海南省","city":"省直辖县级行政单位","county":"东方市","community":"新龙镇部道村","full_address":"海南省省直辖县级行政单位东方市新龙镇部道村","info":""}},{"type":"Feature","geometry":{"type":"Point","coordinates":[108.652194,18.867037]},"properties":{"province":"海南省","city":"省直辖县级行政单位","county":"东方市","community":"感城镇入学村","full_address":"海南省省直辖县级行政单位东方市感城镇入学村","info":""}},{"type":"Feature","geometry":{"type":"Point","coordinates":[108.665075,18.857202]},"properties":{"province":"海南省","city":"省直辖县级行政单位","county":"东方市","community":"感城镇宝东村","full_address":"海南省省直辖县级行政单位东方市感城镇宝东村","info":""}},{"type":"Feature","geometry":{"type":"Point","coordinates":[108.665075,18.857202]},"properties":{"province":"海南省","city":"省直辖县级行政单位","county":"东方市","community":"感城镇宝西村","full_address":"海南省省直辖县级行政单位东方市感城镇宝西村","info":""}},{"type":"Feature","geometry":{"type":"Point","coordinates":[108.663147,18.830623]},"properties":{"province":"海南省","city":"省直辖县级行政单位","county":"东方市","community":"感城镇凤亭村","full_address":"海南省省直辖县级行政单位东方市感城镇凤亭村","info":""}},{"type":"Feature","geometry":{"type":"Point","coordinates":[108.671014,18.8237]},"properties":{"province":"海南省","city":"省直辖县级行政单位","county":"东方市","community":"感城镇加富村","full_address":"海南省省直辖县级行政单位东方市感城镇加富村","info":""}},{"type":"Feature","geometry":{"type":"Point","coordinates":[108.867044,19.116177]},"properties":{"province":"海南省","city":"省直辖县级行政单位","county":"东方市","community":"大田镇俄乐村","full_address":"海南省省直辖县级行政单位东方市大田镇俄乐村","info":""}},{"type":"Feature","geometry":{"type":"Point","coordinates":[108.671776,19.105764]},"properties":{"province":"海南省","city":"省直辖县级行政单位","county":"东方市","community":"八所镇福民社区除高风险区以外的区域","full_address":"海南省省直辖县级行政单位东方市八所镇福民社区除高风险区以外的区域","info":""}},{"type":"Feature","geometry":{"type":"Point","coordinates":[108.634752,19.128052]},"properties":{"province":"海南省","city":"省直辖县级行政单位","county":"东方市","community":"八所镇琼西社区除高风险区以外的区域","full_address":"海南省省直辖县级行政单位东方市八所镇琼西社区除高风险区以外的区域","info":""}},{"type":"Feature","geometry":{"type":"Point","coordinates":[108.679578,19.114605]},"properties":{"province":"海南省","city":"省直辖县级行政单位","county":"东方市","community":"八所镇大占坡村除高风险区以外的区域","full_address":"海南省省直辖县级行政单位东方市八所镇大占坡村除高风险区以外的区域","info":""}},{"type":"Feature","geometry":{"type":"Point","coordinates":[108.708525,19.038829]},"properties":{"province":"海南省","city":"省直辖县级行政单位","county":"东方市","community":"八所镇下名山村除高风险区以外的区域","full_address":"海南省省直辖县级行政单位东方市八所镇下名山村除高风险区以外的区域","info":""}},{"type":"Feature","geometry":{"type":"Point","coordinates":[108.66742,19.09191]},"properties":{"province":"海南省","city":"省直辖县级行政单位","county":"东方市","community":"八所镇永安社区","full_address":"海南省省直辖县级行政单位东方市八所镇永安社区","info":""}},{"type":"Feature","geometry":{"type":"Point","coordinates":[108.700485,19.122762]},"properties":{"province":"海南省","city":"省直辖县级行政单位","county":"东方市","community":"八所镇蒲草村","full_address":"海南省省直辖县级行政单位东方市八所镇蒲草村","info":""}},{"type":"Feature","geometry":{"type":"Point","coordinates":[108.660156,19.079356]},"properties":{"province":"海南省","city":"省直辖县级行政单位","county":"东方市","community":"八所镇居龙村","full_address":"海南省省直辖县级行政单位东方市八所镇居龙村","info":""}},{"type":"Feature","geometry":{"type":"Point","coordinates":[108.649041,19.091716]},"properties":{"province":"海南省","city":"省直辖县级行政单位","county":"东方市","community":"八所镇八所村","full_address":"海南省省直辖县级行政单位东方市八所镇八所村","info":""}},{"type":"Feature","geometry":{"type":"Point","coordinates":[108.701947,19.092851]},"properties":{"province":"海南省","city":"省直辖县级行政单位","county":"东方市","community":"八所镇小岭村","full_address":"海南省省直辖县级行政单位东方市八所镇小岭村","info":""}},{"type":"Feature","geometry":{"type":"Point","coordinates":[108.660085,19.100379]},"properties":{"province":"海南省","city":"省直辖县级行政单位","county":"东方市","community":"八所镇东海社区","full_address":"海南省省直辖县级行政单位东方市八所镇东海社区","info":""}},{"type":"Feature","geometry":{"type":"Point","coordinates":[108.670604,19.092246]},"properties":{"province":"海南省","city":"省直辖县级行政单位","county":"东方市","community":"八所镇伴圆海社区","full_address":"海南省省直辖县级行政单位东方市八所镇伴圆海社区","info":""}},{"type":"Feature","geometry":{"type":"Point","coordinates":[108.679982,19.135096]},"properties":{"province":"海南省","city":"省直辖县级行政单位","county":"东方市","community":"八所镇新北社区","full_address":"海南省省直辖县级行政单位东方市八所镇新北社区","info":""}},{"type":"Feature","geometry":{"type":"Point","coordinates":[108.630778,19.090586]},"properties":{"province":"海南省","city":"省直辖县级行政单位","county":"东方市","community":"八所镇友谊社区","full_address":"海南省省直辖县级行政单位东方市八所镇友谊社区","info":""}},{"type":"Feature","geometry":{"type":"Point","coordinates":[108.645958,19.098731]},"properties":{"province":"海南省","city":"省直辖县级行政单位","county":"东方市","community":"八所镇解放社区","full_address":"海南省省直辖县级行政单位东方市八所镇解放社区","info":""}},{"type":"Feature","geometry":{"type":"Point","coordinates":[108.715137,19.06352]},"properties":{"province":"海南省","city":"省直辖县级行政单位","county":"东方市","community":"八所镇下红兴村","full_address":"海南省省直辖县级行政单位东方市八所镇下红兴村","info":""}},{"type":"Feature","geometry":{"type":"Point","coordinates":[108.682117,19.225616]},"properties":{"province":"海南省","city":"省直辖县级行政单位","county":"东方市","community":"四更镇四更镇墟","full_address":"海南省省直辖县级行政单位东方市四更镇四更镇墟","info":""}},{"type":"Feature","geometry":{"type":"Point","coordinates":[108.677985,19.228347]},"properties":{"province":"海南省","city":"省直辖县级行政单位","county":"东方市","community":"四更镇四更村(含四更新村)","full_address":"海南省省直辖县级行政单位东方市四更镇四更村(含四更新村)","info":""}},{"type":"Feature","geometry":{"type":"Point","coordinates":[108.704659,19.226953]},"properties":{"province":"海南省","city":"省直辖县级行政单位","county":"东方市","community":"四更镇四北村","full_address":"海南省省直辖县级行政单位东方市四更镇四北村","info":""}},{"type":"Feature","geometry":{"type":"Point","coordinates":[108.677985,19.228347]},"properties":{"province":"海南省","city":"省直辖县级行政单位","county":"东方市","community":"四更镇四南村","full_address":"海南省省直辖县级行政单位东方市四更镇四南村","info":""}},{"type":"Feature","geometry":{"type":"Point","coordinates":[108.677985,19.228347]},"properties":{"province":"海南省","city":"省直辖县级行政单位","county":"东方市","community":"四更镇四中村","full_address":"海南省省直辖县级行政单位东方市四更镇四中村","info":""}},{"type":"Feature","geometry":{"type":"Point","coordinates":[108.807543,19.120214]},"properties":{"province":"海南省","city":"省直辖县级行政单位","county":"东方市","community":"大田镇零公里猕猴岭管理区1巷17-1号","full_address":"海南省省直辖县级行政单位东方市大田镇零公里猕猴岭管理区1巷17-1号","info":""}},{"type":"Feature","geometry":{"type":"Point","coordinates":[110.124995,19.685795]},"properties":{"province":"海南省","city":"省直辖县级行政单位","county":"澄迈县","community":"加巨村村委会","full_address":"海南省省直辖县级行政单位澄迈县加巨村村委会","info":""}},{"type":"Feature","geometry":{"type":"Point","coordinates":[110.165578,19.70981]},"properties":{"province":"海南省","city":"省直辖县级行政单位","county":"澄迈县","community":"仙儒村委会","full_address":"海南省省直辖县级行政单位澄迈县仙儒村委会","info":""}},{"type":"Feature","geometry":{"type":"Point","coordinates":[110.129969,19.731864]},"properties":{"province":"海南省","city":"省直辖县级行政单位","county":"澄迈县","community":"瑞联村委会","full_address":"海南省省直辖县级行政单位澄迈县瑞联村委会","info":""}},{"type":"Feature","geometry":{"type":"Point","coordinates":[110.006755,19.738521]},"properties":{"province":"海南省","city":"省直辖县级行政单位","county":"澄迈县","community":"第一社区","full_address":"海南省省直辖县级行政单位澄迈县第一社区","info":""}},{"type":"Feature","geometry":{"type":"Point","coordinates":[110.006755,19.738521]},"properties":{"province":"海南省","city":"省直辖县级行政单位","county":"澄迈县","community":"第二社区","full_address":"海南省省直辖县级行政单位澄迈县第二社区","info":""}},{"type":"Feature","geometry":{"type":"Point","coordinates":[110.139416,19.720964]},"properties":{"province":"海南省","city":"省直辖县级行政单位","county":"澄迈县","community":"群庄村委会","full_address":"海南省省直辖县级行政单位澄迈县群庄村委会","info":""}},{"type":"Feature","geometry":{"type":"Point","coordinates":[110.152796,19.700337]},"properties":{"province":"海南省","city":"省直辖县级行政单位","county":"澄迈县","community":"村内村委会","full_address":"海南省省直辖县级行政单位澄迈县村内村委会","info":""}},{"type":"Feature","geometry":{"type":"Point","coordinates":[110.149693,19.699944]},"properties":{"province":"海南省","city":"省直辖县级行政单位","county":"澄迈县","community":"里加村委会","full_address":"海南省省直辖县级行政单位澄迈县里加村委会","info":""}},{"type":"Feature","geometry":{"type":"Point","coordinates":[110.12351,19.713711]},"properties":{"province":"海南省","city":"省直辖县级行政单位","county":"澄迈县","community":"南尖村委会","full_address":"海南省省直辖县级行政单位澄迈县南尖村委会","info":""}},{"type":"Feature","geometry":{"type":"Point","coordinates":[110.101443,19.728618]},"properties":{"province":"海南省","city":"省直辖县级行政单位","county":"澄迈县","community":"番丁村委会","full_address":"海南省省直辖县级行政单位澄迈县番丁村委会","info":""}},{"type":"Feature","geometry":{"type":"Point","coordinates":[110.10263,19.7097]},"properties":{"province":"海南省","city":"省直辖县级行政单位","county":"澄迈县","community":"山琼村委会","full_address":"海南省省直辖县级行政单位澄迈县山琼村委会","info":""}},{"type":"Feature","geometry":{"type":"Point","coordinates":[110.150211,19.727112]},"properties":{"province":"海南省","city":"省直辖县级行政单位","county":"澄迈县","community":"北桥村委会","full_address":"海南省省直辖县级行政单位澄迈县北桥村委会","info":""}},{"type":"Feature","geometry":{"type":"Point","coordinates":[109.623573,19.930811]},"properties":{"province":"海南省","city":"省直辖县级行政单位","county":"临高县","community":"新盈村委会隆安村","full_address":"海南省省直辖县级行政单位临高县新盈村委会隆安村","info":""}},{"type":"Feature","geometry":{"type":"Point","coordinates":[109.528589,19.890892]},"properties":{"province":"海南省","city":"省直辖县级行政单位","county":"临高县","community":"新盈村委会清雅村","full_address":"海南省省直辖县级行政单位临高县新盈村委会清雅村","info":""}},{"type":"Feature","geometry":{"type":"Point","coordinates":[109.536349,19.89513]},"properties":{"province":"海南省","city":"省直辖县级行政单位","county":"临高县","community":"新盈村委会正村","full_address":"海南省省直辖县级行政单位临高县新盈村委会正村","info":""}},{"type":"Feature","geometry":{"type":"Point","coordinates":[109.536349,19.89513]},"properties":{"province":"海南省","city":"省直辖县级行政单位","county":"临高县","community":"新盈村委会泮泗村","full_address":"海南省省直辖县级行政单位临高县新盈村委会泮泗村","info":""}},{"type":"Feature","geometry":{"type":"Point","coordinates":[109.53016,19.891194]},"properties":{"province":"海南省","city":"省直辖县级行政单位","county":"临高县","community":"新盈村委会永隆村","full_address":"海南省省直辖县级行政单位临高县新盈村委会永隆村","info":""}},{"type":"Feature","geometry":{"type":"Point","coordinates":[109.743247,19.736901]},"properties":{"province":"海南省","city":"省直辖县级行政单位","county":"临高县","community":"新盈村委会龙湾村","full_address":"海南省省直辖县级行政单位临高县新盈村委会龙湾村","info":""}},{"type":"Feature","geometry":{"type":"Point","coordinates":[109.523501,19.896252]},"properties":{"province":"海南省","city":"省直辖县级行政单位","county":"临高县","community":"新盈村委会道辽村","full_address":"海南省省直辖县级行政单位临高县新盈村委会道辽村","info":""}},{"type":"Feature","geometry":{"type":"Point","coordinates":[109.525973,19.872221]},"properties":{"province":"海南省","city":"省直辖县级行政单位","county":"临高县","community":"头咀村","full_address":"海南省省直辖县级行政单位临高县头咀村","info":""}},{"type":"Feature","geometry":{"type":"Point","coordinates":[109.536449,19.891957]},"properties":{"province":"海南省","city":"省直辖县级行政单位","county":"临高县","community":"新兴社区（含抱蛟村路口）","full_address":"海南省省直辖县级行政单位临高县新兴社区（含抱蛟村路口）","info":""}},{"type":"Feature","geometry":{"type":"Point","coordinates":[109.531128,19.886768]},"properties":{"province":"海南省","city":"省直辖县级行政单位","county":"临高县","community":"安全村委会佼依村","full_address":"海南省省直辖县级行政单位临高县安全村委会佼依村","info":""}},{"type":"Feature","geometry":{"type":"Point","coordinates":[109.531128,19.886768]},"properties":{"province":"海南省","city":"省直辖县级行政单位","county":"临高县","community":"安全村委会南村","full_address":"海南省省直辖县级行政单位临高县安全村委会南村","info":""}},{"type":"Feature","geometry":{"type":"Point","coordinates":[109.531128,19.886768]},"properties":{"province":"海南省","city":"省直辖县级行政单位","county":"临高县","community":"安全村委会中村","full_address":"海南省省直辖县级行政单位临高县安全村委会中村","info":""}},{"type":"Feature","geometry":{"type":"Point","coordinates":[109.531128,19.886768]},"properties":{"province":"海南省","city":"省直辖县级行政单位","county":"临高县","community":"安全村委会北村","full_address":"海南省省直辖县级行政单位临高县安全村委会北村","info":""}},{"type":"Feature","geometry":{"type":"Point","coordinates":[109.531128,19.886768]},"properties":{"province":"海南省","city":"省直辖县级行政单位","county":"临高县","community":"安全村委会农业队","full_address":"海南省省直辖县级行政单位临高县安全村委会农业队","info":""}},{"type":"Feature","geometry":{"type":"Point","coordinates":[109.531128,19.886768]},"properties":{"province":"海南省","city":"省直辖县级行政单位","county":"临高县","community":"安全村委会存车村","full_address":"海南省省直辖县级行政单位临高县安全村委会存车村","info":""}},{"type":"Feature","geometry":{"type":"Point","coordinates":[109.534007,19.900149]},"properties":{"province":"海南省","city":"省直辖县级行政单位","county":"临高县","community":"朗英村委会郎英村","full_address":"海南省省直辖县级行政单位临高县朗英村委会郎英村","info":""}},{"type":"Feature","geometry":{"type":"Point","coordinates":[109.534007,19.900149]},"properties":{"province":"海南省","city":"省直辖县级行政单位","county":"临高县","community":"朗英村委会博岸村","full_address":"海南省省直辖县级行政单位临高县朗英村委会博岸村","info":""}},{"type":"Feature","geometry":{"type":"Point","coordinates":[109.534007,19.900149]},"properties":{"province":"海南省","city":"省直辖县级行政单位","county":"临高县","community":"朗英村委会尚书村","full_address":"海南省省直辖县级行政单位临高县朗英村委会尚书村","info":""}},{"type":"Feature","geometry":{"type":"Point","coordinates":[109.539555,19.883116]},"properties":{"province":"海南省","city":"省直辖县级行政单位","county":"临高县","community":"和贵村委会乐春村","full_address":"海南省省直辖县级行政单位临高县和贵村委会乐春村","info":""}},{"type":"Feature","geometry":{"type":"Point","coordinates":[108.884484,18.475266]},"properties":{"province":"海南省","city":"省直辖县级行政单位","county":"乐东黎族自治县","community":"利国镇抱新村","full_address":"海南省省直辖县级行政单位乐东黎族自治县利国镇抱新村","info":""}},{"type":"Feature","geometry":{"type":"Point","coordinates":[108.731992,18.580314]},"properties":{"province":"海南省","city":"省直辖县级行政单位","county":"乐东黎族自治县","community":"佛罗镇佛北村","full_address":"海南省省直辖县级行政单位乐东黎族自治县佛罗镇佛北村","info":""}},{"type":"Feature","geometry":{"type":"Point","coordinates":[108.727339,18.552254]},"properties":{"province":"海南省","city":"省直辖县级行政单位","county":"乐东黎族自治县","community":"佛罗镇老孔村","full_address":"海南省省直辖县级行政单位乐东黎族自治县佛罗镇老孔村","info":""}},{"type":"Feature","geometry":{"type":"Point","coordinates":[108.812667,18.522589]},"properties":{"province":"海南省","city":"省直辖县级行政单位","county":"乐东黎族自治县","community":"黄流镇抱二村","full_address":"海南省省直辖县级行政单位乐东黎族自治县黄流镇抱二村","info":""}},{"type":"Feature","geometry":{"type":"Point","coordinates":[108.815174,18.482906]},"properties":{"province":"海南省","city":"省直辖县级行政单位","county":"乐东黎族自治县","community":"黄流镇多一村","full_address":"海南省省直辖县级行政单位乐东黎族自治县黄流镇多一村","info":""}},{"type":"Feature","geometry":{"type":"Point","coordinates":[108.816316,18.489985]},"properties":{"province":"海南省","city":"省直辖县级行政单位","county":"乐东黎族自治县","community":"黄流镇多二村","full_address":"海南省省直辖县级行政单位乐东黎族自治县黄流镇多二村","info":""}},{"type":"Feature","geometry":{"type":"Point","coordinates":[108.793057,18.504051]},"properties":{"province":"海南省","city":"省直辖县级行政单位","county":"乐东黎族自治县","community":"黄流镇君海湾龙腾金街商业区","full_address":"海南省省直辖县级行政单位乐东黎族自治县黄流镇君海湾龙腾金街商业区","info":""}},{"type":"Feature","geometry":{"type":"Point","coordinates":[108.779868,18.480557]},"properties":{"province":"海南省","city":"省直辖县级行政单位","county":"乐东黎族自治县","community":"黄流镇黄西村","full_address":"海南省省直辖县级行政单位乐东黎族自治县黄流镇黄西村","info":""}},{"type":"Feature","geometry":{"type":"Point","coordinates":[108.936273,18.470573]},"properties":{"province":"海南省","city":"省直辖县级行政单位","county":"乐东黎族自治县","community":"九所镇镜湖村","full_address":"海南省省直辖县级行政单位乐东黎族自治县九所镇镜湖村","info":""}},{"type":"Feature","geometry":{"type":"Point","coordinates":[109.118481,18.757595]},"properties":{"province":"海南省","city":"省直辖县级行政单位","county":"乐东黎族自治县","community":"抱由镇山荣村1队","full_address":"海南省省直辖县级行政单位乐东黎族自治县抱由镇山荣村1队","info":""}},{"type":"Feature","geometry":{"type":"Point","coordinates":[108.697349,18.510154]},"properties":{"province":"海南省","city":"省直辖县级行政单位","county":"乐东黎族自治县","community":"莺歌海镇除高风险区域外的村（居）","full_address":"海南省省直辖县级行政单位乐东黎族自治县莺歌海镇除高风险区域外的村（居）","info":""}},{"type":"Feature","geometry":{"type":"Point","coordinates":[108.792488,18.690415]},"properties":{"province":"海南省","city":"省直辖县级行政单位","county":"乐东黎族自治县","community":"尖峰镇除高风险区域外的村（居）","full_address":"海南省省直辖县级行政单位乐东黎族自治县尖峰镇除高风险区域外的村（居）","info":""}},{"type":"Feature","geometry":{"type":"Point","coordinates":[106.458294,29.549003]},"properties":{"province":"重庆市","city":"重庆市","county":"沙坪坝区","community":"天星桥正街、小龙坎正街、石小路、龙泉路、小龙坎新街、站南路、清溪路、天梨路、天马路、天星桥正街的合围区域中除高风险区外的其他区域","full_address":"重庆市重庆市沙坪坝区天星桥正街、小龙坎正街、石小路、龙泉路、小龙坎新街、站南路、清溪路、天梨路、天马路、天星桥正街的合围区域中除高风险区外的其他区域","info":""}},{"type":"Feature","geometry":{"type":"Point","coordinates":[106.457,29.545492]},"properties":{"province":"重庆市","city":"重庆市","county":"沙坪坝区","community":"天星桥街道制药村51号、52号、53号、87号、88号、89号、90号","full_address":"重庆市重庆市沙坪坝区天星桥街道制药村51号、52号、53号、87号、88号、89号、90号","info":""}},{"type":"Feature","geometry":{"type":"Point","coordinates":[106.458719,29.548846]},"properties":{"province":"重庆市","city":"重庆市","county":"沙坪坝区","community":"天星桥街道小龙坎正街333号风华大厦","full_address":"重庆市重庆市沙坪坝区天星桥街道小龙坎正街333号风华大厦","info":""}},{"type":"Feature","geometry":{"type":"Point","coordinates":[106.459934,29.548895]},"properties":{"province":"重庆市","city":"重庆市","county":"沙坪坝区","community":"天星桥街道小龙坎正街339号港城花园除高风险区外的区域","full_address":"重庆市重庆市沙坪坝区天星桥街道小龙坎正街339号港城花园除高风险区外的区域","info":""}},{"type":"Feature","geometry":{"type":"Point","coordinates":[106.447892,29.535363]},"properties":{"province":"重庆市","city":"重庆市","county":"沙坪坝区","community":"天星桥街道都市花园中路还建房50号—74号","full_address":"重庆市重庆市沙坪坝区天星桥街道都市花园中路还建房50号—74号","info":""}},{"type":"Feature","geometry":{"type":"Point","coordinates":[106.450332,29.547274]},"properties":{"province":"重庆市","city":"重庆市","county":"沙坪坝区","community":"天星桥街道晒光坪69号福源山庄小区","full_address":"重庆市重庆市沙坪坝区天星桥街道晒光坪69号福源山庄小区","info":""}},{"type":"Feature","geometry":{"type":"Point","coordinates":[106.452296,29.547513]},"properties":{"province":"重庆市","city":"重庆市","county":"沙坪坝区","community":"天星桥街道晒光坪56号篱岛生态小区","full_address":"重庆市重庆市沙坪坝区天星桥街道晒光坪56号篱岛生态小区","info":""}},{"type":"Feature","geometry":{"type":"Point","coordinates":[106.453398,29.548743]},"properties":{"province":"重庆市","city":"重庆市","county":"沙坪坝区","community":"天星桥街道晒光坪52号天星苑","full_address":"重庆市重庆市沙坪坝区天星桥街道晒光坪52号天星苑","info":""}},{"type":"Feature","geometry":{"type":"Point","coordinates":[106.453231,29.546108]},"properties":{"province":"重庆市","city":"重庆市","county":"沙坪坝区","community":"天星桥街道晒光坪3号、5号、7号、9号升伟新天地","full_address":"重庆市重庆市沙坪坝区天星桥街道晒光坪3号、5号、7号、9号升伟新天地","info":""}},{"type":"Feature","geometry":{"type":"Point","coordinates":[106.439739,29.523974]},"properties":{"province":"重庆市","city":"重庆市","county":"沙坪坝区","community":"新桥街道三陵雅园B区除高风险区外的其他区域","full_address":"重庆市重庆市沙坪坝区新桥街道三陵雅园B区除高风险区外的其他区域","info":""}},{"type":"Feature","geometry":{"type":"Point","coordinates":[106.462338,29.568455]},"properties":{"province":"重庆市","city":"重庆市","county":"沙坪坝区","community":"沙坪坝街道沙北街83号","full_address":"重庆市重庆市沙坪坝区沙坪坝街道沙北街83号","info":""}},{"type":"Feature","geometry":{"type":"Point","coordinates":[106.465385,29.565275]},"properties":{"province":"重庆市","city":"重庆市","county":"沙坪坝区","community":"沙坪坝街道沙正街174号高风险区以外的区域","full_address":"重庆市重庆市沙坪坝区沙坪坝街道沙正街174号高风险区以外的区域","info":""}},{"type":"Feature","geometry":{"type":"Point","coordinates":[106.446864,29.558403]},"properties":{"province":"重庆市","city":"重庆市","county":"沙坪坝区","community":"渝碚路街道杨梨路20号华宇西城丽景小区","full_address":"重庆市重庆市沙坪坝区渝碚路街道杨梨路20号华宇西城丽景小区","info":""}},{"type":"Feature","geometry":{"type":"Point","coordinates":[106.456131,29.559436]},"properties":{"province":"重庆市","city":"重庆市","county":"沙坪坝区","community":"渝碚路街道南友村14号、15号、16号、76号、77号、78号、79号、80号、81号、82号、84号","full_address":"重庆市重庆市沙坪坝区渝碚路街道南友村14号、15号、16号、76号、77号、78号、79号、80号、81号、82号、84号","info":""}},{"type":"Feature","geometry":{"type":"Point","coordinates":[106.455982,29.562416]},"properties":{"province":"重庆市","city":"重庆市","county":"沙坪坝区","community":"渝碚路街道向乐村89号","full_address":"重庆市重庆市沙坪坝区渝碚路街道向乐村89号","info":""}},{"type":"Feature","geometry":{"type":"Point","coordinates":[106.46331,29.555212]},"properties":{"province":"重庆市","city":"重庆市","county":"沙坪坝区","community":"渝碚路街道华宇广场11号巴渝楼","full_address":"重庆市重庆市沙坪坝区渝碚路街道华宇广场11号巴渝楼","info":""}},{"type":"Feature","geometry":{"type":"Point","coordinates":[106.449941,29.530456]},"properties":{"province":"重庆市","city":"重庆市","county":"沙坪坝区","community":"覃家岗街道凤天大道154号凤鸣戎苑小区","full_address":"重庆市重庆市沙坪坝区覃家岗街道凤天大道154号凤鸣戎苑小区","info":""}},{"type":"Feature","geometry":{"type":"Point","coordinates":[106.438578,29.54638]},"properties":{"province":"重庆市","city":"重庆市","county":"沙坪坝区","community":"覃家岗街道融汇温泉锦绣里小区（西区）","full_address":"重庆市重庆市沙坪坝区覃家岗街道融汇温泉锦绣里小区（西区）","info":""}},{"type":"Feature","geometry":{"type":"Point","coordinates":[106.453998,29.541456]},"properties":{"province":"重庆市","city":"重庆市","county":"沙坪坝区","community":"天星桥街道都市花园东路66号沙龙花园","full_address":"重庆市重庆市沙坪坝区天星桥街道都市花园东路66号沙龙花园","info":""}},{"type":"Feature","geometry":{"type":"Point","coordinates":[106.45324,29.54483]},"properties":{"province":"重庆市","city":"重庆市","county":"沙坪坝区","community":"天星桥街道天星桥正街46号附61号帛金大厦","full_address":"重庆市重庆市沙坪坝区天星桥街道天星桥正街46号附61号帛金大厦","info":""}},{"type":"Feature","geometry":{"type":"Point","coordinates":[106.45849,29.550043]},"properties":{"province":"重庆市","city":"重庆市","county":"沙坪坝区","community":"天星桥街道天陈路51号附2号","full_address":"重庆市重庆市沙坪坝区天星桥街道天陈路51号附2号","info":""}},{"type":"Feature","geometry":{"type":"Point","coordinates":[106.44601,29.56486]},"properties":{"province":"重庆市","city":"重庆市","county":"沙坪坝区","community":"童家桥街道小杨公桥168号华宇林泉雅舍小区","full_address":"重庆市重庆市沙坪坝区童家桥街道小杨公桥168号华宇林泉雅舍小区","info":""}},{"type":"Feature","geometry":{"type":"Point","coordinates":[106.516037,29.507181]},"properties":{"province":"重庆市","city":"重庆市","county":"九龙坡区","community":"杨家坪街道中迪广场（除3号楼以外区域）","full_address":"重庆市重庆市九龙坡区杨家坪街道中迪广场（除3号楼以外区域）","info":""}},{"type":"Feature","geometry":{"type":"Point","coordinates":[106.522568,29.507932]},"properties":{"province":"重庆市","city":"重庆市","county":"九龙坡区","community":"杨家坪街道金都香榭小区","full_address":"重庆市重庆市九龙坡区杨家坪街道金都香榭小区","info":""}},{"type":"Feature","geometry":{"type":"Point","coordinates":[106.459086,29.508681]},"properties":{"province":"重庆市","city":"重庆市","county":"九龙坡区","community":"二郎街道望山国际小区","full_address":"重庆市重庆市九龙坡区二郎街道望山国际小区","info":""}},{"type":"Feature","geometry":{"type":"Point","coordinates":[106.483245,29.492446]},"properties":{"province":"重庆市","city":"重庆市","county":"九龙坡区","community":"九龙街道朵力名都小区","full_address":"重庆市重庆市九龙坡区九龙街道朵力名都小区","info":""}},{"type":"Feature","geometry":{"type":"Point","coordinates":[106.522324,29.51769]},"properties":{"province":"重庆市","city":"重庆市","county":"九龙坡区","community":"九龙街道邹昌举中医诊所","full_address":"重庆市重庆市九龙坡区九龙街道邹昌举中医诊所","info":""}},{"type":"Feature","geometry":{"type":"Point","coordinates":[106.482076,29.497817]},"properties":{"province":"重庆市","city":"重庆市","county":"九龙坡区","community":"九龙街道双龙苑小区","full_address":"重庆市重庆市九龙坡区九龙街道双龙苑小区","info":""}},{"type":"Feature","geometry":{"type":"Point","coordinates":[106.457643,29.710984]},"properties":{"province":"重庆市","city":"重庆市","county":"北碚区","community":"童家溪镇巨豪·香溪美林小区及其附属门店","full_address":"重庆市重庆市北碚区童家溪镇巨豪·香溪美林小区及其附属门店","info":""}},{"type":"Feature","geometry":{"type":"Point","coordinates":[106.472061,29.72603]},"properties":{"province":"重庆市","city":"重庆市","county":"北碚区","community":"蔡家岗街道汪家堡农贸市场","full_address":"重庆市重庆市北碚区蔡家岗街道汪家堡农贸市场","info":""}},{"type":"Feature","geometry":{"type":"Point","coordinates":[106.520714,29.463753]},"properties":{"province":"重庆市","city":"重庆市","county":"巴南区","community":"李家沱街道西流沱社区IN半岛里小区2栋、3栋","full_address":"重庆市重庆市巴南区李家沱街道西流沱社区IN半岛里小区2栋、3栋","info":""}},{"type":"Feature","geometry":{"type":"Point","coordinates":[106.530802,29.462373]},"properties":{"province":"重庆市","city":"重庆市","county":"巴南区","community":"李家沱街道融汇西流沱小镇（除憨石匠鲜菜土火锅）","full_address":"重庆市重庆市巴南区李家沱街道融汇西流沱小镇（除憨石匠鲜菜土火锅）","info":""}},{"type":"Feature","geometry":{"type":"Point","coordinates":[106.524959,29.375437]},"properties":{"province":"重庆市","city":"重庆市","county":"巴南区","community":"鱼洞街道上城时代小区除1栋、6栋、13栋菜鸟驿站、欧汇超市之外的其他楼栋和门面","full_address":"重庆市重庆市巴南区鱼洞街道上城时代小区除1栋、6栋、13栋菜鸟驿站、欧汇超市之外的其他楼栋和门面","info":""}},{"type":"Feature","geometry":{"type":"Point","coordinates":[106.901455,30.008541]},"properties":{"province":"重庆市","city":"重庆市","county":"长寿区","community":"葛兰镇场镇（除杨利麻将馆）","full_address":"重庆市重庆市长寿区葛兰镇场镇（除杨利麻将馆）","info":""}},{"type":"Feature","geometry":{"type":"Point","coordinates":[106.901455,30.008541]},"properties":{"province":"重庆市","city":"重庆市","county":"长寿区","community":"葛兰镇枯井村","full_address":"重庆市重庆市长寿区葛兰镇枯井村","info":""}},{"type":"Feature","geometry":{"type":"Point","coordinates":[106.901455,30.008541]},"properties":{"province":"重庆市","city":"重庆市","county":"长寿区","community":"葛兰镇天台村（除葛兰镇天台村7组156号）","full_address":"重庆市重庆市长寿区葛兰镇天台村（除葛兰镇天台村7组156号）","info":""}},{"type":"Feature","geometry":{"type":"Point","coordinates":[106.22547,29.576997]},"properties":{"province":"重庆市","city":"重庆市","county":"璧山区","community":"璧泉街道锦春·绿岛新都小区（2栋、3栋、4栋、5栋）","full_address":"重庆市重庆市璧山区璧泉街道锦春·绿岛新都小区（2栋、3栋、4栋、5栋）","info":""}},{"type":"Feature","geometry":{"type":"Point","coordinates":[104.148822,30.60085]},"properties":{"province":"四川省","city":"成都市","county":"锦江区","community":"成龙路街道锦蓉佳苑 4-10 栋，包括 7-10 栋底层商户","full_address":"四川省成都市锦江区成龙路街道锦蓉佳苑 4-10 栋，包括 7-10 栋底层商户","info":""}},{"type":"Feature","geometry":{"type":"Point","coordinates":[104.137695,30.59487]},"properties":{"province":"四川省","city":"成都市","county":"锦江区","community":"成龙路街道卓锦城 6 期 1-17、19-22 栋","full_address":"四川省成都市锦江区成龙路街道卓锦城 6 期 1-17、19-22 栋","info":""}},{"type":"Feature","geometry":{"type":"Point","coordinates":[104.09375,30.592738]},"properties":{"province":"四川省","city":"成都市","county":"锦江区","community":"成龙路街道绿地468云玺5期1、3、4栋，包括楼栋底层商户","full_address":"四川省成都市锦江区成龙路街道绿地468云玺5期1、3、4栋，包括楼栋底层商户","info":""}},{"type":"Feature","geometry":{"type":"Point","coordinates":[104.141375,30.606313]},"properties":{"province":"四川省","city":"成都市","county":"锦江区","community":"成龙路街道绿地468云锦6期1、3栋，包括楼栋底层商户，及4、5、6栋商业楼","full_address":"四川省成都市锦江区成龙路街道绿地468云锦6期1、3栋，包括楼栋底层商户，及4、5、6栋商业楼","info":""}},{"type":"Feature","geometry":{"type":"Point","coordinates":[104.146827,30.597429]},"properties":{"province":"四川省","city":"成都市","county":"锦江区","community":"三圣街道锦江城市花园三期 1-3栋、7 栋","full_address":"四川省成都市锦江区三圣街道锦江城市花园三期 1-3栋、7 栋","info":""}},{"type":"Feature","geometry":{"type":"Point","coordinates":[104.136708,30.601901]},"properties":{"province":"四川省","city":"成都市","county":"锦江区","community":"成龙路街道四海逸家3期1-4栋、6栋及会所楼、物业楼","full_address":"四川省成都市锦江区成龙路街道四海逸家3期1-4栋、6栋及会所楼、物业楼","info":""}},{"type":"Feature","geometry":{"type":"Point","coordinates":[104.147602,30.593342]},"properties":{"province":"四川省","city":"成都市","county":"锦江区","community":"三圣街道华熙528艺术村盈都1、3栋，包括1、3栋底层商户","full_address":"四川省成都市锦江区三圣街道华熙528艺术村盈都1、3栋，包括1、3栋底层商户","info":""}},{"type":"Feature","geometry":{"type":"Point","coordinates":[104.147602,30.593342]},"properties":{"province":"四川省","city":"成都市","county":"锦江区","community":"三圣街道华熙528艺术村悦都2栋","full_address":"四川省成都市锦江区三圣街道华熙528艺术村悦都2栋","info":""}},{"type":"Feature","geometry":{"type":"Point","coordinates":[104.144155,30.59372]},"properties":{"province":"四川省","city":"成都市","county":"锦江区","community":"三圣街道锦江城市花园1期1-4栋、6-8栋，包括1栋、6-8栋底层商户","full_address":"四川省成都市锦江区三圣街道锦江城市花园1期1-4栋、6-8栋，包括1栋、6-8栋底层商户","info":""}},{"type":"Feature","geometry":{"type":"Point","coordinates":[104.137716,30.603442]},"properties":{"province":"四川省","city":"成都市","county":"锦江区","community":"成龙路街道锦江逸家1-5栋、7栋","full_address":"四川省成都市锦江区成龙路街道锦江逸家1-5栋、7栋","info":""}},{"type":"Feature","geometry":{"type":"Point","coordinates":[104.152312,30.604688]},"properties":{"province":"四川省","city":"成都市","county":"锦江区","community":"成龙路街道东洪广厦1-2栋、4-5栋、7-8栋、10-11栋，包括1、2、4、11栋底层商户","full_address":"四川省成都市锦江区成龙路街道东洪广厦1-2栋、4-5栋、7-8栋、10-11栋，包括1、2、4、11栋底层商户","info":""}},{"type":"Feature","geometry":{"type":"Point","coordinates":[104.132163,30.600511]},"properties":{"province":"四川省","city":"成都市","county":"锦江区","community":"成龙路街道卓锦城2期23栋、25-46栋","full_address":"四川省成都市锦江区成龙路街道卓锦城2期23栋、25-46栋","info":""}},{"type":"Feature","geometry":{"type":"Point","coordinates":[104.153455,30.59256]},"properties":{"province":"四川省","city":"成都市","county":"锦江区","community":"三圣街道龙湖天璞1-6栋、8-9栋商业，包括1-5栋底商","full_address":"四川省成都市锦江区三圣街道龙湖天璞1-6栋、8-9栋商业，包括1-5栋底商","info":""}},{"type":"Feature","geometry":{"type":"Point","coordinates":[104.107436,30.62436]},"properties":{"province":"四川省","city":"成都市","county":"锦江区","community":"沙河街道四川省农业科学院1-10栋、12-23栋","full_address":"四川省成都市锦江区沙河街道四川省农业科学院1-10栋、12-23栋","info":""}},{"type":"Feature","geometry":{"type":"Point","coordinates":[104.00635,30.69535]},"properties":{"province":"四川省","city":"成都市","county":"青羊区","community":"金沙街道金地金沙府邸小区","full_address":"四川省成都市青羊区金沙街道金地金沙府邸小区","info":""}},{"type":"Feature","geometry":{"type":"Point","coordinates":[104.054816,30.663558]},"properties":{"province":"四川省","city":"成都市","county":"青羊区","community":"少城街道泡桐树街3-19号（7号院落除外）、12-24号","full_address":"四川省成都市青羊区少城街道泡桐树街3-19号（7号院落除外）、12-24号","info":""}},{"type":"Feature","geometry":{"type":"Point","coordinates":[103.969891,30.607374]},"properties":{"province":"四川省","city":"成都市","county":"武侯区","community":"金花桥街道君雁金梧桐小区1栋（1-4）、2栋、3栋，包括楼栋底层商户","full_address":"四川省成都市武侯区金花桥街道君雁金梧桐小区1栋（1-4）、2栋、3栋，包括楼栋底层商户","info":""}},{"type":"Feature","geometry":{"type":"Point","coordinates":[104.10897,30.685144]},"properties":{"province":"四川省","city":"成都市","county":"成华区","community":"府青路街道安庆苑及底商（怡福路61号）","full_address":"四川省成都市成华区府青路街道安庆苑及底商（怡福路61号）","info":""}},{"type":"Feature","geometry":{"type":"Point","coordinates":[104.103353,30.671658]},"properties":{"province":"四川省","city":"成都市","county":"成华区","community":"猛追湾街道甲壳特区及底商（建设巷14号附24号）","full_address":"四川省成都市成华区猛追湾街道甲壳特区及底商（建设巷14号附24号）","info":""}},{"type":"Feature","geometry":{"type":"Point","coordinates":[104.291608,30.603958]},"properties":{"province":"四川省","city":"成都市","county":"龙泉驿区","community":"同安街道幸阳路388号新里桃溪川4栋、6-9栋","full_address":"四川省成都市龙泉驿区同安街道幸阳路388号新里桃溪川4栋、6-9栋","info":""}},{"type":"Feature","geometry":{"type":"Point","coordinates":[104.034686,30.595077]},"properties":{"province":"四川省","city":"成都市","county":"高新区","community":"石羊街道美洲花园社区棕榈湾小区","full_address":"四川省成都市高新区石羊街道美洲花园社区棕榈湾小区","info":""}},{"type":"Feature","geometry":{"type":"Point","coordinates":[104.030219,30.540709]},"properties":{"province":"四川省","city":"成都市","county":"高新区","community":"桂溪街道科创社区朗基御今缘","full_address":"四川省成都市高新区桂溪街道科创社区朗基御今缘","info":""}},{"type":"Feature","geometry":{"type":"Point","coordinates":[104.080805,30.602912]},"properties":{"province":"四川省","city":"成都市","county":"高新区","community":"桂溪街道人居东苑小区-D区1－4和6－8栋","full_address":"四川省成都市高新区桂溪街道人居东苑小区-D区1－4和6－8栋","info":""}},{"type":"Feature","geometry":{"type":"Point","coordinates":[106.065627,30.79718]},"properties":{"province":"四川省","city":"南充市","county":"顺庆区","community":"澄泉路雍锦半岛小区","full_address":"四川省南充市顺庆区澄泉路雍锦半岛小区","info":""}},{"type":"Feature","geometry":{"type":"Point","coordinates":[106.095637,30.798429]},"properties":{"province":"四川省","city":"南充市","county":"顺庆区","community":"果城路49号家益·江天一色小区25栋1单元","full_address":"四川省南充市顺庆区果城路49号家益·江天一色小区25栋1单元","info":""}},{"type":"Feature","geometry":{"type":"Point","coordinates":[106.099122,30.80588]},"properties":{"province":"四川省","city":"南充市","county":"顺庆区","community":"金鱼岭正街74号延安路小学1栋2单元","full_address":"四川省南充市顺庆区金鱼岭正街74号延安路小学1栋2单元","info":""}},