{"type":"FeatureCollection","features":[{"type":"Feature","geometry":{"type":"Point","coordinates":[108.944349,34.225292]},"properties":{"province":"陕西省","city":"西安市","county":"雁塔区","community":"小寨路街道","full_address":"陕西省西安市雁塔区小寨路街道","info":""}},{"type":"Feature","geometry":{"type":"Point","coordinates":[108.947364,34.238509]},"properties":{"province":"陕西省","city":"西安市","county":"碑林区","community":"长安路街道","full_address":"陕西省西安市碑林区长安路街道","info":""}},{"type":"Feature","geometry":{"type":"Point","coordinates":[108.869257,34.159957]},"properties":{"province":"陕西省","city":"西安市","county":"长安区","community":"郭杜街道","full_address":"陕西省西安市长安区郭杜街道","info":""}},{"type":"Feature","geometry":{"type":"Point","coordinates":[108.934632,34.158892]},"properties":{"province":"陕西省","city":"西安市","county":"长安区","community":"韦曲街道","full_address":"陕西省西安市长安区韦曲街道","info":""}},{"type":"Feature","geometry":{"type":"Point","coordinates":[108.860762,34.2332]},"properties":{"province":"陕西省","city":"西安市","county":"雁塔区","community":"高新区鱼化寨街道","full_address":"陕西省西安市雁塔区高新区鱼化寨街道","info":""}},{"type":"Feature","geometry":{"type":"Point","coordinates":[108.873871,34.207554]},"properties":{"province":"陕西省","city":"西安市","county":"雁塔区","community":"丈八街道","full_address":"陕西省西安市雁塔区丈八街道","info":""}},{"type":"Feature","geometry":{"type":"Point","coordinates":[108.790006,34.157158]},"properties":{"province":"陕西省","city":"西安市","county":"长安区","community":"细柳街道","full_address":"陕西省西安市长安区细柳街道","info":""}},{"type":"Feature","geometry":{"type":"Point","coordinates":[108.81236,34.302455]},"properties":{"province":"陕西省","city":"西安市","county":"未央区","community":"西咸新区沣东新城三桥街道","full_address":"陕西省西安市未央区西咸新区沣东新城三桥街道","info":""}},{"type":"Feature","geometry":{"type":"Point","coordinates":[108.81236,34.302455]},"properties":{"province":"陕西省","city":"西安市","county":"未央区","community":"沣东新城斗门街道","full_address":"陕西省西安市未央区沣东新城斗门街道","info":""}},{"type":"Feature","geometry":{"type":"Point","coordinates":[120.027124,28.85328]},"properties":{"province":"浙江省","city":"金华市","county":"永康市","community":"石柱镇前锦村下陈自然村","full_address":"浙江省金华市永康市石柱镇前锦村下陈自然村","info":""}},{"type":"Feature","geometry":{"type":"Point","coordinates":[119.95563,28.924292]},"properties":{"province":"浙江省","city":"金华市","county":"永康市","community":"增杰衡器厂","full_address":"浙江省金华市永康市增杰衡器厂","info":""}},{"type":"Feature","geometry":{"type":"Point","coordinates":[113.385396,34.142435]},"properties":{"province":"河南省","city":"许昌市","county":"禹州市","community":"全域（火龙镇刘沟村、郭楼村，夏都街道办事处，梁北镇，颍川街道塔湾街安泰煤业公司家属院、回族小学北5街、开元小区、尹庄、禹王大道113号，钧台街道四季花城（西院）&韩城街道焦寨社区&张得镇寨外村除外）","full_address":"河南省许昌市禹州市全域（火龙镇刘沟村、郭楼村，夏都街道办事处，梁北镇，颍川街道塔湾街安泰煤业公司家属院、回族小学北5街、开元小区、尹庄、禹王大道113号，钧台街道四季花城（西院）&韩城街道焦寨社区&张得镇寨外村除外）","info":""}},{"type":"Feature","geometry":{"type":"Point","coordinates":[113.611843,34.740275]},"properties":{"province":"河南省","city":"郑州市","county":"中原区","community":"绿东村办事处电缆社区69号院","full_address":"河南省郑州市中原区绿东村办事处电缆社区69号院","info":""}},{"type":"Feature","geometry":{"type":"Point","coordinates":[113.601573,34.745272]},"properties":{"province":"河南省","city":"郑州市","county":"中原区","community":"中原西路街道万达社区中原万达小区东院","full_address":"河南省郑州市中原区中原西路街道万达社区中原万达小区东院","info":""}},{"type":"Feature","geometry":{"type":"Point","coordinates":[113.595875,34.734821]},"properties":{"province":"河南省","city":"郑州市","county":"中原区","community":"绿东村街道陇西社区陇海西路306号院（康桥上城品小区）","full_address":"河南省郑州市中原区绿东村街道陇西社区陇海西路306号院（康桥上城品小区）","info":""}},{"type":"Feature","geometry":{"type":"Point","coordinates":[113.58325,34.743237]},"properties":{"province":"河南省","city":"郑州市","county":"中原区","community":"中原西路街道绿都社区绿都城南区14号楼","full_address":"河南省郑州市中原区中原西路街道绿都社区绿都城南区14号楼","info":""}},{"type":"Feature","geometry":{"type":"Point","coordinates":[113.622288,34.762085]},"properties":{"province":"河南省","city":"郑州市","county":"中原区","community":"棉纺路街道盛润锦绣城社区盛润锦绣城小区东院1号楼","full_address":"河南省郑州市中原区棉纺路街道盛润锦绣城社区盛润锦绣城小区东院1号楼","info":""}},{"type":"Feature","geometry":{"type":"Point","coordinates":[113.600309,34.725862]},"properties":{"province":"河南省","city":"郑州市","county":"中原区","community":"航海西路街道启福社区华山路10号院","full_address":"河南省郑州市中原区航海西路街道启福社区华山路10号院","info":""}},{"type":"Feature","geometry":{"type":"Point","coordinates":[113.65622,34.731693]},"properties":{"province":"河南省","city":"郑州市","county":"二七区","community":"建中街办事处永安社区保全街28号院","full_address":"河南省郑州市二七区建中街办事处永安社区保全街28号院","info":""}},{"type":"Feature","geometry":{"type":"Point","coordinates":[113.628072,34.682763]},"properties":{"province":"河南省","city":"郑州市","county":"二七区","community":"嵩山路街道玉晖园社区玉晖园小区","full_address":"河南省郑州市二七区嵩山路街道玉晖园社区玉晖园小区","info":""}},{"type":"Feature","geometry":{"type":"Point","coordinates":[113.644818,34.745524]},"properties":{"province":"河南省","city":"郑州市","county":"二七区","community":"大学路街道金桥社区中苑名都小区","full_address":"河南省郑州市二七区大学路街道金桥社区中苑名都小区","info":""}},{"type":"Feature","geometry":{"type":"Point","coordinates":[113.665819,34.737785]},"properties":{"province":"河南省","city":"郑州市","county":"二七区","community":"一马路街道陇海大院社区陇海东路188号院","full_address":"河南省郑州市二七区一马路街道陇海大院社区陇海东路188号院","info":""}},{"type":"Feature","geometry":{"type":"Point","coordinates":[113.636867,34.735225]},"properties":{"province":"河南省","city":"郑州市","county":"二七区","community":"淮河路街道陇海社区富田陇海花园","full_address":"河南省郑州市二七区淮河路街道陇海社区富田陇海花园","info":""}},{"type":"Feature","geometry":{"type":"Point","coordinates":[113.640034,34.739488]},"properties":{"province":"河南省","city":"郑州市","county":"二七区","community":"大学路街道桃源社区桃源路45号院","full_address":"河南省郑州市二七区大学路街道桃源社区桃源路45号院","info":""}},{"type":"Feature","geometry":{"type":"Point","coordinates":[113.642535,34.740543]},"properties":{"province":"河南省","city":"郑州市","county":"二七区","community":"桃源路25号院翰林世家","full_address":"河南省郑州市二七区桃源路25号院翰林世家","info":""}},{"type":"Feature","geometry":{"type":"Point","coordinates":[113.543629,34.823196]},"properties":{"province":"河南省","city":"郑州市","county":"中原区","community":"高新区石佛办事处育林社区五龙新城香榭园小区","full_address":"河南省郑州市中原区高新区石佛办事处育林社区五龙新城香榭园小区","info":""}},{"type":"Feature","geometry":{"type":"Point","coordinates":[113.720874,34.763465]},"properties":{"province":"河南省","city":"郑州市","county":"金水区","community":"未来路街道民航社区广汇·PAMA小区8号","full_address":"河南省郑州市金水区未来路街道民航社区广汇·PAMA小区8号","info":""}},{"type":"Feature","geometry":{"type":"Point","coordinates":[114.357082,36.090468]},"properties":{"province":"河南省","city":"安阳市","county":"文峰区","community":"","full_address":"河南省安阳市文峰区","info":""}},{"type":"Feature","geometry":{"type":"Point","coordinates":[114.535236,35.534826]},"properties":{"province":"河南省","city":"安阳市","county":"滑县","community":"锦和街道锦和书苑人才公寓","full_address":"河南省安阳市滑县锦和街道锦和书苑人才公寓","info":""}},{"type":"Feature","geometry":{"type":"Point","coordinates":[114.544657,35.535123]},"properties":{"province":"河南省","city":"安阳市","county":"滑县","community":"锦和街道岸尚公馆东区四号楼","full_address":"河南省安阳市滑县锦和街道岸尚公馆东区四号楼","info":""}},{"type":"Feature","geometry":{"type":"Point","coordinates":[114.742067,35.819443]},"properties":{"province":"河南省","city":"安阳市","county":"内黄县","community":"六村乡袁六村","full_address":"河南省安阳市内黄县六村乡袁六村","info":""}},{"type":"Feature","geometry":{"type":"Point","coordinates":[114.357763,35.924515]},"properties":{"province":"河南省","city":"安阳市","county":"汤阴县","community":"（汤阴县育才中学&古贤镇除外）","full_address":"河南省安阳市汤阴县（汤阴县育才中学&古贤镇除外）","info":""}},{"type":"Feature","geometry":{"type":"Point","coordinates":[114.108091,22.605162]},"properties":{"province":"广东省","city":"深圳市","county":"龙岗区","community":"布吉街道布吉社区壹村东心岭八巷55号楼栋","full_address":"广东省深圳市龙岗区布吉街道布吉社区壹村东心岭八巷55号楼栋","info":""}},{"type":"Feature","geometry":{"type":"Point","coordinates":[114.112691,22.608198]},"properties":{"province":"广东省","city":"深圳市","county":"龙岗区","community":"吉华街道水径社区西环路2号富辰公寓","full_address":"广东省深圳市龙岗区吉华街道水径社区西环路2号富辰公寓","info":""}},{"type":"Feature","geometry":{"type":"Point","coordinates":[114.110486,22.584765]},"properties":{"province":"广东省","city":"深圳市","county":"罗湖区","community":"清水河街道鹤围村58栋","full_address":"广东省深圳市罗湖区清水河街道鹤围村58栋","info":""}},{"type":"Feature","geometry":{"type":"Point","coordinates":[114.110342,22.584782]},"properties":{"province":"广东省","city":"深圳市","county":"罗湖区","community":"清水河街道鹤围村64栋","full_address":"广东省深圳市罗湖区清水河街道鹤围村64栋","info":""}},{"type":"Feature","geometry":{"type":"Point","coordinates":[113.45388,22.275159]},"properties":{"province":"广东省","city":"中山市","county":"坦洲镇","community":"国际花城一期第41栋","full_address":"广东省中山市坦洲镇国际花城一期第41栋","info":""}},{"type":"Feature","geometry":{"type":"Point","coordinates":[113.566612,22.284213]},"properties":{"province":"广东省","city":"珠海市","county":"香洲区","community":"南屏镇将军山榕园小区2栋","full_address":"广东省珠海市香洲区南屏镇将军山榕园小区2栋","info":""}},{"type":"Feature","geometry":{"type":"Point","coordinates":[113.48782,22.224247]},"properties":{"province":"广东省","city":"珠海市","county":"香洲区","community":"南屏镇十二村成丰园中45号","full_address":"广东省珠海市香洲区南屏镇十二村成丰园中45号","info":""}},{"type":"Feature","geometry":{"type":"Point","coordinates":[113.472934,22.222274]},"properties":{"province":"广东省","city":"珠海市","county":"香洲区","community":"南屏镇广生一街73号","full_address":"广东省珠海市香洲区南屏镇广生一街73号","info":""}},{"type":"Feature","geometry":{"type":"Point","coordinates":[117.365554,39.03095]},"properties":{"province":"天津市","city":"市辖区","county":"津南区","community":"辛庄镇碧水世纪园","full_address":"天津市市辖区津南区辛庄镇碧水世纪园","info":""}},{"type":"Feature","geometry":{"type":"Point","coordinates":[117.344086,39.032572]},"properties":{"province":"天津市","city":"市辖区","county":"津南区","community":"上东苑","full_address":"天津市市辖区津南区上东苑","info":""}},{"type":"Feature","geometry":{"type":"Point","coordinates":[117.328814,39.034761]},"properties":{"province":"天津市","city":"市辖区","county":"津南区","community":"汀芳花园","full_address":"天津市市辖区津南区汀芳花园","info":""}},{"type":"Feature","geometry":{"type":"Point","coordinates":[117.331977,39.034215]},"properties":{"province":"天津市","city":"市辖区","county":"津南区","community":"汀兰花园","full_address":"天津市市辖区津南区汀兰花园","info":""}},{"type":"Feature","geometry":{"type":"Point","coordinates":[117.349516,39.027863]},"properties":{"province":"天津市","city":"市辖区","county":"津南区","community":"昕盛里","full_address":"天津市市辖区津南区昕盛里","info":""}},{"type":"Feature","geometry":{"type":"Point","coordinates":[117.349485,39.02871]},"properties":{"province":"天津市","city":"市辖区","county":"津南区","community":"鑫庭花园","full_address":"天津市市辖区津南区鑫庭花园","info":""}},{"type":"Feature","geometry":{"type":"Point","coordinates":[117.385979,38.979715]},"properties":{"province":"天津市","city":"市辖区","county":"津南区","community":"咸水沽镇春福里（津九轩小区）","full_address":"天津市市辖区津南区咸水沽镇春福里（津九轩小区）","info":""}},{"type":"Feature","geometry":{"type":"Point","coordinates":[117.409239,38.993513]},"properties":{"province":"天津市","city":"市辖区","county":"津南区","community":"东旺家园","full_address":"天津市市辖区津南区东旺家园","info":""}},{"type":"Feature","geometry":{"type":"Point","coordinates":[117.409239,38.993513]},"properties":{"province":"天津市","city":"市辖区","county":"津南区","community":"鑫洋园","full_address":"天津市市辖区津南区鑫洋园","info":""}},{"type":"Feature","geometry":{"type":"Point","coordinates":[117.387478,38.983522]},"properties":{"province":"天津市","city":"市辖区","county":"津南区","community":"众惠里","full_address":"天津市市辖区津南区众惠里","info":""}},{"type":"Feature","geometry":{"type":"Point","coordinates":[117.392213,38.978039]},"properties":{"province":"天津市","city":"市辖区","county":"津南区","community":"宝业馨苑","full_address":"天津市市辖区津南区宝业馨苑","info":""}},{"type":"Feature","geometry":{"type":"Point","coordinates":[117.374068,39.001804]},"properties":{"province":"天津市","city":"市辖区","county":"津南区","community":"博雅花园","full_address":"天津市市辖区津南区博雅花园","info":""}},{"type":"Feature","geometry":{"type":"Point","coordinates":[117.391454,39.000339]},"properties":{"province":"天津市","city":"市辖区","county":"津南区","community":"合力园","full_address":"天津市市辖区津南区合力园","info":""}},{"type":"Feature","geometry":{"type":"Point","coordinates":[117.371103,38.983367]},"properties":{"province":"天津市","city":"市辖区","county":"津南区","community":"金才园","full_address":"天津市市辖区津南区金才园","info":""}},{"type":"Feature","geometry":{"type":"Point","coordinates":[117.371382,38.998261]},"properties":{"province":"天津市","city":"市辖区","county":"津南区","community":"金芳园","full_address":"天津市市辖区津南区金芳园","info":""}},{"type":"Feature","geometry":{"type":"Point","coordinates":[117.373787,38.991703]},"properties":{"province":"天津市","city":"市辖区","county":"津南区","community":"水岸华庭","full_address":"天津市市辖区津南区水岸华庭","info":""}},{"type":"Feature","geometry":{"type":"Point","coordinates":[117.343757,38.946914]},"properties":{"province":"天津市","city":"市辖区","county":"津南区","community":"八里台镇尚湖苑","full_address":"天津市市辖区津南区八里台镇尚湖苑","info":""}},{"type":"Feature","geometry":{"type":"Point","coordinates":[117.348314,38.913866]},"properties":{"province":"天津市","city":"市辖区","county":"津南区","community":"丽湖苑","full_address":"天津市市辖区津南区丽湖苑","info":""}},{"type":"Feature","geometry":{"type":"Point","coordinates":[117.412098,38.949245]},"properties":{"province":"天津市","city":"市辖区","county":"津南区","community":"北闸口镇尚礼园","full_address":"天津市市辖区津南区北闸口镇尚礼园","info":""}},{"type":"Feature","geometry":{"type":"Point","coordinates":[117.320349,39.050987]},"properties":{"province":"天津市","city":"市辖区","county":"津南区","community":"双港镇李桃园","full_address":"天津市市辖区津南区双港镇李桃园","info":""}},{"type":"Feature","geometry":{"type":"Point","coordinates":[117.30398,39.061127]},"properties":{"province":"天津市","city":"市辖区","county":"津南区","community":"柳景家园","full_address":"天津市市辖区津南区柳景家园","info":""}},{"type":"Feature","geometry":{"type":"Point","coordinates":[117.288415,39.02586]},"properties":{"province":"天津市","city":"市辖区","county":"津南区","community":"仁和园","full_address":"天津市市辖区津南区仁和园","info":""}},{"type":"Feature","geometry":{"type":"Point","coordinates":[117.316822,39.044694]},"properties":{"province":"天津市","city":"市辖区","county":"津南区","community":"仁永名居","full_address":"天津市市辖区津南区仁永名居","info":""}},{"type":"Feature","geometry":{"type":"Point","coordinates":[117.289954,39.022208]},"properties":{"province":"天津市","city":"市辖区","county":"津南区","community":"善和园","full_address":"天津市市辖区津南区善和园","info":""}},{"type":"Feature","geometry":{"type":"Point","coordinates":[117.212395,39.028173]},"properties":{"province":"天津市","city":"市辖区","county":"西青区","community":"大寺镇宇泰家园","full_address":"天津市市辖区西青区大寺镇宇泰家园","info":""}},{"type":"Feature","geometry":{"type":"Point","coordinates":[117.2601,38.877762]},"properties":{"province":"天津市","city":"市辖区","county":"西青区","community":"王稳庄镇盛泰园","full_address":"天津市市辖区西青区王稳庄镇盛泰园","info":""}},{"type":"Feature","geometry":{"type":"Point","coordinates":[121.44414,31.22346]},"properties":{"province":"上海市","city":"市辖区","county":"静安区","community":"静安寺街道愚园路228号","full_address":"上海市市辖区静安区静安寺街道愚园路228号","info":""}}]}