{"type":"FeatureCollection","features":[{"type":"Feature","geometry":{"type":"Point","coordinates":[87.425823,43.876052]},"properties":{"full_address":"新疆维吾尔自治区乌鲁木齐市头屯河区"}},{"type":"Feature","geometry":{"type":"Point","coordinates":[87.573916,43.843752]},"properties":{"full_address":"新疆维吾尔自治区乌鲁木齐市新市区"}},{"type":"Feature","geometry":{"type":"Point","coordinates":[87.642482,43.832459]},"properties":{"full_address":"新疆维吾尔自治区乌鲁木齐市水磨沟区"}},{"type":"Feature","geometry":{"type":"Point","coordinates":[121.729585,39.090504]},"properties":{"full_address":"辽宁省大连市金州区金普新区站前街道盛滨社区"}},{"type":"Feature","geometry":{"type":"Point","coordinates":[121.73549,39.054346]},"properties":{"full_address":"辽宁省大连市金州区金普新区站前街道杨家村"}},{"type":"Feature","geometry":{"type":"Point","coordinates":[121.758124,39.07338]},"properties":{"full_address":"辽宁省大连市金州区金普新区先进街道桃园社区"}}]}