{"type":"FeatureCollection","features":[{"type":"Feature","geometry":{"type":"Point","coordinates":[103.918217,30.870195]},"properties":{"full_address":"四川省成都市郫都区三道堰镇八步桥社区八组安置点"}},{"type":"Feature","geometry":{"type":"Point","coordinates":[131.16722,44.403699]},"properties":{"full_address":"黑龙江省牡丹江市绥芬河市青云小区"}},{"type":"Feature","geometry":{"type":"Point","coordinates":[131.133626,44.39798]},"properties":{"full_address":"黑龙江省牡丹江市绥芬河市海融富华苑小区"}},{"type":"Feature","geometry":{"type":"Point","coordinates":[131.160489,44.39006]},"properties":{"full_address":"黑龙江省牡丹江市绥芬河市机务段铁路综合楼"}},{"type":"Feature","geometry":{"type":"Point","coordinates":[131.127855,44.067158]},"properties":{"full_address":"黑龙江省牡丹江市东宁市中心社区"}},{"type":"Feature","geometry":{"type":"Point","coordinates":[89.169205,42.955598]},"properties":{"full_address":"新疆维吾尔自治区吐鲁番市高昌区红盾小区"}},{"type":"Feature","geometry":{"type":"Point","coordinates":[125.293975,43.88385]},"properties":{"full_address":"北京市市辖区朝阳区汉庭酒店大山子店（包括底商）"}},{"type":"Feature","geometry":{"type":"Point","coordinates":[121.738617,39.098633]},"properties":{"full_address":"辽宁省大连市金州区金普新区先进街道金润小区B区"}},{"type":"Feature","geometry":{"type":"Point","coordinates":[121.721102,39.106753]},"properties":{"full_address":"辽宁省大连市金州区光中街道金东路社区"}},{"type":"Feature","geometry":{"type":"Point","coordinates":[123.352048,41.837869]},"properties":{"full_address":"辽宁省沈阳市于洪区北陵街道宏达社区"}},{"type":"Feature","geometry":{"type":"Point","coordinates":[123.360949,41.857899]},"properties":{"full_address":"辽宁省沈阳市于洪区华润橡树湾二期"}}]}