{"type":"FeatureCollection","features":[{"type":"Feature","geometry":{"type":"Point","coordinates":[103.918217,30.870195]},"properties":{"province":"四川省","city":"成都市","county":"郫都区","community":"三道堰镇八步桥社区八组安置点","full_address":"四川省成都市郫都区三道堰镇八步桥社区八组安置点","info":""}},{"type":"Feature","geometry":{"type":"Point","coordinates":[125.293975,43.88385]},"properties":{"province":"北京市","city":"市辖区","county":"朝阳区","community":"汉庭酒店大山子店（包括底商）","full_address":"北京市市辖区朝阳区汉庭酒店大山子店（包括底商）","info":""}},{"type":"Feature","geometry":{"type":"Point","coordinates":[116.594839,40.145929]},"properties":{"province":"北京市","city":"市辖区","county":"顺义区","community":"南法信镇西杜兰村","full_address":"北京市市辖区顺义区南法信镇西杜兰村","info":""}},{"type":"Feature","geometry":{"type":"Point","coordinates":[116.561247,40.144971]},"properties":{"province":"北京市","city":"市辖区","county":"顺义区","community":"高丽营镇张喜庄村","full_address":"北京市市辖区顺义区高丽营镇张喜庄村","info":""}},{"type":"Feature","geometry":{"type":"Point","coordinates":[121.738617,39.098633]},"properties":{"province":"辽宁省","city":"大连市","county":"金州区","community":"金普新区先进街道金润小区B区","full_address":"辽宁省大连市金州区金普新区先进街道金润小区B区","info":""}},{"type":"Feature","geometry":{"type":"Point","coordinates":[121.721102,39.106753]},"properties":{"province":"辽宁省","city":"大连市","county":"金州区","community":"光中街道金东路社区","full_address":"辽宁省大连市金州区光中街道金东路社区","info":""}},{"type":"Feature","geometry":{"type":"Point","coordinates":[121.70502,39.103273]},"properties":{"province":"辽宁省","city":"大连市","county":"金州区","community":"红旗社区","full_address":"辽宁省大连市金州区红旗社区","info":""}},{"type":"Feature","geometry":{"type":"Point","coordinates":[121.715198,39.100408]},"properties":{"province":"辽宁省","city":"大连市","county":"金州区","community":"胜利东社区","full_address":"辽宁省大连市金州区胜利东社区","info":""}},{"type":"Feature","geometry":{"type":"Point","coordinates":[121.716696,39.111774]},"properties":{"province":"辽宁省","city":"大连市","county":"金州区","community":"拥政街道古城甲区","full_address":"辽宁省大连市金州区拥政街道古城甲区","info":""}},{"type":"Feature","geometry":{"type":"Point","coordinates":[121.706994,39.107758]},"properties":{"province":"辽宁省","city":"大连市","county":"金州区","community":"友谊街道金华社区","full_address":"辽宁省大连市金州区友谊街道金华社区","info":""}},{"type":"Feature","geometry":{"type":"Point","coordinates":[121.71268,39.110816]},"properties":{"province":"辽宁省","city":"大连市","county":"金州区","community":"古城乙区社区","full_address":"辽宁省大连市金州区古城乙区社区","info":""}},{"type":"Feature","geometry":{"type":"Point","coordinates":[121.715305,39.113939]},"properties":{"province":"辽宁省","city":"大连市","county":"金州区","community":"康乐社区","full_address":"辽宁省大连市金州区康乐社区","info":""}},{"type":"Feature","geometry":{"type":"Point","coordinates":[121.608264,38.940821]},"properties":{"province":"辽宁省","city":"大连市","county":"西岗区","community":"金海社区","full_address":"辽宁省大连市西岗区金海社区","info":""}},{"type":"Feature","geometry":{"type":"Point","coordinates":[121.710062,39.11981]},"properties":{"province":"辽宁省","city":"大连市","county":"金州区","community":"兴民村","full_address":"辽宁省大连市金州区兴民村","info":""}},{"type":"Feature","geometry":{"type":"Point","coordinates":[121.725247,39.087414]},"properties":{"province":"辽宁省","city":"大连市","county":"金州区","community":"站前街道联胜社区","full_address":"辽宁省大连市金州区站前街道联胜社区","info":""}},{"type":"Feature","geometry":{"type":"Point","coordinates":[121.729605,39.09045]},"properties":{"province":"辽宁省","city":"大连市","county":"金州区","community":"盛滨社区","full_address":"辽宁省大连市金州区盛滨社区","info":""}},{"type":"Feature","geometry":{"type":"Point","coordinates":[123.352048,41.837869]},"properties":{"province":"辽宁省","city":"沈阳市","county":"于洪区","community":"北陵街道宏达社区","full_address":"辽宁省沈阳市于洪区北陵街道宏达社区","info":""}},{"type":"Feature","geometry":{"type":"Point","coordinates":[123.360949,41.857899]},"properties":{"province":"辽宁省","city":"沈阳市","county":"于洪区","community":"华润橡树湾二期","full_address":"辽宁省沈阳市于洪区华润橡树湾二期","info":""}},{"type":"Feature","geometry":{"type":"Point","coordinates":[123.376429,41.862277]},"properties":{"province":"辽宁省","city":"沈阳市","county":"于洪区","community":"中海城星座小区","full_address":"辽宁省沈阳市于洪区中海城星座小区","info":""}},{"type":"Feature","geometry":{"type":"Point","coordinates":[123.361478,41.834357]},"properties":{"province":"辽宁省","city":"沈阳市","county":"皇姑区","community":"基业百花园小区","full_address":"辽宁省沈阳市皇姑区基业百花园小区","info":""}},{"type":"Feature","geometry":{"type":"Point","coordinates":[122.726864,41.498089]},"properties":{"province":"辽宁省","city":"沈阳市","county":"辽中区","community":"化工小区","full_address":"辽宁省沈阳市辽中区化工小区","info":""}}]}