{"type":"FeatureCollection","features":[{"type":"Feature","geometry":{"type":"Point","coordinates":[103.918217,30.870195]},"properties":{"full_address":"四川省成都市郫都区三道堰镇八步桥社区八组安置点"}},{"type":"Feature","geometry":{"type":"Point","coordinates":[125.293975,43.88385]},"properties":{"full_address":"北京市市辖区朝阳区汉庭酒店大山子店（包括底商）"}},{"type":"Feature","geometry":{"type":"Point","coordinates":[116.594839,40.145929]},"properties":{"full_address":"北京市市辖区顺义区南法信镇西杜兰村"}},{"type":"Feature","geometry":{"type":"Point","coordinates":[116.561247,40.144971]},"properties":{"full_address":"北京市市辖区顺义区高丽营镇张喜庄村"}},{"type":"Feature","geometry":{"type":"Point","coordinates":[121.738617,39.098633]},"properties":{"full_address":"辽宁省大连市金州区金普新区先进街道金润小区B区"}},{"type":"Feature","geometry":{"type":"Point","coordinates":[121.721102,39.106753]},"properties":{"full_address":"辽宁省大连市金州区光中街道金东路社区"}},{"type":"Feature","geometry":{"type":"Point","coordinates":[121.70502,39.103273]},"properties":{"full_address":"辽宁省大连市金州区红旗社区"}},{"type":"Feature","geometry":{"type":"Point","coordinates":[121.715198,39.100408]},"properties":{"full_address":"辽宁省大连市金州区胜利东社区"}},{"type":"Feature","geometry":{"type":"Point","coordinates":[121.716696,39.111774]},"properties":{"full_address":"辽宁省大连市金州区拥政街道古城甲区"}},{"type":"Feature","geometry":{"type":"Point","coordinates":[121.706994,39.107758]},"properties":{"full_address":"辽宁省大连市金州区友谊街道金华社区"}},{"type":"Feature","geometry":{"type":"Point","coordinates":[121.71268,39.110816]},"properties":{"full_address":"辽宁省大连市金州区古城乙区社区"}},{"type":"Feature","geometry":{"type":"Point","coordinates":[121.715305,39.113939]},"properties":{"full_address":"辽宁省大连市金州区康乐社区"}},{"type":"Feature","geometry":{"type":"Point","coordinates":[121.608264,38.940821]},"properties":{"full_address":"辽宁省大连市西岗区金海社区"}},{"type":"Feature","geometry":{"type":"Point","coordinates":[121.710062,39.11981]},"properties":{"full_address":"辽宁省大连市金州区兴民村"}},{"type":"Feature","geometry":{"type":"Point","coordinates":[121.725247,39.087414]},"properties":{"full_address":"辽宁省大连市金州区站前街道联胜社区"}},{"type":"Feature","geometry":{"type":"Point","coordinates":[121.729605,39.09045]},"properties":{"full_address":"辽宁省大连市金州区盛滨社区"}},{"type":"Feature","geometry":{"type":"Point","coordinates":[123.352048,41.837869]},"properties":{"full_address":"辽宁省沈阳市于洪区北陵街道宏达社区"}},{"type":"Feature","geometry":{"type":"Point","coordinates":[123.360949,41.857899]},"properties":{"full_address":"辽宁省沈阳市于洪区华润橡树湾二期"}},{"type":"Feature","geometry":{"type":"Point","coordinates":[123.376429,41.862277]},"properties":{"full_address":"辽宁省沈阳市于洪区中海城星座小区"}},{"type":"Feature","geometry":{"type":"Point","coordinates":[123.361478,41.834357]},"properties":{"full_address":"辽宁省沈阳市皇姑区基业百花园小区"}},{"type":"Feature","geometry":{"type":"Point","coordinates":[122.726864,41.498089]},"properties":{"full_address":"辽宁省沈阳市辽中区化工小区"}}]}