{"type":"FeatureCollection","features":[{"type":"Feature","geometry":{"type":"Point","coordinates":[117.680949,39.014377]},"properties":{"province":"天津市","city":"市辖区","county":"滨海新区","community":"滨海新区汉沽街","full_address":"天津市市辖区滨海新区滨海新区汉沽街","info":""}},{"type":"Feature","geometry":{"type":"Point","coordinates":[117.180062,39.135443]},"properties":{"province":"天津市","city":"市辖区","county":"滨海新区","community":"中心渔港冷链物流区A区和B区","full_address":"天津市市辖区滨海新区中心渔港冷链物流区A区和B区","info":""}},{"type":"Feature","geometry":{"type":"Point","coordinates":[121.747835,31.189802]},"properties":{"province":"上海市","city":"市辖区","county":"浦东新区","community":"祝桥镇营前村","full_address":"上海市市辖区浦东新区祝桥镇营前村","info":""}},{"type":"Feature","geometry":{"type":"Point","coordinates":[121.579194,31.101928]},"properties":{"province":"上海市","city":"市辖区","county":"浦东新区","community":"、周浦镇明天华城小区","full_address":"上海市市辖区浦东新区、周浦镇明天华城小区","info":""}},{"type":"Feature","geometry":{"type":"Point","coordinates":[116.242211,32.652868]},"properties":{"province":"安徽省","city":"阜阳市","county":"颍上县","community":"慎城镇张洋小区","full_address":"安徽省阜阳市颍上县慎城镇张洋小区","info":""}}]}