{"type":"FeatureCollection","features":[{"type":"Feature","geometry":{"type":"Point","coordinates":[125.293975,43.88385]},"properties":{"province":"北京市","city":"市辖区","county":"朝阳区","community":"汉庭酒店大山子店（包括底商）","full_address":"北京市市辖区朝阳区汉庭酒店大山子店（包括底商）","info":""}},{"type":"Feature","geometry":{"type":"Point","coordinates":[116.594839,40.145929]},"properties":{"province":"北京市","city":"市辖区","county":"顺义区","community":"南法信镇西杜兰村","full_address":"北京市市辖区顺义区南法信镇西杜兰村","info":""}},{"type":"Feature","geometry":{"type":"Point","coordinates":[116.561247,40.144971]},"properties":{"province":"北京市","city":"市辖区","county":"顺义区","community":"高丽营镇张喜庄村","full_address":"北京市市辖区顺义区高丽营镇张喜庄村","info":""}},{"type":"Feature","geometry":{"type":"Point","coordinates":[117.339786,40.184513]},"properties":{"province":"北京市","city":"北京市","county":"平谷区","community":"东马各庄村","full_address":"北京市北京市平谷区东马各庄村","info":""}},{"type":"Feature","geometry":{"type":"Point","coordinates":[116.620426,40.140503]},"properties":{"province":"北京市","city":"市辖区","county":"顺义区","community":"南法信镇东海洪村","full_address":"北京市市辖区顺义区南法信镇东海洪村","info":""}},{"type":"Feature","geometry":{"type":"Point","coordinates":[116.745051,40.135249]},"properties":{"province":"北京市","city":"市辖区","county":"顺义区","community":"南彩镇南彩村","full_address":"北京市市辖区顺义区南彩镇南彩村","info":""}},{"type":"Feature","geometry":{"type":"Point","coordinates":[116.697869,40.101745]},"properties":{"province":"北京市","city":"市辖区","county":"顺义区","community":"仁和镇河南村","full_address":"北京市市辖区顺义区仁和镇河南村","info":""}},{"type":"Feature","geometry":{"type":"Point","coordinates":[121.738617,39.098633]},"properties":{"province":"辽宁省","city":"大连市","county":"金州区","community":"金普新区先进街道金润小区B区","full_address":"辽宁省大连市金州区金普新区先进街道金润小区B区","info":""}},{"type":"Feature","geometry":{"type":"Point","coordinates":[121.731474,39.101599]},"properties":{"province":"辽宁省","city":"大连市","county":"金州区","community":"民馨社区","full_address":"辽宁省大连市金州区民馨社区","info":""}},{"type":"Feature","geometry":{"type":"Point","coordinates":[121.721102,39.106753]},"properties":{"province":"辽宁省","city":"大连市","county":"金州区","community":"光中街道金东路社区","full_address":"辽宁省大连市金州区光中街道金东路社区","info":""}},{"type":"Feature","geometry":{"type":"Point","coordinates":[121.70502,39.103273]},"properties":{"province":"辽宁省","city":"大连市","county":"金州区","community":"红旗社区","full_address":"辽宁省大连市金州区红旗社区","info":""}},{"type":"Feature","geometry":{"type":"Point","coordinates":[121.715198,39.100408]},"properties":{"province":"辽宁省","city":"大连市","county":"金州区","community":"胜利东社区","full_address":"辽宁省大连市金州区胜利东社区","info":""}},{"type":"Feature","geometry":{"type":"Point","coordinates":[121.709337,39.096009]},"properties":{"province":"辽宁省","city":"大连市","county":"金州区","community":"胜利西社区","full_address":"辽宁省大连市金州区胜利西社区","info":""}},{"type":"Feature","geometry":{"type":"Point","coordinates":[121.716696,39.111774]},"properties":{"province":"辽宁省","city":"大连市","county":"金州区","community":"拥政街道古城甲区","full_address":"辽宁省大连市金州区拥政街道古城甲区","info":""}},{"type":"Feature","geometry":{"type":"Point","coordinates":[121.706994,39.107758]},"properties":{"province":"辽宁省","city":"大连市","county":"金州区","community":"友谊街道金华社区","full_address":"辽宁省大连市金州区友谊街道金华社区","info":""}},{"type":"Feature","geometry":{"type":"Point","coordinates":[121.71268,39.110816]},"properties":{"province":"辽宁省","city":"大连市","county":"金州区","community":"古城乙区社区","full_address":"辽宁省大连市金州区古城乙区社区","info":""}},{"type":"Feature","geometry":{"type":"Point","coordinates":[121.715305,39.113939]},"properties":{"province":"辽宁省","city":"大连市","county":"金州区","community":"康乐社区","full_address":"辽宁省大连市金州区康乐社区","info":""}},{"type":"Feature","geometry":{"type":"Point","coordinates":[121.608264,38.940821]},"properties":{"province":"辽宁省","city":"大连市","county":"西岗区","community":"金海社区","full_address":"辽宁省大连市西岗区金海社区","info":""}},{"type":"Feature","geometry":{"type":"Point","coordinates":[121.710062,39.11981]},"properties":{"province":"辽宁省","city":"大连市","county":"金州区","community":"兴民村","full_address":"辽宁省大连市金州区兴民村","info":""}},{"type":"Feature","geometry":{"type":"Point","coordinates":[121.725247,39.087414]},"properties":{"province":"辽宁省","city":"大连市","county":"金州区","community":"站前街道联胜社区","full_address":"辽宁省大连市金州区站前街道联胜社区","info":""}},{"type":"Feature","geometry":{"type":"Point","coordinates":[121.729605,39.09045]},"properties":{"province":"辽宁省","city":"大连市","county":"金州区","community":"盛滨社区","full_address":"辽宁省大连市金州区盛滨社区","info":""}},{"type":"Feature","geometry":{"type":"Point","coordinates":[121.564523,38.879947]},"properties":{"province":"辽宁省","city":"大连市","county":"沙河口区","community":"星海湾街道星海公园社区","full_address":"辽宁省大连市沙河口区星海湾街道星海公园社区","info":""}},{"type":"Feature","geometry":{"type":"Point","coordinates":[121.510961,38.883039]},"properties":{"province":"辽宁省","city":"大连市","county":"甘井子区","community":"高新园区凌水街道大有恬园社区","full_address":"辽宁省大连市甘井子区高新园区凌水街道大有恬园社区","info":""}},{"type":"Feature","geometry":{"type":"Point","coordinates":[123.352048,41.837869]},"properties":{"province":"辽宁省","city":"沈阳市","county":"于洪区","community":"北陵街道宏达社区","full_address":"辽宁省沈阳市于洪区北陵街道宏达社区","info":""}},{"type":"Feature","geometry":{"type":"Point","coordinates":[123.360949,41.857899]},"properties":{"province":"辽宁省","city":"沈阳市","county":"于洪区","community":"华润橡树湾二期","full_address":"辽宁省沈阳市于洪区华润橡树湾二期","info":""}},{"type":"Feature","geometry":{"type":"Point","coordinates":[123.376429,41.862277]},"properties":{"province":"辽宁省","city":"沈阳市","county":"于洪区","community":"中海城星座小区","full_address":"辽宁省沈阳市于洪区中海城星座小区","info":""}},{"type":"Feature","geometry":{"type":"Point","coordinates":[123.361478,41.834357]},"properties":{"province":"辽宁省","city":"沈阳市","county":"皇姑区","community":"基业百花园小区","full_address":"辽宁省沈阳市皇姑区基业百花园小区","info":""}},{"type":"Feature","geometry":{"type":"Point","coordinates":[122.726864,41.498089]},"properties":{"province":"辽宁省","city":"沈阳市","county":"辽中区","community":"化工小区","full_address":"辽宁省沈阳市辽中区化工小区","info":""}},{"type":"Feature","geometry":{"type":"Point","coordinates":[123.379454,41.822471]},"properties":{"province":"辽宁省","city":"沈阳市","county":"皇姑区","community":"昆山西路中海寰宇天下天悦园区","full_address":"辽宁省沈阳市皇姑区昆山西路中海寰宇天下天悦园区","info":""}},{"type":"Feature","geometry":{"type":"Point","coordinates":[123.356646,41.833174]},"properties":{"province":"辽宁省","city":"沈阳市","county":"皇姑区","community":"昆山西路向工小区东区","full_address":"辽宁省沈阳市皇姑区昆山西路向工小区东区","info":""}},{"type":"Feature","geometry":{"type":"Point","coordinates":[123.356372,41.825836]},"properties":{"province":"辽宁省","city":"沈阳市","county":"皇姑区","community":"亿海阳光一期","full_address":"辽宁省沈阳市皇姑区亿海阳光一期","info":""}},{"type":"Feature","geometry":{"type":"Point","coordinates":[123.357933,41.829984]},"properties":{"province":"辽宁省","city":"沈阳市","county":"皇姑区","community":"溪水街1号楼","full_address":"辽宁省沈阳市皇姑区溪水街1号楼","info":""}},{"type":"Feature","geometry":{"type":"Point","coordinates":[123.364761,41.825042]},"properties":{"province":"辽宁省","city":"沈阳市","county":"皇姑区","community":"明廉路博客地带小区","full_address":"辽宁省沈阳市皇姑区明廉路博客地带小区","info":""}},{"type":"Feature","geometry":{"type":"Point","coordinates":[123.393262,41.798422]},"properties":{"province":"辽宁省","city":"沈阳市","county":"铁西区","community":"北二东路沈铁兴工佳园小区","full_address":"辽宁省沈阳市铁西区北二东路沈铁兴工佳园小区","info":""}},{"type":"Feature","geometry":{"type":"Point","coordinates":[127.50132,50.250397]},"properties":{"province":"黑龙江省","city":"黑河市","county":"爱辉区","community":"喇嘛台社区学府佳苑小区","full_address":"黑龙江省黑河市爱辉区喇嘛台社区学府佳苑小区","info":""}},{"type":"Feature","geometry":{"type":"Point","coordinates":[128.482513,49.580654]},"properties":{"province":"黑龙江省","city":"黑河市","county":"逊克县","community":"金融社区省建材楼所在小区","full_address":"黑龙江省黑河市逊克县金融社区省建材楼所在小区","info":""}},{"type":"Feature","geometry":{"type":"Point","coordinates":[127.499335,50.236818]},"properties":{"province":"黑龙江省","city":"黑河市","county":"爱辉区","community":"热电社区新生活家园小区","full_address":"黑龙江省黑河市爱辉区热电社区新生活家园小区","info":""}},{"type":"Feature","geometry":{"type":"Point","coordinates":[127.520585,50.246204]},"properties":{"province":"黑龙江省","city":"黑河市","county":"爱辉区","community":"金兰社区电业名苑小区","full_address":"黑龙江省黑河市爱辉区金兰社区电业名苑小区","info":""}},{"type":"Feature","geometry":{"type":"Point","coordinates":[127.498237,50.239974]},"properties":{"province":"黑龙江省","city":"黑河市","county":"爱辉区","community":"热电社区天丝小区","full_address":"黑龙江省黑河市爱辉区热电社区天丝小区","info":""}}]}