{"type":"FeatureCollection","features":[{"type":"Feature","geometry":{"type":"Point","coordinates":[126.629056,45.735509]},"properties":{"full_address":"黑龙江省哈尔滨市南岗区爱达88小区"}},{"type":"Feature","geometry":{"type":"Point","coordinates":[126.709994,45.757076]},"properties":{"full_address":"黑龙江省哈尔滨市南岗区信恒现代城小区馨园A栋"}},{"type":"Feature","geometry":{"type":"Point","coordinates":[126.499208,45.80772]},"properties":{"full_address":"黑龙江省哈尔滨市松北区万达秀园小区"}},{"type":"Feature","geometry":{"type":"Point","coordinates":[126.570181,45.881327]},"properties":{"full_address":"黑龙江省哈尔滨市松北区地恒托斯卡纳小区4期"}},{"type":"Feature","geometry":{"type":"Point","coordinates":[126.761747,45.748136]},"properties":{"full_address":"黑龙江省哈尔滨市香坊区东鸿艺境小区"}},{"type":"Feature","geometry":{"type":"Point","coordinates":[127.106248,46.443494]},"properties":{"full_address":"黑龙江省哈尔滨市巴彦县兴隆镇浩鹏世纪花园小区"}},{"type":"Feature","geometry":{"type":"Point","coordinates":[127.115981,46.436696]},"properties":{"full_address":"黑龙江省哈尔滨市巴彦县兴隆镇恒隆花园小区"}},{"type":"Feature","geometry":{"type":"Point","coordinates":[127.089784,46.394604]},"properties":{"full_address":"黑龙江省哈尔滨市巴彦县巴彦镇中兴家园小区"}},{"type":"Feature","geometry":{"type":"Point","coordinates":[127.396889,46.086343]},"properties":{"full_address":"黑龙江省哈尔滨市巴彦县巴彦镇盛隆国际小区"}},{"type":"Feature","geometry":{"type":"Point","coordinates":[127.295878,46.112931]},"properties":{"full_address":"黑龙江省哈尔滨市巴彦县松花江乡民胜村"}},{"type":"Feature","geometry":{"type":"Point","coordinates":[127.402299,46.088943]},"properties":{"full_address":"黑龙江省哈尔滨市巴彦县金源嘉园小区"}},{"type":"Feature","geometry":{"type":"Point","coordinates":[127.401131,46.08979]},"properties":{"full_address":"黑龙江省哈尔滨市巴彦县悦和新城小区"}},{"type":"Feature","geometry":{"type":"Point","coordinates":[127.116803,46.443601]},"properties":{"full_address":"黑龙江省哈尔滨市巴彦县兴隆镇阳光名苑小区"}},{"type":"Feature","geometry":{"type":"Point","coordinates":[127.389537,46.079186]},"properties":{"full_address":"黑龙江省哈尔滨市巴彦县巴彦镇水韵新城小区"}},{"type":"Feature","geometry":{"type":"Point","coordinates":[128.032156,45.945673]},"properties":{"full_address":"黑龙江省哈尔滨市木兰县木兰镇香江水岸小区"}},{"type":"Feature","geometry":{"type":"Point","coordinates":[127.004006,46.632862]},"properties":{"full_address":"黑龙江省绥化市北林区鑫港湾小区"}},{"type":"Feature","geometry":{"type":"Point","coordinates":[118.035114,24.463929]},"properties":{"full_address":"福建省厦门市海沧区嵩屿街道水云湾小区"}},{"type":"Feature","geometry":{"type":"Point","coordinates":[118.13824,24.493209]},"properties":{"full_address":"福建省厦门市湖里区江头街道吕岭社区彩虹花园小区"}},{"type":"Feature","geometry":{"type":"Point","coordinates":[118.158251,24.729729]},"properties":{"full_address":"福建省厦门市同安区大同街道碧岳村"}},{"type":"Feature","geometry":{"type":"Point","coordinates":[118.135169,24.736728]},"properties":{"full_address":"福建省厦门市同安区大同街道古庄顶布房里"}},{"type":"Feature","geometry":{"type":"Point","coordinates":[118.1302,24.721877]},"properties":{"full_address":"福建省厦门市同安区祥平街道凤岗社区"}},{"type":"Feature","geometry":{"type":"Point","coordinates":[118.148906,24.711399]},"properties":{"full_address":"福建省厦门市同安区祥平街道阳翟社区"}},{"type":"Feature","geometry":{"type":"Point","coordinates":[118.141233,24.693888]},"properties":{"full_address":"福建省厦门市同安区祥平街道西湖社区山坪里"}},{"type":"Feature","geometry":{"type":"Point","coordinates":[118.197291,24.741532]},"properties":{"full_address":"福建省厦门市同安区五显镇布塘村美安里"}},{"type":"Feature","geometry":{"type":"Point","coordinates":[119.103275,25.317963]},"properties":{"full_address":"福建省莆田市秀屿区芴石镇芴石西路以东，北埔路以西，兴秀路以南，大营路以北的区域内"}},{"type":"Feature","geometry":{"type":"Point","coordinates":[119.09456,25.31532]},"properties":{"full_address":"福建省莆田市秀屿区以芴石镇阳光幼儿园为中心，南至大众路，北至70米外无名路，西至荔港大道，东至160米外无名路范围内"}},{"type":"Feature","geometry":{"type":"Point","coordinates":[119.09456,25.31532]},"properties":{"full_address":"福建省莆田市秀屿区芴石镇荔港大道以东，秀郊路以西，东圳水渠以南区域内"}},{"type":"Feature","geometry":{"type":"Point","coordinates":[119.108527,25.319478]},"properties":{"full_address":"福建省莆田市秀屿区芴石镇荣府一品小区"}},{"type":"Feature","geometry":{"type":"Point","coordinates":[118.762333,25.330094]},"properties":{"full_address":"福建省莆田市仙游县赖店镇象岭村"}},{"type":"Feature","geometry":{"type":"Point","coordinates":[118.753857,25.20552]},"properties":{"full_address":"福建省莆田市仙游县园庄中学"}},{"type":"Feature","geometry":{"type":"Point","coordinates":[118.581085,25.409067]},"properties":{"full_address":"福建省莆田市仙游县度尾镇仙竹村"}},{"type":"Feature","geometry":{"type":"Point","coordinates":[118.741302,25.206323]},"properties":{"full_address":"福建省莆田市仙游县园庄镇枫林村"}},{"type":"Feature","geometry":{"type":"Point","coordinates":[118.649918,25.33808]},"properties":{"full_address":"福建省莆田市仙游县园庄镇园庄社区"}},{"type":"Feature","geometry":{"type":"Point","coordinates":[118.864954,25.268824]},"properties":{"full_address":"福建省莆田市仙游县枫亭镇上浒村"}},{"type":"Feature","geometry":{"type":"Point","coordinates":[118.869149,25.256745]},"properties":{"full_address":"福建省莆田市仙游县枫亭镇沧溪村"}},{"type":"Feature","geometry":{"type":"Point","coordinates":[118.867059,25.237383]},"properties":{"full_address":"福建省莆田市仙游县枫亭镇锦湖村"}},{"type":"Feature","geometry":{"type":"Point","coordinates":[118.875616,25.231947]},"properties":{"full_address":"福建省泉州市泉港区界山镇鸠林村"}},{"type":"Feature","geometry":{"type":"Point","coordinates":[117.789863,24.940771]},"properties":{"full_address":"福建省泉州市安溪县龙涓乡长新村"}},{"type":"Feature","geometry":{"type":"Point","coordinates":[118.579998,24.8307]},"properties":{"full_address":"福建省泉州市晋江市陈埭镇苏厝村和平路145-149号、213号、230-232号"}}]}