{"type":"FeatureCollection","features":[{"type":"Feature","geometry":{"type":"Point","coordinates":[116.37956,40.06382]},"properties":{"full_address":"北京市市辖区海淀区海淀区西三旗街道富力桃园C区"}},{"type":"Feature","geometry":{"type":"Point","coordinates":[117.701665,28.143947]},"properties":{"full_address":"江西省上饶市铅山县葛仙山镇"}},{"type":"Feature","geometry":{"type":"Point","coordinates":[117.962042,28.457183]},"properties":{"full_address":"江西省上饶市信州区铁三社区金凤花园"}},{"type":"Feature","geometry":{"type":"Point","coordinates":[97.682984,23.880699]},"properties":{"full_address":"云南省德宏傣族景颇族自治州瑞丽市弄岛镇等秀村委会等秀村民小组"}},{"type":"Feature","geometry":{"type":"Point","coordinates":[98.076206,24.077532]},"properties":{"full_address":"云南省德宏傣族景颇族自治州瑞丽市畹町镇国防街片区（东至和平街&南至民主街和环东路&西至正阳路&北至国防街）"}},{"type":"Feature","geometry":{"type":"Point","coordinates":[121.627293,39.007206]},"properties":{"full_address":"辽宁省大连市甘井子区泉水街道滨河社区欧尚广场小区P5区9号楼"}},{"type":"Feature","geometry":{"type":"Point","coordinates":[122.009371,39.620507]},"properties":{"full_address":"辽宁省大连市瓦房店市泉水街道怡佳社区阳光驿城小区P1区51号楼"}},{"type":"Feature","geometry":{"type":"Point","coordinates":[121.601117,39.005553]},"properties":{"full_address":"辽宁省大连市甘井子区泉水街道泉悦社区N3区18号楼"}},{"type":"Feature","geometry":{"type":"Point","coordinates":[121.612758,39.028977]},"properties":{"full_address":"辽宁省大连市甘井子区南关岭街道姚兴社区姚北路36号公寓"}},{"type":"Feature","geometry":{"type":"Point","coordinates":[121.58526,38.995068]},"properties":{"full_address":"辽宁省大连市甘井子区中华路街道润洋社区华润置地凯旋门三期汇信街39号楼"}},{"type":"Feature","geometry":{"type":"Point","coordinates":[121.576244,38.960176]},"properties":{"full_address":"辽宁省大连市甘井子区中华路街道兴利社区华锦名苑小区10号楼"}},{"type":"Feature","geometry":{"type":"Point","coordinates":[121.608483,39.035053]},"properties":{"full_address":"辽宁省大连市甘井子区南关岭街道姚兴社区姚北路25号"}},{"type":"Feature","geometry":{"type":"Point","coordinates":[122.972691,39.691052]},"properties":{"full_address":"辽宁省大连市庄河市城关街道财政社区昌盛街二段91号楼"}},{"type":"Feature","geometry":{"type":"Point","coordinates":[122.683836,39.848582]},"properties":{"full_address":"辽宁省大连市庄河市长岭镇洪昌村庙下屯"}},{"type":"Feature","geometry":{"type":"Point","coordinates":[122.893336,39.675086]},"properties":{"full_address":"辽宁省大连市庄河市昌盛街道市场社区下八家屯"}},{"type":"Feature","geometry":{"type":"Point","coordinates":[122.958888,39.706922]},"properties":{"full_address":"辽宁省大连市庄河市新华街道赛屯社区新华路4段5号楼"}},{"type":"Feature","geometry":{"type":"Point","coordinates":[123.388751,39.844056]},"properties":{"full_address":"辽宁省大连市庄河市栗子房镇凤堡村鹞岭屯"}},{"type":"Feature","geometry":{"type":"Point","coordinates":[123.083429,39.692697]},"properties":{"full_address":"辽宁省大连市庄河市兰店乡金场村十八点屯"}},{"type":"Feature","geometry":{"type":"Point","coordinates":[121.734375,39.088946]},"properties":{"full_address":"辽宁省大连市金州区金普新区先进街道响泉社区万科城小区D区11号楼"}},{"type":"Feature","geometry":{"type":"Point","coordinates":[121.71771,39.08865]},"properties":{"full_address":"辽宁省大连市金州区站前街道南棉社区南棉路358号楼"}}]}