{"type":"FeatureCollection","features":[{"type":"Feature","geometry":{"type":"Point","coordinates":[103.836001,36.04126]},"properties":{"full_address":"甘肃省兰州市城关区云祥小区"}},{"type":"Feature","geometry":{"type":"Point","coordinates":[103.888843,36.069142]},"properties":{"full_address":"甘肃省兰州市城关区雁北路天庆丽舍小区"}},{"type":"Feature","geometry":{"type":"Point","coordinates":[103.876665,36.047961]},"properties":{"full_address":"甘肃省兰州市城关区东湖小区"}},{"type":"Feature","geometry":{"type":"Point","coordinates":[100.501352,38.89472]},"properties":{"full_address":"甘肃省张掖市甘州区锦绣嘉苑（梁家墩镇六号村）"}},{"type":"Feature","geometry":{"type":"Point","coordinates":[100.443664,38.915324]},"properties":{"full_address":"甘肃省张掖市甘州区龙王庙小区"}},{"type":"Feature","geometry":{"type":"Point","coordinates":[111.968568,43.648384]},"properties":{"full_address":"内蒙古自治区锡林郭勒盟二连浩特市锡林社区"}},{"type":"Feature","geometry":{"type":"Point","coordinates":[111.963024,43.634483]},"properties":{"full_address":"内蒙古自治区锡林郭勒盟二连浩特市西城社区"}},{"type":"Feature","geometry":{"type":"Point","coordinates":[111.983516,43.637327]},"properties":{"full_address":"内蒙古自治区锡林郭勒盟二连浩特市额仁社区"}},{"type":"Feature","geometry":{"type":"Point","coordinates":[105.675067,38.834519]},"properties":{"full_address":"内蒙古自治区阿拉善盟阿拉善左旗巴彦浩特镇新华街道"}},{"type":"Feature","geometry":{"type":"Point","coordinates":[106.93077,27.726938]},"properties":{"full_address":"贵州省遵义市汇川区仁和苑小区"}},{"type":"Feature","geometry":{"type":"Point","coordinates":[106.932843,27.724137]},"properties":{"full_address":"贵州省遵义市汇川区东方湘江湾小区"}},{"type":"Feature","geometry":{"type":"Point","coordinates":[106.211265,38.482732]},"properties":{"full_address":"宁夏回族自治区银川市金凤区森林半岛小区"}},{"type":"Feature","geometry":{"type":"Point","coordinates":[106.289542,38.485625]},"properties":{"full_address":"宁夏回族自治区银川市兴庆区太阳都市花园小区"}},{"type":"Feature","geometry":{"type":"Point","coordinates":[106.161841,38.478634]},"properties":{"full_address":"宁夏回族自治区银川市西夏区物华兴洲苑小区"}}]}