{"type":"FeatureCollection","features":[{"type":"Feature","geometry":{"type":"Point","coordinates":[97.846372,24.004068]},"properties":{"full_address":"云南省德宏傣族景颇族自治州瑞丽市鑫盛时代佳园小区"}},{"type":"Feature","geometry":{"type":"Point","coordinates":[97.849934,24.024636]},"properties":{"full_address":"云南省德宏傣族景颇族自治州瑞丽市瑞京路红砖厂"}},{"type":"Feature","geometry":{"type":"Point","coordinates":[97.867046,24.012412]},"properties":{"full_address":"云南省德宏傣族景颇族自治州瑞丽市星河蓝湾小区"}},{"type":"Feature","geometry":{"type":"Point","coordinates":[97.84239,24.015775]},"properties":{"full_address":"云南省德宏傣族景颇族自治州瑞丽市双卯村民小组"}},{"type":"Feature","geometry":{"type":"Point","coordinates":[97.860688,23.998545]},"properties":{"full_address":"云南省德宏傣族景颇族自治州瑞丽市下弄安村民小组"}},{"type":"Feature","geometry":{"type":"Point","coordinates":[97.854663,24.013117]},"properties":{"full_address":"云南省德宏傣族景颇族自治州瑞丽市珠宝街老食品厂家属区"}}]}