{"type":"FeatureCollection","features":[{"type":"Feature","geometry":{"type":"Point","coordinates":[126.637829,45.72576]},"properties":{"full_address":"黑龙江省哈尔滨市香坊区文政街道和兴路 65 号院"}},{"type":"Feature","geometry":{"type":"Point","coordinates":[126.984381,45.540617]},"properties":{"full_address":"黑龙江省哈尔滨市阿城区金都街道金源世家小区"}},{"type":"Feature","geometry":{"type":"Point","coordinates":[127.396889,46.086343]},"properties":{"full_address":"黑龙江省哈尔滨市巴彦县巴彦镇盛隆国际小区"}},{"type":"Feature","geometry":{"type":"Point","coordinates":[127.401018,46.089781]},"properties":{"full_address":"黑龙江省哈尔滨市巴彦县巴彦镇悦和新城小区"}},{"type":"Feature","geometry":{"type":"Point","coordinates":[127.389537,46.079186]},"properties":{"full_address":"黑龙江省哈尔滨市巴彦县巴彦镇水韵新城小区"}},{"type":"Feature","geometry":{"type":"Point","coordinates":[127.391261,46.081963]},"properties":{"full_address":"黑龙江省哈尔滨市巴彦县巴彦镇公园丽景小区"}}]}