{"type":"FeatureCollection","features":[{"type":"Feature","geometry":{"type":"Point","coordinates":[103.836001,36.04126]},"properties":{"province":"甘肃省","city":"兰州市","county":"城关区","community":"云祥小区","full_address":"甘肃省兰州市城关区云祥小区","info":""}},{"type":"Feature","geometry":{"type":"Point","coordinates":[103.888843,36.069142]},"properties":{"province":"甘肃省","city":"兰州市","county":"城关区","community":"雁北路天庆丽舍小区","full_address":"甘肃省兰州市城关区雁北路天庆丽舍小区","info":""}},{"type":"Feature","geometry":{"type":"Point","coordinates":[103.876665,36.047961]},"properties":{"province":"甘肃省","city":"兰州市","county":"城关区","community":"东湖小区","full_address":"甘肃省兰州市城关区东湖小区","info":""}},{"type":"Feature","geometry":{"type":"Point","coordinates":[100.501352,38.89472]},"properties":{"province":"甘肃省","city":"张掖市","county":"甘州区","community":"锦绣嘉苑（梁家墩镇六号村）","full_address":"甘肃省张掖市甘州区锦绣嘉苑（梁家墩镇六号村）","info":""}},{"type":"Feature","geometry":{"type":"Point","coordinates":[100.443664,38.915324]},"properties":{"province":"甘肃省","city":"张掖市","county":"甘州区","community":"龙王庙小区","full_address":"甘肃省张掖市甘州区龙王庙小区","info":""}},{"type":"Feature","geometry":{"type":"Point","coordinates":[105.889489,34.564051]},"properties":{"province":"甘肃省","city":"天水市","county":"麦积区","community":"桥南街道羲皇社区","full_address":"甘肃省天水市麦积区桥南街道羲皇社区","info":""}},{"type":"Feature","geometry":{"type":"Point","coordinates":[105.854423,34.558418]},"properties":{"province":"甘肃省","city":"天水市","county":"麦积区","community":"花牛镇天飞家园小区","full_address":"甘肃省天水市麦积区花牛镇天飞家园小区","info":""}},{"type":"Feature","geometry":{"type":"Point","coordinates":[106.673043,34.378393]},"properties":{"province":"甘肃省","city":"天水市","county":"麦积区","community":"东岔镇码头村","full_address":"甘肃省天水市麦积区东岔镇码头村","info":""}},{"type":"Feature","geometry":{"type":"Point","coordinates":[111.968568,43.648384]},"properties":{"province":"内蒙古自治区","city":"锡林郭勒盟","county":"二连浩特市","community":"锡林社区","full_address":"内蒙古自治区锡林郭勒盟二连浩特市锡林社区","info":""}},{"type":"Feature","geometry":{"type":"Point","coordinates":[111.963024,43.634483]},"properties":{"province":"内蒙古自治区","city":"锡林郭勒盟","county":"二连浩特市","community":"西城社区","full_address":"内蒙古自治区锡林郭勒盟二连浩特市西城社区","info":""}},{"type":"Feature","geometry":{"type":"Point","coordinates":[111.983516,43.637327]},"properties":{"province":"内蒙古自治区","city":"锡林郭勒盟","county":"二连浩特市","community":"额仁社区","full_address":"内蒙古自治区锡林郭勒盟二连浩特市额仁社区","info":""}},{"type":"Feature","geometry":{"type":"Point","coordinates":[111.54266,40.799762]},"properties":{"province":"内蒙古自治区","city":"呼和浩特市","county":"土默特左旗","community":"金川开发区碧水蓝山小区","full_address":"内蒙古自治区呼和浩特市土默特左旗金川开发区碧水蓝山小区","info":""}},{"type":"Feature","geometry":{"type":"Point","coordinates":[111.703619,40.860256]},"properties":{"province":"内蒙古自治区","city":"呼和浩特市","county":"新城区","community":"华侨新村小区","full_address":"内蒙古自治区呼和浩特市新城区华侨新村小区","info":""}},{"type":"Feature","geometry":{"type":"Point","coordinates":[106.211265,38.482732]},"properties":{"province":"宁夏回族自治区","city":"银川市","county":"金凤区","community":"森林半岛小区","full_address":"宁夏回族自治区银川市金凤区森林半岛小区","info":""}},{"type":"Feature","geometry":{"type":"Point","coordinates":[106.289542,38.485625]},"properties":{"province":"宁夏回族自治区","city":"银川市","county":"兴庆区","community":"太阳都市花园小区","full_address":"宁夏回族自治区银川市兴庆区太阳都市花园小区","info":""}},{"type":"Feature","geometry":{"type":"Point","coordinates":[106.161841,38.478634]},"properties":{"province":"宁夏回族自治区","city":"银川市","county":"西夏区","community":"物华兴洲苑小区","full_address":"宁夏回族自治区银川市西夏区物华兴洲苑小区","info":""}},{"type":"Feature","geometry":{"type":"Point","coordinates":[116.384804,40.060447]},"properties":{"province":"北京市","city":"市辖区","county":"昌平区","community":"东小口镇森林大第家园社区","full_address":"北京市市辖区昌平区东小口镇森林大第家园社区","info":""}},{"type":"Feature","geometry":{"type":"Point","coordinates":[116.414965,40.070239]},"properties":{"province":"北京市","city":"市辖区","county":"昌平区","community":"天通北苑第二社区","full_address":"北京市市辖区昌平区天通北苑第二社区","info":""}},{"type":"Feature","geometry":{"type":"Point","coordinates":[119.214621,35.742944]},"properties":{"province":"山东省","city":"日照市","county":"五莲县","community":"洪凝街道学府壹号小区","full_address":"山东省日照市五莲县洪凝街道学府壹号小区","info":""}},{"type":"Feature","geometry":{"type":"Point","coordinates":[127.521516,50.237484]},"properties":{"province":"黑龙江省","city":"黑河市","county":"爱辉区","community":"博文社区昌辉雅典城小区","full_address":"黑龙江省黑河市爱辉区博文社区昌辉雅典城小区","info":""}},{"type":"Feature","geometry":{"type":"Point","coordinates":[127.516858,50.233748]},"properties":{"province":"黑龙江省","city":"黑河市","county":"爱辉区","community":"博文社区尚品佳苑小区","full_address":"黑龙江省黑河市爱辉区博文社区尚品佳苑小区","info":""}},{"type":"Feature","geometry":{"type":"Point","coordinates":[127.503039,50.241812]},"properties":{"province":"黑龙江省","city":"黑河市","county":"爱辉区","community":"长海社区中房76号楼小区","full_address":"黑龙江省黑河市爱辉区长海社区中房76号楼小区","info":""}},{"type":"Feature","geometry":{"type":"Point","coordinates":[127.502978,50.240716]},"properties":{"province":"黑龙江省","city":"黑河市","county":"爱辉区","community":"长海社区盛泰小区","full_address":"黑龙江省黑河市爱辉区长海社区盛泰小区","info":""}},{"type":"Feature","geometry":{"type":"Point","coordinates":[127.486965,50.255329]},"properties":{"province":"黑龙江省","city":"黑河市","county":"爱辉区","community":"人保财险社区林业集资楼小区","full_address":"黑龙江省黑河市爱辉区人保财险社区林业集资楼小区","info":""}},{"type":"Feature","geometry":{"type":"Point","coordinates":[127.520241,50.242368]},"properties":{"province":"黑龙江省","city":"黑河市","county":"爱辉区","community":"金兰社区林业集资楼小区","full_address":"黑龙江省黑河市爱辉区金兰社区林业集资楼小区","info":""}},{"type":"Feature","geometry":{"type":"Point","coordinates":[127.478895,50.244896]},"properties":{"province":"黑龙江省","city":"黑河市","county":"爱辉区","community":"温馨社区北国明珠小区","full_address":"黑龙江省黑河市爱辉区温馨社区北国明珠小区","info":""}},{"type":"Feature","geometry":{"type":"Point","coordinates":[127.484849,50.243947]},"properties":{"province":"黑龙江省","city":"黑河市","county":"爱辉区","community":"温馨社区欧雅河畔小区","full_address":"黑龙江省黑河市爱辉区温馨社区欧雅河畔小区","info":""}},{"type":"Feature","geometry":{"type":"Point","coordinates":[127.53045,50.230125]},"properties":{"province":"黑龙江省","city":"黑河市","county":"爱辉区","community":"博文社区学府家园小区","full_address":"黑龙江省黑河市爱辉区博文社区学府家园小区","info":""}},{"type":"Feature","geometry":{"type":"Point","coordinates":[127.489956,50.249542]},"properties":{"province":"黑龙江省","city":"黑河市","county":"爱辉区","community":"福龙社区益民二区","full_address":"黑龙江省黑河市爱辉区福龙社区益民二区","info":""}},{"type":"Feature","geometry":{"type":"Point","coordinates":[127.512691,50.243996]},"properties":{"province":"黑龙江省","city":"黑河市","county":"爱辉区","community":"长海社区鹏瑞新起点小区","full_address":"黑龙江省黑河市爱辉区长海社区鹏瑞新起点小区","info":""}},{"type":"Feature","geometry":{"type":"Point","coordinates":[127.500324,50.24187]},"properties":{"province":"黑龙江省","city":"黑河市","county":"爱辉区","community":"长海社区安居小区","full_address":"黑龙江省黑河市爱辉区长海社区安居小区","info":""}},{"type":"Feature","geometry":{"type":"Point","coordinates":[127.504944,50.237007]},"properties":{"province":"黑龙江省","city":"黑河市","county":"爱辉区","community":"长海社区龙滨路交通A区","full_address":"黑龙江省黑河市爱辉区长海社区龙滨路交通A区","info":""}},{"type":"Feature","geometry":{"type":"Point","coordinates":[127.326121,49.419819]},"properties":{"province":"黑龙江省","city":"黑河市","county":"孙吴县","community":"金融社区华和小区","full_address":"黑龙江省黑河市孙吴县金融社区华和小区","info":""}},{"type":"Feature","geometry":{"type":"Point","coordinates":[127.509,50.247167]},"properties":{"province":"黑龙江省","city":"黑河市","county":"爱辉区","community":"联通社区金龙小区","full_address":"黑龙江省黑河市爱辉区联通社区金龙小区","info":""}},{"type":"Feature","geometry":{"type":"Point","coordinates":[127.529994,50.238358]},"properties":{"province":"黑龙江省","city":"黑河市","county":"爱辉区","community":"武庙屯社区中房90号楼","full_address":"黑龙江省黑河市爱辉区武庙屯社区中房90号楼","info":""}},{"type":"Feature","geometry":{"type":"Point","coordinates":[126.466568,50.266125]},"properties":{"province":"黑龙江省","city":"黑河市","county":"爱辉区","community":"罕达汽镇猪肚河村","full_address":"黑龙江省黑河市爱辉区罕达汽镇猪肚河村","info":""}},{"type":"Feature","geometry":{"type":"Point","coordinates":[127.187318,50.617152]},"properties":{"province":"黑龙江省","city":"黑河市","county":"爱辉区","community":"张地营子乡泡子沿村","full_address":"黑龙江省黑河市爱辉区张地营子乡泡子沿村","info":""}},{"type":"Feature","geometry":{"type":"Point","coordinates":[127.443586,50.108105]},"properties":{"province":"黑龙江省","city":"黑河市","county":"爱辉区","community":"瑷珲镇外四道沟村","full_address":"黑龙江省黑河市爱辉区瑷珲镇外四道沟村","info":""}},{"type":"Feature","geometry":{"type":"Point","coordinates":[126.758189,45.722506]},"properties":{"province":"黑龙江省","city":"哈尔滨市","county":"香坊区","community":"恒大时代广场一期","full_address":"黑龙江省哈尔滨市香坊区恒大时代广场一期","info":""}},{"type":"Feature","geometry":{"type":"Point","coordinates":[126.658325,45.582134]},"properties":{"province":"黑龙江省","city":"哈尔滨市","county":"平房区","community":"绿色新城西区","full_address":"黑龙江省哈尔滨市平房区绿色新城西区","info":""}},{"type":"Feature","geometry":{"type":"Point","coordinates":[126.626862,45.593301]},"properties":{"province":"黑龙江省","city":"哈尔滨市","county":"平房区","community":"国际花都一期","full_address":"黑龙江省哈尔滨市平房区国际花都一期","info":""}},{"type":"Feature","geometry":{"type":"Point","coordinates":[126.642496,45.607087]},"properties":{"province":"黑龙江省","city":"哈尔滨市","county":"平房区","community":"金色嘉园小区二期（7号&8号&9号楼）","full_address":"黑龙江省哈尔滨市平房区金色嘉园小区二期（7号&8号&9号楼）","info":""}},{"type":"Feature","geometry":{"type":"Point","coordinates":[117.701665,28.143947]},"properties":{"province":"江西省","city":"上饶市","county":"铅山县","community":"葛仙山镇","full_address":"江西省上饶市铅山县葛仙山镇","info":""}},{"type":"Feature","geometry":{"type":"Point","coordinates":[117.973642,28.44013]},"properties":{"province":"江西省","city":"上饶市","county":"信州区","community":"海德文景苑小区","full_address":"江西省上饶市信州区海德文景苑小区","info":""}},{"type":"Feature","geometry":{"type":"Point","coordinates":[115.251779,38.138187]},"properties":{"province":"河北省","city":"石家庄市","county":"深泽县","community":"西河村","full_address":"河北省石家庄市深泽县西河村","info":""}},{"type":"Feature","geometry":{"type":"Point","coordinates":[115.251641,38.116107]},"properties":{"province":"河北省","city":"省直辖县级行政区划","county":"辛集市","community":"小辛庄乡小章北宋片区","full_address":"河北省省直辖县级行政区划辛集市小辛庄乡小章北宋片区","info":""}},{"type":"Feature","geometry":{"type":"Point","coordinates":[104.035158,30.694467]},"properties":{"province":"四川省","city":"成都市","county":"金牛区","community":"营门口街道顶峰水岸汇景小区（一期&二期）","full_address":"四川省成都市金牛区营门口街道顶峰水岸汇景小区（一期&二期）","info":""}},{"type":"Feature","geometry":{"type":"Point","coordinates":[104.102266,30.616932]},"properties":{"province":"四川省","city":"成都市","county":"锦江区","community":"首创娇子1号小区","full_address":"四川省成都市锦江区首创娇子1号小区","info":""}},{"type":"Feature","geometry":{"type":"Point","coordinates":[104.083956,30.598667]},"properties":{"province":"四川省","city":"成都市","county":"锦江区","community":"蓝光·凯丽香江小区","full_address":"四川省成都市锦江区蓝光·凯丽香江小区","info":""}},{"type":"Feature","geometry":{"type":"Point","coordinates":[104.126402,30.645273]},"properties":{"province":"四川省","city":"成都市","county":"成华区","community":"华府沙河小区","full_address":"四川省成都市成华区华府沙河小区","info":""}},{"type":"Feature","geometry":{"type":"Point","coordinates":[103.987533,30.736808]},"properties":{"province":"四川省","city":"成都市","county":"郫都区","community":"郫都区天璟荟小区","full_address":"四川省成都市郫都区郫都区天璟荟小区","info":""}},{"type":"Feature","geometry":{"type":"Point","coordinates":[113.450655,34.67429]},"properties":{"province":"河南省","city":"郑州市","county":"荥阳市","community":"贾峪镇滨湖社区","full_address":"河南省郑州市荥阳市贾峪镇滨湖社区","info":""}},{"type":"Feature","geometry":{"type":"Point","coordinates":[113.714341,34.758557]},"properties":{"province":"河南省","city":"郑州市","county":"金水区","community":"未来路办事处银基王朝四期","full_address":"河南省郑州市金水区未来路办事处银基王朝四期","info":""}},{"type":"Feature","geometry":{"type":"Point","coordinates":[119.953707,31.762586]},"properties":{"province":"江苏省","city":"常州市","county":"天宁区","community":"兰陵街道九洲新世界花苑君玺","full_address":"江苏省常州市天宁区兰陵街道九洲新世界花苑君玺","info":""}},{"type":"Feature","geometry":{"type":"Point","coordinates":[119.94599,31.763476]},"properties":{"province":"江苏省","city":"常州市","county":"天宁区","community":"工人新村南","full_address":"江苏省常州市天宁区工人新村南","info":""}},{"type":"Feature","geometry":{"type":"Point","coordinates":[119.96461,31.700031]},"properties":{"province":"江苏省","city":"常州市","county":"武进区","community":"湖塘御城","full_address":"江苏省常州市武进区湖塘御城","info":""}},{"type":"Feature","geometry":{"type":"Point","coordinates":[97.846782,24.000808]},"properties":{"province":"云南省","city":"德宏傣族景颇族自治州","county":"瑞丽市","community":"麓川社区翡翠园南片区","full_address":"云南省德宏傣族景颇族自治州瑞丽市麓川社区翡翠园南片区","info":""}},{"type":"Feature","geometry":{"type":"Point","coordinates":[106.530548,29.504479]},"properties":{"province":"重庆市","city":"市辖区","county":"渝北区","community":"宝圣湖街道石盘河社区金石大道398号重庆星充新能源科技有限公司办公区","full_address":"重庆市市辖区渝北区宝圣湖街道石盘河社区金石大道398号重庆星充新能源科技有限公司办公区","info":""}},{"type":"Feature","geometry":{"type":"Point","coordinates":[106.538803,29.590486]},"properties":{"province":"重庆市","city":"市辖区","county":"渝北区","community":"黄龙路53号东原晴天见小区","full_address":"重庆市市辖区渝北区黄龙路53号东原晴天见小区","info":""}},{"type":"Feature","geometry":{"type":"Point","coordinates":[107.077113,29.854957]},"properties":{"province":"重庆市","city":"市辖区","county":"长寿区","community":"菩提街道古镇社区西二支路88号中央公园小区一组团","full_address":"重庆市市辖区长寿区菩提街道古镇社区西二支路88号中央公园小区一组团","info":""}},{"type":"Feature","geometry":{"type":"Point","coordinates":[122.998197,39.650236]},"properties":{"province":"辽宁省","city":"大连市","county":"庄河市","community":"城关街道海洋村沙岗屯","full_address":"辽宁省大连市庄河市城关街道海洋村沙岗屯","info":""}},{"type":"Feature","geometry":{"type":"Point","coordinates":[122.955128,39.683003]},"properties":{"province":"辽宁省","city":"大连市","county":"庄河市","community":"新华街道小寺社区","full_address":"辽宁省大连市庄河市新华街道小寺社区","info":""}}]}