{"type":"FeatureCollection","features":[{"type":"Feature","geometry":{"type":"Point","coordinates":[120.774161,30.019159]},"properties":{"full_address":"浙江省绍兴市上虞区道墟街道积山村诸家自然村"}},{"type":"Feature","geometry":{"type":"Point","coordinates":[120.776762,30.079995]},"properties":{"full_address":"浙江省绍兴市上虞区道墟街道汇联村"}},{"type":"Feature","geometry":{"type":"Point","coordinates":[120.851205,30.066233]},"properties":{"full_address":"浙江省绍兴市上虞区崧厦街道陆家村"}},{"type":"Feature","geometry":{"type":"Point","coordinates":[120.854146,30.038171]},"properties":{"full_address":"浙江省绍兴市上虞区百官街道（除平阳山社区&上棉社区&九浸畈社区&阳光社区&头甲社区&二甲社区&四甲社区&岭光社区&盛丰社区&梁江社区&后村居委&新建居委&百官一村&外严村&南一村&南二村&南三村&路东村&新叶家埭村&高铁新城&百官工业园区&路东工业园区&城东工业园区&叶家埭工业集聚区以外的区域）"}},{"type":"Feature","geometry":{"type":"Point","coordinates":[120.849917,29.976334]},"properties":{"full_address":"浙江省绍兴市上虞区曹娥街道（除白米堰居委&新沙居委&蒿坝村&朱山头村&蒿东村&董村村&红星村&前村村&茅家村&沥泗村以外的区域）"}},{"type":"Feature","geometry":{"type":"Point","coordinates":[108.965902,34.225632]},"properties":{"full_address":"陕西省西安市雁塔区大雁塔街道"}},{"type":"Feature","geometry":{"type":"Point","coordinates":[109.01825,34.230691]},"properties":{"full_address":"陕西省西安市雁塔区等驾坡街道"}},{"type":"Feature","geometry":{"type":"Point","coordinates":[108.920463,34.221531]},"properties":{"full_address":"陕西省西安市雁塔区电子城街道"}},{"type":"Feature","geometry":{"type":"Point","coordinates":[108.927741,34.185934]},"properties":{"full_address":"陕西省西安市雁塔区杜城街道"}},{"type":"Feature","geometry":{"type":"Point","coordinates":[108.926998,34.230598]},"properties":{"full_address":"陕西省西安市雁塔区小寨路街道（不含长安大学社区）"}},{"type":"Feature","geometry":{"type":"Point","coordinates":[108.842269,34.21312]},"properties":{"full_address":"陕西省西安市雁塔区漳浒寨街道"}},{"type":"Feature","geometry":{"type":"Point","coordinates":[108.929949,34.206575]},"properties":{"full_address":"陕西省西安市雁塔区长延堡街道"}},{"type":"Feature","geometry":{"type":"Point","coordinates":[108.965486,34.254914]},"properties":{"full_address":"陕西省西安市碑林区柏树林街道"}},{"type":"Feature","geometry":{"type":"Point","coordinates":[108.969575,34.245966]},"properties":{"full_address":"陕西省西安市碑林区太乙路街道"}},{"type":"Feature","geometry":{"type":"Point","coordinates":[108.95231,34.244901]},"properties":{"full_address":"陕西省西安市碑林区文艺路街道"}},{"type":"Feature","geometry":{"type":"Point","coordinates":[108.935451,34.247264]},"properties":{"full_address":"陕西省西安市碑林区张家村街道"}},{"type":"Feature","geometry":{"type":"Point","coordinates":[108.947364,34.238509]},"properties":{"full_address":"陕西省西安市碑林区长安路街道"}},{"type":"Feature","geometry":{"type":"Point","coordinates":[109.081423,34.313129]},"properties":{"full_address":"陕西省西安市灞桥区灞桥街道"}},{"type":"Feature","geometry":{"type":"Point","coordinates":[109.064461,34.268599]},"properties":{"full_address":"陕西省西安市灞桥区纺织城街道"}},{"type":"Feature","geometry":{"type":"Point","coordinates":[109.05566,34.24263]},"properties":{"full_address":"陕西省西安市灞桥区红旗街道"}},{"type":"Feature","geometry":{"type":"Point","coordinates":[109.117756,34.304467]},"properties":{"full_address":"陕西省西安市灞桥区洪庆街道"}},{"type":"Feature","geometry":{"type":"Point","coordinates":[109.063447,34.287901]},"properties":{"full_address":"陕西省西安市灞桥区席王街道"}},{"type":"Feature","geometry":{"type":"Point","coordinates":[109.008851,34.255499]},"properties":{"full_address":"陕西省西安市新城区韩森寨街道"}},{"type":"Feature","geometry":{"type":"Point","coordinates":[109.014181,34.287143]},"properties":{"full_address":"陕西省西安市新城区胡家庙街道"}},{"type":"Feature","geometry":{"type":"Point","coordinates":[108.974869,34.287897]},"properties":{"full_address":"陕西省西安市新城区太华路街道"}},{"type":"Feature","geometry":{"type":"Point","coordinates":[108.958216,34.2617]},"properties":{"full_address":"陕西省西安市新城区西一路街道"}},{"type":"Feature","geometry":{"type":"Point","coordinates":[108.947571,34.282589]},"properties":{"full_address":"陕西省西安市莲湖区北关街道"}},{"type":"Feature","geometry":{"type":"Point","coordinates":[108.928126,34.286536]},"properties":{"full_address":"陕西省西安市莲湖区红庙坡街道"}},{"type":"Feature","geometry":{"type":"Point","coordinates":[108.888829,34.259178]},"properties":{"full_address":"陕西省西安市莲湖区土门街道"}},{"type":"Feature","geometry":{"type":"Point","coordinates":[108.872139,34.274355]},"properties":{"full_address":"陕西省西安市莲湖区枣园街道"}},{"type":"Feature","geometry":{"type":"Point","coordinates":[108.966124,34.341654]},"properties":{"full_address":"陕西省西安市未央区谭家街道"}},{"type":"Feature","geometry":{"type":"Point","coordinates":[108.906628,34.300551]},"properties":{"full_address":"陕西省西安市未央区未央宫街道"}},{"type":"Feature","geometry":{"type":"Point","coordinates":[108.990111,34.400862]},"properties":{"full_address":"陕西省西安市未央区未央湖街道"}},{"type":"Feature","geometry":{"type":"Point","coordinates":[108.869257,34.159957]},"properties":{"full_address":"陕西省西安市长安区郭杜街道"}},{"type":"Feature","geometry":{"type":"Point","coordinates":[108.934632,34.158892]},"properties":{"full_address":"陕西省西安市长安区韦曲街道"}},{"type":"Feature","geometry":{"type":"Point","coordinates":[108.860762,34.2332]},"properties":{"full_address":"陕西省西安市雁塔区高新区鱼化寨街道"}},{"type":"Feature","geometry":{"type":"Point","coordinates":[108.873871,34.207554]},"properties":{"full_address":"陕西省西安市雁塔区丈八街道"}},{"type":"Feature","geometry":{"type":"Point","coordinates":[108.570971,34.094993]},"properties":{"full_address":"陕西省西安市鄠邑区鄠邑区玉蝉街道"}},{"type":"Feature","geometry":{"type":"Point","coordinates":[108.6023,34.10783]},"properties":{"full_address":"陕西省西安市鄠邑区甘亭街道"}},{"type":"Feature","geometry":{"type":"Point","coordinates":[108.81236,34.302455]},"properties":{"full_address":"陕西省西安市未央区西咸新区沣东新城三桥街道"}},{"type":"Feature","geometry":{"type":"Point","coordinates":[108.953075,34.271492]},"properties":{"full_address":"陕西省西安市新城区上林街道"}},{"type":"Feature","geometry":{"type":"Point","coordinates":[108.789099,34.258264]},"properties":{"full_address":"陕西省西安市长安区王寺街道"}},{"type":"Feature","geometry":{"type":"Point","coordinates":[108.715413,34.24725]},"properties":{"full_address":"陕西省西安市长安区沣西新城马王街道"}},{"type":"Feature","geometry":{"type":"Point","coordinates":[108.887502,34.22302]},"properties":{"full_address":"陕西省西安市西咸新区秦汉新城渭城街道"}},{"type":"Feature","geometry":{"type":"Point","coordinates":[108.960741,34.21178]},"properties":{"full_address":"陕西省西安市雁塔区曲江新区保利春天里社区"}},{"type":"Feature","geometry":{"type":"Point","coordinates":[108.995338,34.216096]},"properties":{"full_address":"陕西省西安市雁塔区中冶一曲江山社区"}},{"type":"Feature","geometry":{"type":"Point","coordinates":[108.961963,34.212383]},"properties":{"full_address":"陕西省西安市雁塔区曲江中心社区"}},{"type":"Feature","geometry":{"type":"Point","coordinates":[108.984699,34.184887]},"properties":{"full_address":"陕西省西安市雁塔区曲江香都社区"}},{"type":"Feature","geometry":{"type":"Point","coordinates":[108.97929,34.182191]},"properties":{"full_address":"陕西省西安市雁塔区中海凯旋门社区"}},{"type":"Feature","geometry":{"type":"Point","coordinates":[109.001152,34.208811]},"properties":{"full_address":"陕西省西安市雁塔区中铁国际城社区"}},{"type":"Feature","geometry":{"type":"Point","coordinates":[109.039484,34.251067]},"properties":{"full_address":"陕西省西安市雁塔区浐灞生态区田家湾社区"}},{"type":"Feature","geometry":{"type":"Point","coordinates":[109.015406,34.323774]},"properties":{"full_address":"陕西省西安市未央区浐灞二路社区"}},{"type":"Feature","geometry":{"type":"Point","coordinates":[109.029621,34.26797]},"properties":{"full_address":"陕西省西安市灞桥区长乐坡社区"}},{"type":"Feature","geometry":{"type":"Point","coordinates":[109.005913,34.304136]},"properties":{"full_address":"陕西省西安市未央区华远海蓝城社区"}},{"type":"Feature","geometry":{"type":"Point","coordinates":[109.047467,34.230968]},"properties":{"full_address":"陕西省西安市雁塔区绿地国际生态城社区"}},{"type":"Feature","geometry":{"type":"Point","coordinates":[108.960612,34.344232]},"properties":{"full_address":"陕西省西安市未央区经开区佳家社区"}},{"type":"Feature","geometry":{"type":"Point","coordinates":[108.960612,34.344232]},"properties":{"full_address":"陕西省西安市未央区海荣豪佳社区"}},{"type":"Feature","geometry":{"type":"Point","coordinates":[108.960612,34.344232]},"properties":{"full_address":"陕西省西安市未央区白桦林居社区"}},{"type":"Feature","geometry":{"type":"Point","coordinates":[108.960612,34.344232]},"properties":{"full_address":"陕西省西安市未央区尚宏社区"}},{"type":"Feature","geometry":{"type":"Point","coordinates":[108.95058,34.169373]},"properties":{"full_address":"陕西省西安市长安区航天基地航天六院社区"}},{"type":"Feature","geometry":{"type":"Point","coordinates":[108.957733,34.158991]},"properties":{"full_address":"陕西省西安市长安区上元郡社区"}},{"type":"Feature","geometry":{"type":"Point","coordinates":[108.980367,34.153515]},"properties":{"full_address":"陕西省西安市长安区神州五路社区"}},{"type":"Feature","geometry":{"type":"Point","coordinates":[109.050656,34.363979]},"properties":{"full_address":"陕西省西安市灞桥区国际港务区新筑街道"}},{"type":"Feature","geometry":{"type":"Point","coordinates":[109.516667,36.769272]},"properties":{"full_address":"陕西省延安市宝塔区冯庄乡首头庄村"}},{"type":"Feature","geometry":{"type":"Point","coordinates":[109.680346,37.141809]},"properties":{"full_address":"陕西省延安市宝塔区宝塔采油厂丰富川联合站"}},{"type":"Feature","geometry":{"type":"Point","coordinates":[109.527087,36.617366]},"properties":{"full_address":"陕西省延安市宝塔区永吉路市邮政局家属院1号楼"}},{"type":"Feature","geometry":{"type":"Point","coordinates":[109.519302,36.612646]},"properties":{"full_address":"陕西省延安市宝塔区桥沟街道办南寨砭村美满国际3号楼"}},{"type":"Feature","geometry":{"type":"Point","coordinates":[113.948359,22.933462]},"properties":{"full_address":"广东省东莞市大朗镇蔡边村九墩区112号"}},{"type":"Feature","geometry":{"type":"Point","coordinates":[113.916687,22.881269]},"properties":{"full_address":"广东省东莞市大朗镇水平村红荔西区金宝公寓"}},{"type":"Feature","geometry":{"type":"Point","coordinates":[113.938196,23.089399]},"properties":{"full_address":"广东省东莞市大朗镇长塘社区长塘花街二街（133号&143号&163号）"}},{"type":"Feature","geometry":{"type":"Point","coordinates":[113.947936,22.960993]},"properties":{"full_address":"广东省东莞市大朗镇大井头社区碧桂园凤妍苑5幢3单元"}},{"type":"Feature","geometry":{"type":"Point","coordinates":[108.13586,21.589003]},"properties":{"full_address":"广西壮族自治区防城港市东兴市江平镇江龙村周屋组"}},{"type":"Feature","geometry":{"type":"Point","coordinates":[102.821537,24.823187]},"properties":{"full_address":"云南省昆明市呈贡区雨花街道营盘社区蓝光天娇城小区"}}]}