{"type":"FeatureCollection","features":[{"type":"Feature","geometry":{"type":"Point","coordinates":[116.489859,31.77987]},"properties":{"full_address":"安徽省六安市裕安区恒大御景湾小区3期"}},{"type":"Feature","geometry":{"type":"Point","coordinates":[116.319639,32.011191]},"properties":{"full_address":"安徽省六安市裕安区固镇镇财富大街大艮头小区"}},{"type":"Feature","geometry":{"type":"Point","coordinates":[122.133705,40.234524]},"properties":{"full_address":"辽宁省营口市鲅鱼圈区红海社区怡海富都小区"}},{"type":"Feature","geometry":{"type":"Point","coordinates":[122.152268,40.169197]},"properties":{"full_address":"辽宁省营口市鲅鱼圈区熊岳镇幸福社区"}},{"type":"Feature","geometry":{"type":"Point","coordinates":[123.417953,41.776785]},"properties":{"full_address":"辽宁省沈阳市和平区文艺路艺园小区"}},{"type":"Feature","geometry":{"type":"Point","coordinates":[123.456629,41.83892]},"properties":{"full_address":"辽宁省沈阳市皇姑区顺天小区78、80、82号楼所在的独立院落"}},{"type":"Feature","geometry":{"type":"Point","coordinates":[123.341626,41.748491]},"properties":{"full_address":"辽宁省沈阳市于洪区碧桂园银河城繁华里小区"}},{"type":"Feature","geometry":{"type":"Point","coordinates":[123.367728,41.753692]},"properties":{"full_address":"辽宁省沈阳市于洪区阳光100一期"}},{"type":"Feature","geometry":{"type":"Point","coordinates":[113.24605,23.076471]},"properties":{"full_address":"广东省广州市荔湾区白鹤洞街"}},{"type":"Feature","geometry":{"type":"Point","coordinates":[113.249058,23.117616]},"properties":{"full_address":"广东省广州市荔湾区中南街"}},{"type":"Feature","geometry":{"type":"Point","coordinates":[113.224579,23.079956]},"properties":{"full_address":"广东省广州市荔湾区东漖街"}},{"type":"Feature","geometry":{"type":"Point","coordinates":[113.646467,23.628199]},"properties":{"full_address":"广东省广州市从化区冲口街"}},{"type":"Feature","geometry":{"type":"Point","coordinates":[113.248636,23.124243]},"properties":{"full_address":"广东省广州市荔湾区龙津街锦龙汇鑫阁"}},{"type":"Feature","geometry":{"type":"Point","coordinates":[113.221767,23.147566]},"properties":{"full_address":"广东省广州市白云区鹤园小区东片"}}]}