{"type":"FeatureCollection","features":[{"type":"Feature","geometry":{"type":"Point","coordinates":[97.890538,23.979522]},"properties":{"full_address":"云南省德宏傣族景颇族自治州瑞丽市姐告国门社区"}},{"type":"Feature","geometry":{"type":"Point","coordinates":[118.865185,31.774661]},"properties":{"full_address":"江苏省南京市江宁区禄口街道全域"}},{"type":"Feature","geometry":{"type":"Point","coordinates":[119.494547,32.422843]},"properties":{"full_address":"江苏省扬州市广陵区湾头镇"}},{"type":"Feature","geometry":{"type":"Point","coordinates":[119.465883,32.36738]},"properties":{"full_address":"江苏省扬州市广陵区汤汪乡"}},{"type":"Feature","geometry":{"type":"Point","coordinates":[119.469229,32.40693]},"properties":{"full_address":"江苏省扬州市广陵区曲江街道"}},{"type":"Feature","geometry":{"type":"Point","coordinates":[119.446339,32.397772]},"properties":{"full_address":"江苏省扬州市广陵区东关街道"}},{"type":"Feature","geometry":{"type":"Point","coordinates":[119.395059,32.37859]},"properties":{"full_address":"江苏省扬州市邗江区双桥街道宝带河以西、文昌西路以南、新城河路以东、文汇西路以北合围区域"}},{"type":"Feature","geometry":{"type":"Point","coordinates":[119.39333,32.378331]},"properties":{"full_address":"江苏省扬州市邗江区邗上街道"}},{"type":"Feature","geometry":{"type":"Point","coordinates":[119.36498,32.380211]},"properties":{"full_address":"江苏省扬州市邗江区新盛街道"}},{"type":"Feature","geometry":{"type":"Point","coordinates":[119.413736,32.379418]},"properties":{"full_address":"江苏省扬州市邗江区经济技术开发区文汇街道"}},{"type":"Feature","geometry":{"type":"Point","coordinates":[119.418054,32.411468]},"properties":{"full_address":"江苏省扬州市邗江区蜀冈-瘦西湖风景名胜区梅岭街道"}},{"type":"Feature","geometry":{"type":"Point","coordinates":[113.666948,34.710663]},"properties":{"full_address":"河南省郑州市二七区京广路街道"}},{"type":"Feature","geometry":{"type":"Point","coordinates":[114.187569,34.564675]},"properties":{"full_address":"河南省开封市尉氏县庄头镇前曹村"}},{"type":"Feature","geometry":{"type":"Point","coordinates":[114.192787,34.578044]},"properties":{"full_address":"河南省开封市尉氏县后曹村"}},{"type":"Feature","geometry":{"type":"Point","coordinates":[114.182666,34.584888]},"properties":{"full_address":"河南省开封市尉氏县于家村"}},{"type":"Feature","geometry":{"type":"Point","coordinates":[114.165085,34.579218]},"properties":{"full_address":"河南省开封市尉氏县文家村"}},{"type":"Feature","geometry":{"type":"Point","coordinates":[114.162814,34.571595]},"properties":{"full_address":"河南省开封市尉氏县刘家村"}},{"type":"Feature","geometry":{"type":"Point","coordinates":[114.271146,34.478157]},"properties":{"full_address":"河南省开封市尉氏县孙庄村"}},{"type":"Feature","geometry":{"type":"Point","coordinates":[114.19407,34.553419]},"properties":{"full_address":"河南省开封市尉氏县田家村"}},{"type":"Feature","geometry":{"type":"Point","coordinates":[114.515839,32.559431]},"properties":{"full_address":"河南省驻马店市正阳县吕河乡杨店行政村"}},{"type":"Feature","geometry":{"type":"Point","coordinates":[114.496249,32.541207]},"properties":{"full_address":"河南省驻马店市正阳县大杨行政村"}},{"type":"Feature","geometry":{"type":"Point","coordinates":[114.517304,32.567723]},"properties":{"full_address":"河南省驻马店市正阳县彭围孜行政村"}},{"type":"Feature","geometry":{"type":"Point","coordinates":[114.323845,32.475656]},"properties":{"full_address":"河南省驻马店市正阳县兰青乡兰青行政村"}},{"type":"Feature","geometry":{"type":"Point","coordinates":[114.54086,32.651946]},"properties":{"full_address":"河南省驻马店市正阳县袁寨镇付庄行政村"}},{"type":"Feature","geometry":{"type":"Point","coordinates":[115.870939,34.396405]},"properties":{"full_address":"河南省商丘市虞城县人民医院东院区（新增）"}},{"type":"Feature","geometry":{"type":"Point","coordinates":[115.768892,34.280095]},"properties":{"full_address":"河南省商丘市虞城县谷熟镇刘大庄村委何庄村（新增）"}},{"type":"Feature","geometry":{"type":"Point","coordinates":[110.479977,29.10307]},"properties":{"full_address":"湖南省张家界市永定区官黎坪街道黄金塔社区"}},{"type":"Feature","geometry":{"type":"Point","coordinates":[110.473264,29.118808]},"properties":{"full_address":"湖南省张家界市永定区子午路以南、大桥路以西、大庸路以东合围区域"}},{"type":"Feature","geometry":{"type":"Point","coordinates":[110.474371,29.131605]},"properties":{"full_address":"湖南省张家界市永定区子午路以南、迎宾路以西、澧水河以北、大桥路以东合围区域"}}]}