{"type":"FeatureCollection","features":[{"type":"Feature","geometry":{"type":"Point","coordinates":[97.846372,24.004068]},"properties":{"province":"云南省","city":"德宏傣族景颇族自治州","county":"瑞丽市","community":"鑫盛时代佳园小区","full_address":"云南省德宏傣族景颇族自治州瑞丽市鑫盛时代佳园小区","info":""}},{"type":"Feature","geometry":{"type":"Point","coordinates":[97.849934,24.024636]},"properties":{"province":"云南省","city":"德宏傣族景颇族自治州","county":"瑞丽市","community":"瑞京路红砖厂","full_address":"云南省德宏傣族景颇族自治州瑞丽市瑞京路红砖厂","info":""}},{"type":"Feature","geometry":{"type":"Point","coordinates":[97.867046,24.012412]},"properties":{"province":"云南省","city":"德宏傣族景颇族自治州","county":"瑞丽市","community":"星河蓝湾小区","full_address":"云南省德宏傣族景颇族自治州瑞丽市星河蓝湾小区","info":""}},{"type":"Feature","geometry":{"type":"Point","coordinates":[97.84239,24.015775]},"properties":{"province":"云南省","city":"德宏傣族景颇族自治州","county":"瑞丽市","community":"双卯村民小组","full_address":"云南省德宏傣族景颇族自治州瑞丽市双卯村民小组","info":""}},{"type":"Feature","geometry":{"type":"Point","coordinates":[97.860688,23.998545]},"properties":{"province":"云南省","city":"德宏傣族景颇族自治州","county":"瑞丽市","community":"下弄安村民小组","full_address":"云南省德宏傣族景颇族自治州瑞丽市下弄安村民小组","info":""}},{"type":"Feature","geometry":{"type":"Point","coordinates":[97.854663,24.013117]},"properties":{"province":"云南省","city":"德宏傣族景颇族自治州","county":"瑞丽市","community":"珠宝街老食品厂家属区","full_address":"云南省德宏傣族景颇族自治州瑞丽市珠宝街老食品厂家属区","info":""}}]}