{"type":"FeatureCollection","features":[{"type":"Feature","geometry":{"type":"Point","coordinates":[103.836001,36.04126]},"properties":{"full_address":"甘肃省兰州市城关区云祥小区"}},{"type":"Feature","geometry":{"type":"Point","coordinates":[103.888843,36.069142]},"properties":{"full_address":"甘肃省兰州市城关区雁北路天庆丽舍小区"}},{"type":"Feature","geometry":{"type":"Point","coordinates":[111.968568,43.648384]},"properties":{"full_address":"内蒙古自治区锡林郭勒盟二连浩特市锡林社区"}},{"type":"Feature","geometry":{"type":"Point","coordinates":[111.963024,43.634483]},"properties":{"full_address":"内蒙古自治区锡林郭勒盟二连浩特市西城社区"}},{"type":"Feature","geometry":{"type":"Point","coordinates":[111.983516,43.637327]},"properties":{"full_address":"内蒙古自治区锡林郭勒盟二连浩特市额仁社区"}},{"type":"Feature","geometry":{"type":"Point","coordinates":[105.675067,38.834519]},"properties":{"full_address":"内蒙古自治区阿拉善盟阿拉善左旗巴彦浩特镇新华街道"}}]}