{"type":"FeatureCollection","features":[{"type":"Feature","geometry":{"type":"Point","coordinates":[97.75088,24.187587]},"properties":{"province":"云南省","city":"德宏傣族景颇族自治州","county":"陇川县","community":"章凤镇迭撒村拉影村民小组","full_address":"云南省德宏傣族景颇族自治州陇川县章凤镇迭撒村拉影村民小组","info":""}},{"type":"Feature","geometry":{"type":"Point","coordinates":[97.654805,23.878132]},"properties":{"province":"云南省","city":"德宏傣族景颇族自治州","county":"瑞丽市","community":"弄岛镇雷允村委会雷允村民小组","full_address":"云南省德宏傣族景颇族自治州瑞丽市弄岛镇雷允村委会雷允村民小组","info":""}},{"type":"Feature","geometry":{"type":"Point","coordinates":[104.702063,31.390056]},"properties":{"province":"四川省","city":"绵阳市","county":"涪城区","community":"吴家镇惠科路1号厂区","full_address":"四川省绵阳市涪城区吴家镇惠科路1号厂区","info":""}},{"type":"Feature","geometry":{"type":"Point","coordinates":[123.479533,41.807102]},"properties":{"province":"辽宁省","city":"沈阳市","county":"大东区","community":"珠林路50-15号楼","full_address":"辽宁省沈阳市大东区珠林路50-15号楼","info":""}},{"type":"Feature","geometry":{"type":"Point","coordinates":[118.927537,31.695885]},"properties":{"province":"江苏省","city":"南京市","county":"江宁区","community":"禄口街道曹村村张家自然村","full_address":"江苏省南京市江宁区禄口街道曹村村张家自然村","info":""}},{"type":"Feature","geometry":{"type":"Point","coordinates":[118.943997,31.692376]},"properties":{"province":"江苏省","city":"南京市","county":"江宁区","community":"欢墩山自然村","full_address":"江苏省南京市江宁区欢墩山自然村","info":""}},{"type":"Feature","geometry":{"type":"Point","coordinates":[119.011545,31.868194]},"properties":{"province":"江苏省","city":"南京市","county":"江宁区","community":"山阴自然村","full_address":"江苏省南京市江宁区山阴自然村","info":""}},{"type":"Feature","geometry":{"type":"Point","coordinates":[119.011545,31.868194]},"properties":{"province":"江苏省","city":"南京市","county":"江宁区","community":"街东自然村","full_address":"江苏省南京市江宁区街东自然村","info":""}},{"type":"Feature","geometry":{"type":"Point","coordinates":[118.896182,31.671436]},"properties":{"province":"江苏省","city":"南京市","county":"江宁区","community":"溧塘村铜山端自然村","full_address":"江苏省南京市江宁区溧塘村铜山端自然村","info":""}},{"type":"Feature","geometry":{"type":"Point","coordinates":[118.846876,31.697743]},"properties":{"province":"江苏省","city":"南京市","county":"江宁区","community":"陈巷村前陈巷自然村","full_address":"江苏省南京市江宁区陈巷村前陈巷自然村","info":""}},{"type":"Feature","geometry":{"type":"Point","coordinates":[118.836507,31.672965]},"properties":{"province":"江苏省","city":"南京市","county":"江宁区","community":"桑园村排驾口自然村","full_address":"江苏省南京市江宁区桑园村排驾口自然村","info":""}},{"type":"Feature","geometry":{"type":"Point","coordinates":[119.101566,31.996989]},"properties":{"province":"江苏省","city":"南京市","county":"江宁区","community":"驻驾山自然村","full_address":"江苏省南京市江宁区驻驾山自然村","info":""}},{"type":"Feature","geometry":{"type":"Point","coordinates":[118.906959,31.694685]},"properties":{"province":"江苏省","city":"南京市","county":"江宁区","community":"埂方村卷蓬自然村","full_address":"江苏省南京市江宁区埂方村卷蓬自然村","info":""}},{"type":"Feature","geometry":{"type":"Point","coordinates":[118.86678,31.764614]},"properties":{"province":"江苏省","city":"南京市","county":"江宁区","community":"钟村社区永欣新寓春兰苑","full_address":"江苏省南京市江宁区钟村社区永欣新寓春兰苑","info":""}},{"type":"Feature","geometry":{"type":"Point","coordinates":[118.932013,31.700758]},"properties":{"province":"江苏省","city":"南京市","county":"江宁区","community":"彭福村彭福自然村","full_address":"江苏省南京市江宁区彭福村彭福自然村","info":""}},{"type":"Feature","geometry":{"type":"Point","coordinates":[118.860647,31.762793]},"properties":{"province":"江苏省","city":"南京市","county":"江宁区","community":"秦村村永欣新寓紫荆苑","full_address":"江苏省南京市江宁区秦村村永欣新寓紫荆苑","info":""}},{"type":"Feature","geometry":{"type":"Point","coordinates":[118.861008,31.761321]},"properties":{"province":"江苏省","city":"南京市","county":"江宁区","community":"海棠苑","full_address":"江苏省南京市江宁区海棠苑","info":""}},{"type":"Feature","geometry":{"type":"Point","coordinates":[118.857902,31.79522]},"properties":{"province":"江苏省","city":"南京市","county":"江宁区","community":"陆纲社区翠屏城小区","full_address":"江苏省南京市江宁区陆纲社区翠屏城小区","info":""}},{"type":"Feature","geometry":{"type":"Point","coordinates":[118.913889,31.713662]},"properties":{"province":"江苏省","city":"南京市","county":"江宁区","community":"小彭村坂田埂自然村","full_address":"江苏省南京市江宁区小彭村坂田埂自然村","info":""}},{"type":"Feature","geometry":{"type":"Point","coordinates":[119.011545,31.868194]},"properties":{"province":"江苏省","city":"南京市","county":"江宁区","community":"徐家宕自然村","full_address":"江苏省南京市江宁区徐家宕自然村","info":""}},{"type":"Feature","geometry":{"type":"Point","coordinates":[118.942266,31.862374]},"properties":{"province":"江苏省","city":"南京市","county":"江宁区","community":"东岗头自然村","full_address":"江苏省南京市江宁区东岗头自然村","info":""}},{"type":"Feature","geometry":{"type":"Point","coordinates":[118.843958,31.775877]},"properties":{"province":"江苏省","city":"南京市","county":"江宁区","community":"群力社区金德路63号","full_address":"江苏省南京市江宁区群力社区金德路63号","info":""}},{"type":"Feature","geometry":{"type":"Point","coordinates":[118.864741,31.801367]},"properties":{"province":"江苏省","city":"南京市","county":"江宁区","community":"马铺村刘家自然村","full_address":"江苏省南京市江宁区马铺村刘家自然村","info":""}},{"type":"Feature","geometry":{"type":"Point","coordinates":[118.94874,31.797019]},"properties":{"province":"江苏省","city":"南京市","county":"江宁区","community":"湖熟街道周岗社区张巷自然村","full_address":"江苏省南京市江宁区湖熟街道周岗社区张巷自然村","info":""}},{"type":"Feature","geometry":{"type":"Point","coordinates":[118.897992,31.817375]},"properties":{"province":"江苏省","city":"南京市","county":"江宁区","community":"庄上自然村","full_address":"江苏省南京市江宁区庄上自然村","info":""}},{"type":"Feature","geometry":{"type":"Point","coordinates":[118.93565,31.799071]},"properties":{"province":"江苏省","city":"南京市","county":"江宁区","community":"尚桥社区焦东自然村","full_address":"江苏省南京市江宁区尚桥社区焦东自然村","info":""}},{"type":"Feature","geometry":{"type":"Point","coordinates":[118.824076,31.900879]},"properties":{"province":"江苏省","city":"南京市","county":"江宁区","community":"秣陵街道殷巷社龙湖文馨苑小区","full_address":"江苏省南京市江宁区秣陵街道殷巷社龙湖文馨苑小区","info":""}},{"type":"Feature","geometry":{"type":"Point","coordinates":[118.793712,31.906291]},"properties":{"province":"江苏省","city":"南京市","county":"江宁区","community":"青源社区翠屏湾花园城","full_address":"江苏省南京市江宁区青源社区翠屏湾花园城","info":""}},{"type":"Feature","geometry":{"type":"Point","coordinates":[118.812897,31.685816]},"properties":{"province":"江苏省","city":"南京市","county":"江宁区","community":"横溪街道许呈社区小呈自然村","full_address":"江苏省南京市江宁区横溪街道许呈社区小呈自然村","info":""}},{"type":"Feature","geometry":{"type":"Point","coordinates":[118.83629,31.944619]},"properties":{"province":"江苏省","city":"南京市","county":"江宁区","community":"东山街道骆村社区天琪福苑","full_address":"江苏省南京市江宁区东山街道骆村社区天琪福苑","info":""}},{"type":"Feature","geometry":{"type":"Point","coordinates":[118.96626,31.689765]},"properties":{"province":"江苏省","city":"南京市","county":"溧水区","community":"石湫街道九塘行政村毛家圩自然村","full_address":"江苏省南京市溧水区石湫街道九塘行政村毛家圩自然村","info":""}},{"type":"Feature","geometry":{"type":"Point","coordinates":[119.052645,31.642283]},"properties":{"province":"江苏省","city":"南京市","county":"溧水区","community":"永阳街道万科城香樟苑","full_address":"江苏省南京市溧水区永阳街道万科城香樟苑","info":""}},{"type":"Feature","geometry":{"type":"Point","coordinates":[119.037452,31.649815]},"properties":{"province":"江苏省","city":"南京市","county":"溧水区","community":"宏力花苑","full_address":"江苏省南京市溧水区宏力花苑","info":""}},{"type":"Feature","geometry":{"type":"Point","coordinates":[118.739757,32.204397]},"properties":{"province":"江苏省","city":"南京市","county":"六合区","community":"柘塘街道湖滨新寓","full_address":"江苏省南京市六合区柘塘街道湖滨新寓","info":""}},{"type":"Feature","geometry":{"type":"Point","coordinates":[119.165386,31.369209]},"properties":{"province":"江苏省","city":"南京市","county":"高淳区","community":"桠溪街道省道239与桠定路交叉路口芜太建材店所在建筑范围","full_address":"江苏省南京市高淳区桠溪街道省道239与桠定路交叉路口芜太建材店所在建筑范围","info":""}},{"type":"Feature","geometry":{"type":"Point","coordinates":[118.753997,32.019354]},"properties":{"province":"江苏省","city":"南京市","county":"建邺区","community":"南苑街道所街26号","full_address":"江苏省南京市建邺区南苑街道所街26号","info":""}},{"type":"Feature","geometry":{"type":"Point","coordinates":[118.822345,32.028062]},"properties":{"province":"江苏省","city":"南京市","county":"秦淮区","community":"瑞金路街道标营4号26栋、27栋、28栋、29栋、30栋","full_address":"江苏省南京市秦淮区瑞金路街道标营4号26栋、27栋、28栋、29栋、30栋","info":""}},{"type":"Feature","geometry":{"type":"Point","coordinates":[118.851188,32.020605]},"properties":{"province":"江苏省","city":"南京市","county":"玄武区","community":"孝陵卫街道胜利村100号","full_address":"江苏省南京市玄武区孝陵卫街道胜利村100号","info":""}},{"type":"Feature","geometry":{"type":"Point","coordinates":[118.806747,32.10617]},"properties":{"province":"江苏省","city":"南京市","county":"栖霞区","community":"迈皋桥街道和燕花苑12幢","full_address":"江苏省南京市栖霞区迈皋桥街道和燕花苑12幢","info":""}},{"type":"Feature","geometry":{"type":"Point","coordinates":[118.757467,32.087219]},"properties":{"province":"江苏省","city":"南京市","county":"鼓楼区","community":"挹江门街道大桥南路10号","full_address":"江苏省南京市鼓楼区挹江门街道大桥南路10号","info":""}},{"type":"Feature","geometry":{"type":"Point","coordinates":[118.675917,33.704824]},"properties":{"province":"江苏省","city":"宿迁市","county":"泗阳县","community":"众兴街道西湖社区中华商城小区","full_address":"江苏省宿迁市泗阳县众兴街道西湖社区中华商城小区","info":""}}]}