{"type":"FeatureCollection","features":[{"type":"Feature","geometry":{"type":"Point","coordinates":[103.836001,36.04126]},"properties":{"full_address":"甘肃省兰州市城关区云祥小区"}},{"type":"Feature","geometry":{"type":"Point","coordinates":[103.888843,36.069142]},"properties":{"full_address":"甘肃省兰州市城关区雁北路天庆丽舍小区"}},{"type":"Feature","geometry":{"type":"Point","coordinates":[103.876665,36.047961]},"properties":{"full_address":"甘肃省兰州市城关区东湖小区"}},{"type":"Feature","geometry":{"type":"Point","coordinates":[100.501352,38.89472]},"properties":{"full_address":"甘肃省张掖市甘州区锦绣嘉苑（梁家墩镇六号村）"}},{"type":"Feature","geometry":{"type":"Point","coordinates":[100.443664,38.915324]},"properties":{"full_address":"甘肃省张掖市甘州区龙王庙小区"}},{"type":"Feature","geometry":{"type":"Point","coordinates":[111.968568,43.648384]},"properties":{"full_address":"内蒙古自治区锡林郭勒盟二连浩特市锡林社区"}},{"type":"Feature","geometry":{"type":"Point","coordinates":[111.963024,43.634483]},"properties":{"full_address":"内蒙古自治区锡林郭勒盟二连浩特市西城社区"}},{"type":"Feature","geometry":{"type":"Point","coordinates":[111.983516,43.637327]},"properties":{"full_address":"内蒙古自治区锡林郭勒盟二连浩特市额仁社区"}},{"type":"Feature","geometry":{"type":"Point","coordinates":[105.675067,38.834519]},"properties":{"full_address":"内蒙古自治区阿拉善盟阿拉善左旗巴彦浩特镇新华街道"}},{"type":"Feature","geometry":{"type":"Point","coordinates":[111.54266,40.799762]},"properties":{"full_address":"内蒙古自治区呼和浩特市土默特左旗金川开发区碧水蓝山小区"}},{"type":"Feature","geometry":{"type":"Point","coordinates":[111.703619,40.860256]},"properties":{"full_address":"内蒙古自治区呼和浩特市新城区华侨新村小区"}},{"type":"Feature","geometry":{"type":"Point","coordinates":[106.93077,27.726938]},"properties":{"full_address":"贵州省遵义市汇川区仁和苑小区"}},{"type":"Feature","geometry":{"type":"Point","coordinates":[106.932843,27.724137]},"properties":{"full_address":"贵州省遵义市汇川区东方湘江湾小区"}},{"type":"Feature","geometry":{"type":"Point","coordinates":[106.211265,38.482732]},"properties":{"full_address":"宁夏回族自治区银川市金凤区森林半岛小区"}},{"type":"Feature","geometry":{"type":"Point","coordinates":[106.289542,38.485625]},"properties":{"full_address":"宁夏回族自治区银川市兴庆区太阳都市花园小区"}},{"type":"Feature","geometry":{"type":"Point","coordinates":[106.161841,38.478634]},"properties":{"full_address":"宁夏回族自治区银川市西夏区物华兴洲苑小区"}},{"type":"Feature","geometry":{"type":"Point","coordinates":[116.384804,40.060447]},"properties":{"full_address":"北京市市辖区昌平区东小口镇森林大第家园社区"}},{"type":"Feature","geometry":{"type":"Point","coordinates":[116.414965,40.070239]},"properties":{"full_address":"北京市市辖区昌平区天通北苑第二社区"}},{"type":"Feature","geometry":{"type":"Point","coordinates":[119.214621,35.742944]},"properties":{"full_address":"山东省日照市五莲县洪凝街道学府壹号小区"}},{"type":"Feature","geometry":{"type":"Point","coordinates":[127.521516,50.237484]},"properties":{"full_address":"黑龙江省黑河市爱辉区博文社区昌辉雅典城小区"}},{"type":"Feature","geometry":{"type":"Point","coordinates":[127.516858,50.233748]},"properties":{"full_address":"黑龙江省黑河市爱辉区博文社区尚品佳苑小区"}},{"type":"Feature","geometry":{"type":"Point","coordinates":[127.503039,50.241812]},"properties":{"full_address":"黑龙江省黑河市爱辉区长海社区中房76号楼小区"}},{"type":"Feature","geometry":{"type":"Point","coordinates":[127.502978,50.240716]},"properties":{"full_address":"黑龙江省黑河市爱辉区长海社区盛泰小区"}},{"type":"Feature","geometry":{"type":"Point","coordinates":[127.486965,50.255329]},"properties":{"full_address":"黑龙江省黑河市爱辉区人保财险社区林业集资楼小区"}},{"type":"Feature","geometry":{"type":"Point","coordinates":[127.520241,50.242368]},"properties":{"full_address":"黑龙江省黑河市爱辉区金兰社区林业集资楼小区"}},{"type":"Feature","geometry":{"type":"Point","coordinates":[127.478895,50.244896]},"properties":{"full_address":"黑龙江省黑河市爱辉区温馨社区北国明珠小区"}},{"type":"Feature","geometry":{"type":"Point","coordinates":[127.484849,50.243947]},"properties":{"full_address":"黑龙江省黑河市爱辉区温馨社区欧雅河畔小区"}},{"type":"Feature","geometry":{"type":"Point","coordinates":[127.53045,50.230125]},"properties":{"full_address":"黑龙江省黑河市爱辉区博文社区学府家园小区"}},{"type":"Feature","geometry":{"type":"Point","coordinates":[127.489956,50.249542]},"properties":{"full_address":"黑龙江省黑河市爱辉区福龙社区益民二区"}},{"type":"Feature","geometry":{"type":"Point","coordinates":[127.512691,50.243996]},"properties":{"full_address":"黑龙江省黑河市爱辉区长海社区鹏瑞新起点小区"}},{"type":"Feature","geometry":{"type":"Point","coordinates":[127.500324,50.24187]},"properties":{"full_address":"黑龙江省黑河市爱辉区长海社区安居小区"}},{"type":"Feature","geometry":{"type":"Point","coordinates":[127.504944,50.237007]},"properties":{"full_address":"黑龙江省黑河市爱辉区长海社区龙滨路交通A区"}},{"type":"Feature","geometry":{"type":"Point","coordinates":[127.326121,49.419819]},"properties":{"full_address":"黑龙江省黑河市孙吴县金融社区华和小区"}},{"type":"Feature","geometry":{"type":"Point","coordinates":[127.509,50.247167]},"properties":{"full_address":"黑龙江省黑河市爱辉区联通社区金龙小区"}},{"type":"Feature","geometry":{"type":"Point","coordinates":[127.529994,50.238358]},"properties":{"full_address":"黑龙江省黑河市爱辉区武庙屯社区中房90号楼"}},{"type":"Feature","geometry":{"type":"Point","coordinates":[126.466568,50.266125]},"properties":{"full_address":"黑龙江省黑河市爱辉区罕达汽镇猪肚河村"}},{"type":"Feature","geometry":{"type":"Point","coordinates":[127.187318,50.617152]},"properties":{"full_address":"黑龙江省黑河市爱辉区张地营子乡泡子沿村"}},{"type":"Feature","geometry":{"type":"Point","coordinates":[127.443586,50.108105]},"properties":{"full_address":"黑龙江省黑河市爱辉区瑷珲镇外四道沟村"}},{"type":"Feature","geometry":{"type":"Point","coordinates":[126.758189,45.722506]},"properties":{"full_address":"黑龙江省哈尔滨市香坊区恒大时代广场一期"}},{"type":"Feature","geometry":{"type":"Point","coordinates":[126.658325,45.582134]},"properties":{"full_address":"黑龙江省哈尔滨市平房区绿色新城西区"}},{"type":"Feature","geometry":{"type":"Point","coordinates":[126.626862,45.593301]},"properties":{"full_address":"黑龙江省哈尔滨市平房区国际花都一期"}},{"type":"Feature","geometry":{"type":"Point","coordinates":[117.701665,28.143947]},"properties":{"full_address":"江西省上饶市铅山县葛仙山镇"}},{"type":"Feature","geometry":{"type":"Point","coordinates":[115.219083,38.127582]},"properties":{"full_address":"河北省石家庄市深泽县河庄村"}},{"type":"Feature","geometry":{"type":"Point","coordinates":[115.251641,38.116107]},"properties":{"full_address":"河北省省直辖县级行政区划辛集市小辛庄乡小章北宋片区"}}]}