{"type":"FeatureCollection","features":[{"type":"Feature","geometry":{"type":"Point","coordinates":[120.880449,30.012696]},"properties":{"province":"浙江省","city":"绍兴市","county":"上虞区","community":"百官街道（平阳山社区&上棉社区&九浸畈社区&阳光社区&头甲社区&二甲社区&四甲社区&岭光社区&盛丰社区&梁江社区&后村居委&新建居委&百官一村&外严村&南一村&南二村&南三村&路东村&新叶家埭村&高铁新城&百官工业区&路东工业园区&城东工业园区&叶家埭工业集聚区为Low风险）","full_address":"浙江省绍兴市上虞区百官街道（平阳山社区&上棉社区&九浸畈社区&阳光社区&头甲社区&二甲社区&四甲社区&岭光社区&盛丰社区&梁江社区&后村居委&新建居委&百官一村&外严村&南一村&南二村&南三村&路东村&新叶家埭村&高铁新城&百官工业区&路东工业园区&城东工业园区&叶家埭工业集聚区为Low风险）","info":""}},{"type":"Feature","geometry":{"type":"Point","coordinates":[120.869174,30.012424]},"properties":{"province":"浙江省","city":"绍兴市","county":"上虞区","community":"曹娥街道（振兴社区&银河社区&大通超市<舜杰路店>为High风险and白米堰居委&新沙居委&蒿坝村&朱山头村&蒿东村&董村村&红星村&前村村&茅家村&沥泗村为Low风险）","full_address":"浙江省绍兴市上虞区曹娥街道（振兴社区&银河社区&大通超市<舜杰路店>为High风险and白米堰居委&新沙居委&蒿坝村&朱山头村&蒿东村&董村村&红星村&前村村&茅家村&沥泗村为Low风险）","info":""}},{"type":"Feature","geometry":{"type":"Point","coordinates":[120.798119,29.990176]},"properties":{"province":"浙江省","city":"绍兴市","county":"上虞区","community":"东关街道大西庄村马家自然村","full_address":"浙江省绍兴市上虞区东关街道大西庄村马家自然村","info":""}},{"type":"Feature","geometry":{"type":"Point","coordinates":[120.818191,30.004439]},"properties":{"province":"浙江省","city":"绍兴市","county":"上虞区","community":"南阳社区新东方家园13幢","full_address":"浙江省绍兴市上虞区南阳社区新东方家园13幢","info":""}},{"type":"Feature","geometry":{"type":"Point","coordinates":[120.596966,29.981834]},"properties":{"province":"浙江省","city":"绍兴市","county":"越城区","community":"道墟街道积山村诸家自然村","full_address":"浙江省绍兴市越城区道墟街道积山村诸家自然村","info":""}},{"type":"Feature","geometry":{"type":"Point","coordinates":[120.776762,30.079995]},"properties":{"province":"浙江省","city":"绍兴市","county":"上虞区","community":"汇联村","full_address":"浙江省绍兴市上虞区汇联村","info":""}},{"type":"Feature","geometry":{"type":"Point","coordinates":[120.898934,29.988432]},"properties":{"province":"浙江省","city":"绍兴市","county":"上虞区","community":"梁湖街道天香华庭小区香榭居17幢","full_address":"浙江省绍兴市上虞区梁湖街道天香华庭小区香榭居17幢","info":""}},{"type":"Feature","geometry":{"type":"Point","coordinates":[120.851205,30.066233]},"properties":{"province":"浙江省","city":"绍兴市","county":"上虞区","community":"崧厦街道陆家村","full_address":"浙江省绍兴市上虞区崧厦街道陆家村","info":""}},{"type":"Feature","geometry":{"type":"Point","coordinates":[120.950444,30.031544]},"properties":{"province":"浙江省","city":"绍兴市","county":"上虞区","community":"章镇镇鲁溪闸群英自然村","full_address":"浙江省绍兴市上虞区章镇镇鲁溪闸群英自然村","info":""}},{"type":"Feature","geometry":{"type":"Point","coordinates":[120.950153,30.031414]},"properties":{"province":"浙江省","city":"绍兴市","county":"上虞区","community":"鲁溪闸下闸自然村","full_address":"浙江省绍兴市上虞区鲁溪闸下闸自然村","info":""}},{"type":"Feature","geometry":{"type":"Point","coordinates":[108.949042,34.239723]},"properties":{"province":"陕西省","city":"西安市","county":"碑林区","community":"长安路街道大话南门小区5号楼","full_address":"陕西省西安市碑林区长安路街道大话南门小区5号楼","info":""}},{"type":"Feature","geometry":{"type":"Point","coordinates":[108.933639,34.234298]},"properties":{"province":"陕西省","city":"西安市","county":"碑林区","community":"张家村街道九锦台小区12号楼","full_address":"陕西省西安市碑林区张家村街道九锦台小区12号楼","info":""}},{"type":"Feature","geometry":{"type":"Point","coordinates":[108.939952,34.248679]},"properties":{"province":"陕西省","city":"西安市","county":"碑林区","community":"张家村街道大学东路66号院80号民房","full_address":"陕西省西安市碑林区张家村街道大学东路66号院80号民房","info":""}},{"type":"Feature","geometry":{"type":"Point","coordinates":[108.954303,34.234269]},"properties":{"province":"陕西省","city":"西安市","county":"碑林区","community":"文艺路街道自由自宅小区B座","full_address":"陕西省西安市碑林区文艺路街道自由自宅小区B座","info":""}},{"type":"Feature","geometry":{"type":"Point","coordinates":[108.964498,34.246464]},"properties":{"province":"陕西省","city":"西安市","county":"碑林区","community":"医学院含光校区家属院7号楼","full_address":"陕西省西安市碑林区医学院含光校区家属院7号楼","info":""}},{"type":"Feature","geometry":{"type":"Point","coordinates":[108.948989,34.236405]},"properties":{"province":"陕西省","city":"西安市","county":"碑林区","community":"长安路街道骊马豪城小区F座","full_address":"陕西省西安市碑林区长安路街道骊马豪城小区F座","info":""}},{"type":"Feature","geometry":{"type":"Point","coordinates":[108.992839,34.247336]},"properties":{"province":"陕西省","city":"西安市","county":"碑林区","community":"太乙路街道常春藤花园东区1号楼","full_address":"陕西省西安市碑林区太乙路街道常春藤花园东区1号楼","info":""}},{"type":"Feature","geometry":{"type":"Point","coordinates":[108.965698,34.258596]},"properties":{"province":"陕西省","city":"西安市","county":"碑林区","community":"柏树林街道东大街130号阳光秦大酒店家属院","full_address":"陕西省西安市碑林区柏树林街道东大街130号阳光秦大酒店家属院","info":""}},{"type":"Feature","geometry":{"type":"Point","coordinates":[108.96552,34.257808]},"properties":{"province":"陕西省","city":"西安市","county":"碑林区","community":"柏树林街道玄风桥阳光里小区","full_address":"陕西省西安市碑林区柏树林街道玄风桥阳光里小区","info":""}},{"type":"Feature","geometry":{"type":"Point","coordinates":[108.988457,34.249617]},"properties":{"province":"陕西省","city":"西安市","county":"碑林区","community":"太乙路街道交大社区一村46舍","full_address":"陕西省西安市碑林区太乙路街道交大社区一村46舍","info":""}},{"type":"Feature","geometry":{"type":"Point","coordinates":[108.871145,34.27106]},"properties":{"province":"陕西省","city":"西安市","county":"莲湖区","community":"枣园街道汉城壹号小区2期6号楼","full_address":"陕西省西安市莲湖区枣园街道汉城壹号小区2期6号楼","info":""}},{"type":"Feature","geometry":{"type":"Point","coordinates":[108.974592,34.225566]},"properties":{"province":"陕西省","city":"西安市","county":"雁塔区","community":"自强路街道泊澜地小区3号楼","full_address":"陕西省西安市雁塔区自强路街道泊澜地小区3号楼","info":""}},{"type":"Feature","geometry":{"type":"Point","coordinates":[108.860269,34.255616]},"properties":{"province":"陕西省","city":"西安市","county":"莲湖区","community":"枣园街道莱茵小城8号楼","full_address":"陕西省西安市莲湖区枣园街道莱茵小城8号楼","info":""}},{"type":"Feature","geometry":{"type":"Point","coordinates":[108.89055,34.25141]},"properties":{"province":"陕西省","city":"西安市","county":"莲湖区","community":"土门街道惠南社区西石围小区","full_address":"陕西省西安市莲湖区土门街道惠南社区西石围小区","info":""}},{"type":"Feature","geometry":{"type":"Point","coordinates":[108.902591,34.284756]},"properties":{"province":"陕西省","city":"西安市","county":"莲湖区","community":"红庙坡街道大兴九臻小区6号楼","full_address":"陕西省西安市莲湖区红庙坡街道大兴九臻小区6号楼","info":""}},{"type":"Feature","geometry":{"type":"Point","coordinates":[108.876124,34.255683]},"properties":{"province":"陕西省","city":"西安市","county":"莲湖区","community":"土门街道富力学府7号楼","full_address":"陕西省西安市莲湖区土门街道富力学府7号楼","info":""}},{"type":"Feature","geometry":{"type":"Point","coordinates":[108.962239,34.34727]},"properties":{"province":"陕西省","city":"西安市","county":"未央区","community":"枣园街道中堡子社区D2楼","full_address":"陕西省西安市未央区枣园街道中堡子社区D2楼","info":""}},{"type":"Feature","geometry":{"type":"Point","coordinates":[108.936884,34.289372]},"properties":{"province":"陕西省","city":"西安市","county":"莲湖区","community":"红庙坡街道文景南路红东花园1号楼","full_address":"陕西省西安市莲湖区红庙坡街道文景南路红东花园1号楼","info":""}},{"type":"Feature","geometry":{"type":"Point","coordinates":[108.940605,34.287548]},"properties":{"province":"陕西省","city":"西安市","county":"莲湖区","community":"北关街道上和城小区4号楼","full_address":"陕西省西安市莲湖区北关街道上和城小区4号楼","info":""}},{"type":"Feature","geometry":{"type":"Point","coordinates":[108.920619,34.281003]},"properties":{"province":"陕西省","city":"西安市","county":"莲湖区","community":"红庙坡街道丰禾小区1号楼","full_address":"陕西省西安市莲湖区红庙坡街道丰禾小区1号楼","info":""}},{"type":"Feature","geometry":{"type":"Point","coordinates":[108.885471,34.253579]},"properties":{"province":"陕西省","city":"西安市","county":"莲湖区","community":"土门街道雅逸花园2号楼","full_address":"陕西省西安市莲湖区土门街道雅逸花园2号楼","info":""}},{"type":"Feature","geometry":{"type":"Point","coordinates":[108.868749,34.256145]},"properties":{"province":"陕西省","city":"西安市","county":"莲湖区","community":"枣园街道宏府鹍翔九天小区","full_address":"陕西省西安市莲湖区枣园街道宏府鹍翔九天小区","info":""}},{"type":"Feature","geometry":{"type":"Point","coordinates":[108.856586,34.26513]},"properties":{"province":"陕西省","city":"西安市","county":"莲湖区","community":"枣园街道亿润花园小区2号楼","full_address":"陕西省西安市莲湖区枣园街道亿润花园小区2号楼","info":""}},{"type":"Feature","geometry":{"type":"Point","coordinates":[109.11453,34.277011]},"properties":{"province":"陕西省","city":"西安市","county":"灞桥区","community":"洪庆街道庆华长安家园11号楼","full_address":"陕西省西安市灞桥区洪庆街道庆华长安家园11号楼","info":""}},{"type":"Feature","geometry":{"type":"Point","coordinates":[109.063804,34.272493]},"properties":{"province":"陕西省","city":"西安市","county":"灞桥区","community":"纺织城街道电建四公司家属院宿舍楼","full_address":"陕西省西安市灞桥区纺织城街道电建四公司家属院宿舍楼","info":""}},{"type":"Feature","geometry":{"type":"Point","coordinates":[109.043838,34.255723]},"properties":{"province":"陕西省","city":"西安市","county":"灞桥区","community":"红旗街道恒大绿洲小区24号楼","full_address":"陕西省西安市灞桥区红旗街道恒大绿洲小区24号楼","info":""}},{"type":"Feature","geometry":{"type":"Point","coordinates":[109.052358,34.281243]},"properties":{"province":"陕西省","city":"西安市","county":"灞桥区","community":"席王街道电厂西路尚东国际城10号楼","full_address":"陕西省西安市灞桥区席王街道电厂西路尚东国际城10号楼","info":""}},{"type":"Feature","geometry":{"type":"Point","coordinates":[109.052781,34.3353]},"properties":{"province":"陕西省","city":"西安市","county":"灞桥区","community":"灞桥街道黄邓社区12号楼","full_address":"陕西省西安市灞桥区灞桥街道黄邓社区12号楼","info":""}},{"type":"Feature","geometry":{"type":"Point","coordinates":[109.053698,34.258379]},"properties":{"province":"陕西省","city":"西安市","county":"灞桥区","community":"红旗街道半坡路15号五星公寓5号楼","full_address":"陕西省西安市灞桥区红旗街道半坡路15号五星公寓5号楼","info":""}},{"type":"Feature","geometry":{"type":"Point","coordinates":[108.996106,34.381034]},"properties":{"province":"陕西省","city":"西安市","county":"未央区","community":"未央湖街道翰林北苑小区5号楼","full_address":"陕西省西安市未央区未央湖街道翰林北苑小区5号楼","info":""}},{"type":"Feature","geometry":{"type":"Point","coordinates":[108.96276,34.345046]},"properties":{"province":"陕西省","city":"西安市","county":"未央区","community":"谭家街道红旗社区17号楼","full_address":"陕西省西安市未央区谭家街道红旗社区17号楼","info":""}},{"type":"Feature","geometry":{"type":"Point","coordinates":[108.932052,34.312891]},"properties":{"province":"陕西省","city":"西安市","county":"未央区","community":"未央宫街道海璟台北湾南区6号楼","full_address":"陕西省西安市未央区未央宫街道海璟台北湾南区6号楼","info":""}},{"type":"Feature","geometry":{"type":"Point","coordinates":[108.940619,34.195041]},"properties":{"province":"陕西省","city":"西安市","county":"雁塔区","community":"长延堡街道长丰园小区1期2号楼、2期15号楼","full_address":"陕西省西安市雁塔区长延堡街道长丰园小区1期2号楼、2期15号楼","info":""}},{"type":"Feature","geometry":{"type":"Point","coordinates":[108.940812,34.198588]},"properties":{"province":"陕西省","city":"西安市","county":"雁塔区","community":"长延堡街道伟丰花园小区13号楼","full_address":"陕西省西安市雁塔区长延堡街道伟丰花园小区13号楼","info":""}},{"type":"Feature","geometry":{"type":"Point","coordinates":[108.942728,34.197787]},"properties":{"province":"陕西省","city":"西安市","county":"雁塔区","community":"长延堡街道丈八东路2号家属院1、2号楼","full_address":"陕西省西安市雁塔区长延堡街道丈八东路2号家属院1、2号楼","info":""}},{"type":"Feature","geometry":{"type":"Point","coordinates":[108.955529,34.226411]},"properties":{"province":"陕西省","city":"西安市","county":"雁塔区","community":"小寨路街道雅荷翠华小区3号楼","full_address":"陕西省西安市雁塔区小寨路街道雅荷翠华小区3号楼","info":""}},{"type":"Feature","geometry":{"type":"Point","coordinates":[108.938405,34.193031]},"properties":{"province":"陕西省","city":"西安市","county":"雁塔区","community":"长延堡街道紫郡长安小区北区F5栋、F6栋","full_address":"陕西省西安市雁塔区长延堡街道紫郡长安小区北区F5栋、F6栋","info":""}},{"type":"Feature","geometry":{"type":"Point","coordinates":[108.933036,34.202174]},"properties":{"province":"陕西省","city":"西安市","county":"雁塔区","community":"长延堡街道明德门西区42号楼","full_address":"陕西省西安市雁塔区长延堡街道明德门西区42号楼","info":""}},{"type":"Feature","geometry":{"type":"Point","coordinates":[108.936448,34.211642]},"properties":{"province":"陕西省","city":"西安市","county":"雁塔区","community":"长延堡街道融尚第十区6号楼","full_address":"陕西省西安市雁塔区长延堡街道融尚第十区6号楼","info":""}},{"type":"Feature","geometry":{"type":"Point","coordinates":[108.94104,34.196327]},"properties":{"province":"陕西省","city":"西安市","county":"雁塔区","community":"长延堡街道明德八英里7号楼","full_address":"陕西省西安市雁塔区长延堡街道明德八英里7号楼","info":""}},{"type":"Feature","geometry":{"type":"Point","coordinates":[108.934523,34.200402]},"properties":{"province":"陕西省","city":"西安市","county":"雁塔区","community":"长延堡街道鑫泰园西区22号","full_address":"陕西省西安市雁塔区长延堡街道鑫泰园西区22号","info":""}},{"type":"Feature","geometry":{"type":"Point","coordinates":[108.923042,34.199748]},"properties":{"province":"陕西省","city":"西安市","county":"雁塔区","community":"电子城街道唐园小区12号楼","full_address":"陕西省西安市雁塔区电子城街道唐园小区12号楼","info":""}},{"type":"Feature","geometry":{"type":"Point","coordinates":[108.918536,34.192517]},"properties":{"province":"陕西省","city":"西安市","county":"雁塔区","community":"电子城街道万象春天10号楼","full_address":"陕西省西安市雁塔区电子城街道万象春天10号楼","info":""}},{"type":"Feature","geometry":{"type":"Point","coordinates":[108.934116,34.196904]},"properties":{"province":"陕西省","city":"西安市","county":"雁塔区","community":"长延堡街道潘家庄","full_address":"陕西省西安市雁塔区长延堡街道潘家庄","info":""}},{"type":"Feature","geometry":{"type":"Point","coordinates":[108.905592,34.232144]},"properties":{"province":"陕西省","city":"西安市","county":"雁塔区","community":"电子城街道枫叶高层43号楼","full_address":"陕西省西安市雁塔区电子城街道枫叶高层43号楼","info":""}},{"type":"Feature","geometry":{"type":"Point","coordinates":[108.929478,34.195186]},"properties":{"province":"陕西省","city":"西安市","county":"雁塔区","community":"长延堡街道中环国际城西区2号楼","full_address":"陕西省西安市雁塔区长延堡街道中环国际城西区2号楼","info":""}},{"type":"Feature","geometry":{"type":"Point","coordinates":[108.896115,34.191811]},"properties":{"province":"陕西省","city":"西安市","county":"雁塔区","community":"丈八街道北沈新世纪北区三号楼","full_address":"陕西省西安市雁塔区丈八街道北沈新世纪北区三号楼","info":""}},{"type":"Feature","geometry":{"type":"Point","coordinates":[108.942384,34.193801]},"properties":{"province":"陕西省","city":"西安市","county":"雁塔区","community":"长延堡街道华城万象小区10号楼","full_address":"陕西省西安市雁塔区长延堡街道华城万象小区10号楼","info":""}},{"type":"Feature","geometry":{"type":"Point","coordinates":[108.901342,34.210956]},"properties":{"province":"陕西省","city":"西安市","county":"雁塔区","community":"丈八街道科技六路4号香榭兰岛小区","full_address":"陕西省西安市雁塔区丈八街道科技六路4号香榭兰岛小区","info":""}},{"type":"Feature","geometry":{"type":"Point","coordinates":[108.875255,34.225325]},"properties":{"province":"陕西省","city":"西安市","county":"雁塔区","community":"丈八街道科技二路古晋食府商住楼1号楼","full_address":"陕西省西安市雁塔区丈八街道科技二路古晋食府商住楼1号楼","info":""}},{"type":"Feature","geometry":{"type":"Point","coordinates":[108.860551,34.236955]},"properties":{"province":"陕西省","city":"西安市","county":"雁塔区","community":"漳浒寨街道中航华府小区6号楼","full_address":"陕西省西安市雁塔区漳浒寨街道中航华府小区6号楼","info":""}},{"type":"Feature","geometry":{"type":"Point","coordinates":[109.017945,34.238609]},"properties":{"province":"陕西省","city":"西安市","county":"新城区","community":"韩森寨街道康宁路9号康宁小区5号楼","full_address":"陕西省西安市新城区韩森寨街道康宁路9号康宁小区5号楼","info":""}},{"type":"Feature","geometry":{"type":"Point","coordinates":[108.940652,34.197595]},"properties":{"province":"陕西省","city":"西安市","county":"雁塔区","community":"长延堡街道明德八英里小区1号楼","full_address":"陕西省西安市雁塔区长延堡街道明德八英里小区1号楼","info":""}},{"type":"Feature","geometry":{"type":"Point","coordinates":[108.924375,34.191658]},"properties":{"province":"陕西省","city":"西安市","county":"雁塔区","community":"长延堡街道铭城16号1号楼","full_address":"陕西省西安市雁塔区长延堡街道铭城16号1号楼","info":""}},{"type":"Feature","geometry":{"type":"Point","coordinates":[108.93471,34.214719]},"properties":{"province":"陕西省","city":"西安市","county":"雁塔区","community":"小寨路街道罗家寨村","full_address":"陕西省西安市雁塔区小寨路街道罗家寨村","info":""}},{"type":"Feature","geometry":{"type":"Point","coordinates":[108.929949,34.206575]},"properties":{"province":"陕西省","city":"西安市","county":"雁塔区","community":"长延堡街道杨家村南区1幢","full_address":"陕西省西安市雁塔区长延堡街道杨家村南区1幢","info":""}},{"type":"Feature","geometry":{"type":"Point","coordinates":[108.936971,34.205358]},"properties":{"province":"陕西省","city":"西安市","county":"雁塔区","community":"长延堡街道明德门北社区15号楼","full_address":"陕西省西安市雁塔区长延堡街道明德门北社区15号楼","info":""}},{"type":"Feature","geometry":{"type":"Point","coordinates":[108.947034,34.208533]},"properties":{"province":"陕西省","city":"西安市","county":"雁塔区","community":"长延堡街道长安中路东八里新村4号楼","full_address":"陕西省西安市雁塔区长延堡街道长安中路东八里新村4号楼","info":""}},{"type":"Feature","geometry":{"type":"Point","coordinates":[108.945355,34.201807]},"properties":{"province":"陕西省","city":"西安市","county":"雁塔区","community":"长延堡街道长安南路170号象牙宫寓2号楼","full_address":"陕西省西安市雁塔区长延堡街道长安南路170号象牙宫寓2号楼","info":""}},{"type":"Feature","geometry":{"type":"Point","coordinates":[108.904041,34.186701]},"properties":{"province":"陕西省","city":"西安市","county":"雁塔区","community":"电子城街道子午大道江林新城D区3号楼","full_address":"陕西省西安市雁塔区电子城街道子午大道江林新城D区3号楼","info":""}},{"type":"Feature","geometry":{"type":"Point","coordinates":[108.909102,34.220978]},"properties":{"province":"陕西省","city":"西安市","county":"雁塔区","community":"电子城街道科创路沙井村","full_address":"陕西省西安市雁塔区电子城街道科创路沙井村","info":""}},{"type":"Feature","geometry":{"type":"Point","coordinates":[108.920463,34.221531]},"properties":{"province":"陕西省","city":"西安市","county":"雁塔区","community":"电子城街道中国航天771家属院15号楼","full_address":"陕西省西安市雁塔区电子城街道中国航天771家属院15号楼","info":""}},{"type":"Feature","geometry":{"type":"Point","coordinates":[108.974764,34.227478]},"properties":{"province":"陕西省","city":"西安市","county":"雁塔区","community":"大雁塔街道城南锦绣小区B座","full_address":"陕西省西安市雁塔区大雁塔街道城南锦绣小区B座","info":""}},{"type":"Feature","geometry":{"type":"Point","coordinates":[108.883642,34.172458]},"properties":{"province":"陕西省","city":"西安市","county":"雁塔区","community":"杜城街道融创珑府5号楼","full_address":"陕西省西安市雁塔区杜城街道融创珑府5号楼","info":""}},{"type":"Feature","geometry":{"type":"Point","coordinates":[108.917679,34.209678]},"properties":{"province":"陕西省","city":"西安市","county":"雁塔区","community":"电子城街道西京社区北院34号楼","full_address":"陕西省西安市雁塔区电子城街道西京社区北院34号楼","info":""}},{"type":"Feature","geometry":{"type":"Point","coordinates":[108.86154,34.246131]},"properties":{"province":"陕西省","city":"西安市","county":"雁塔区","community":"漳浒寨街道宏府麒麟山小区5号楼","full_address":"陕西省西安市雁塔区漳浒寨街道宏府麒麟山小区5号楼","info":""}},{"type":"Feature","geometry":{"type":"Point","coordinates":[108.925452,34.20304]},"properties":{"province":"陕西省","city":"西安市","county":"雁塔区","community":"长延堡街道东仪路阳光80公寓","full_address":"陕西省西安市雁塔区长延堡街道东仪路阳光80公寓","info":""}},{"type":"Feature","geometry":{"type":"Point","coordinates":[108.924937,34.202882]},"properties":{"province":"陕西省","city":"西安市","county":"雁塔区","community":"长延堡街道沙泘坨新村","full_address":"陕西省西安市雁塔区长延堡街道沙泘坨新村","info":""}},{"type":"Feature","geometry":{"type":"Point","coordinates":[108.932086,34.191716]},"properties":{"province":"陕西省","city":"西安市","county":"雁塔区","community":"长延堡街道世家星城1期C区","full_address":"陕西省西安市雁塔区长延堡街道世家星城1期C区","info":""}},{"type":"Feature","geometry":{"type":"Point","coordinates":[108.957909,34.169469]},"properties":{"province":"陕西省","city":"西安市","county":"长安区","community":"韦曲街道南里王村","full_address":"陕西省西安市长安区韦曲街道南里王村","info":""}},{"type":"Feature","geometry":{"type":"Point","coordinates":[108.946092,34.160751]},"properties":{"province":"陕西省","city":"西安市","county":"长安区","community":"韦曲街道长安剧团家属院","full_address":"陕西省西安市长安区韦曲街道长安剧团家属院","info":""}},{"type":"Feature","geometry":{"type":"Point","coordinates":[108.9058,34.163493]},"properties":{"province":"陕西省","city":"西安市","county":"长安区","community":"韦曲街道智慧城31号楼","full_address":"陕西省西安市长安区韦曲街道智慧城31号楼","info":""}},{"type":"Feature","geometry":{"type":"Point","coordinates":[108.869607,34.161384]},"properties":{"province":"陕西省","city":"西安市","county":"长安区","community":"郭杜街道翠堤湾小区1号楼","full_address":"陕西省西安市长安区郭杜街道翠堤湾小区1号楼","info":""}},{"type":"Feature","geometry":{"type":"Point","coordinates":[108.879662,34.151097]},"properties":{"province":"陕西省","city":"西安市","county":"长安区","community":"郭杜街道文苑中路18号2号楼","full_address":"陕西省西安市长安区郭杜街道文苑中路18号2号楼","info":""}},{"type":"Feature","geometry":{"type":"Point","coordinates":[108.943648,34.16612]},"properties":{"province":"陕西省","city":"西安市","county":"长安区","community":"韦曲街道西韦北堡德佳公寓77号","full_address":"陕西省西安市长安区韦曲街道西韦北堡德佳公寓77号","info":""}},{"type":"Feature","geometry":{"type":"Point","coordinates":[108.949937,34.124816]},"properties":{"province":"陕西省","city":"西安市","county":"长安区","community":"韦曲街道瓜洲村","full_address":"陕西省西安市长安区韦曲街道瓜洲村","info":""}},{"type":"Feature","geometry":{"type":"Point","coordinates":[108.858837,34.13537]},"properties":{"province":"陕西省","city":"西安市","county":"长安区","community":"郭杜街道南小张村","full_address":"陕西省西安市长安区郭杜街道南小张村","info":""}},{"type":"Feature","geometry":{"type":"Point","coordinates":[108.873335,34.131876]},"properties":{"province":"陕西省","city":"西安市","county":"长安区","community":"郭杜街道杜回村","full_address":"陕西省西安市长安区郭杜街道杜回村","info":""}},{"type":"Feature","geometry":{"type":"Point","coordinates":[108.867115,34.140075]},"properties":{"province":"陕西省","city":"西安市","county":"长安区","community":"郭杜街道张康村","full_address":"陕西省西安市长安区郭杜街道张康村","info":""}},{"type":"Feature","geometry":{"type":"Point","coordinates":[108.558636,34.052438]},"properties":{"province":"陕西省","city":"西安市","county":"鄠邑区","community":"鄠邑区玉蝉街道龙家寨村","full_address":"陕西省西安市鄠邑区鄠邑区玉蝉街道龙家寨村","info":""}},{"type":"Feature","geometry":{"type":"Point","coordinates":[108.741312,34.02402]},"properties":{"province":"陕西省","city":"西安市","county":"鄠邑区","community":"玉蝉街道刘家庄村郑家庄小组","full_address":"陕西省西安市鄠邑区玉蝉街道刘家庄村郑家庄小组","info":""}},{"type":"Feature","geometry":{"type":"Point","coordinates":[108.543863,34.080676]},"properties":{"province":"陕西省","city":"西安市","county":"鄠邑区","community":"玉蝉街道丈南村","full_address":"陕西省西安市鄠邑区玉蝉街道丈南村","info":""}},{"type":"Feature","geometry":{"type":"Point","coordinates":[108.542744,34.051864]},"properties":{"province":"陕西省","city":"西安市","county":"鄠邑区","community":"玉蝉街道胡家庄村","full_address":"陕西省西安市鄠邑区玉蝉街道胡家庄村","info":""}},{"type":"Feature","geometry":{"type":"Point","coordinates":[108.63547,34.109287]},"properties":{"province":"陕西省","city":"西安市","county":"鄠邑区","community":"甘亭街道凤凰新天地2号楼","full_address":"陕西省西安市鄠邑区甘亭街道凤凰新天地2号楼","info":""}},{"type":"Feature","geometry":{"type":"Point","coordinates":[108.992027,34.205394]},"properties":{"province":"陕西省","city":"西安市","county":"雁塔区","community":"曲江新区曲江公馆和园4号楼","full_address":"陕西省西安市雁塔区曲江新区曲江公馆和园4号楼","info":""}},{"type":"Feature","geometry":{"type":"Point","coordinates":[108.975401,34.247096]},"properties":{"province":"陕西省","city":"西安市","county":"碑林区","community":"保利春天里社区保障性住房中心乐居小区7号楼","full_address":"陕西省西安市碑林区保利春天里社区保障性住房中心乐居小区7号楼","info":""}},{"type":"Feature","geometry":{"type":"Point","coordinates":[108.983353,34.221203]},"properties":{"province":"陕西省","city":"西安市","county":"雁塔区","community":"中冶一曲江山社区海天华庭5号楼","full_address":"陕西省西安市雁塔区中冶一曲江山社区海天华庭5号楼","info":""}},{"type":"Feature","geometry":{"type":"Point","coordinates":[108.980187,34.183939]},"properties":{"province":"陕西省","city":"西安市","county":"雁塔区","community":"中海城9号楼","full_address":"陕西省西安市雁塔区中海城9号楼","info":""}},{"type":"Feature","geometry":{"type":"Point","coordinates":[109.001152,34.208811]},"properties":{"province":"陕西省","city":"西安市","county":"雁塔区","community":"中铁国际城17号楼","full_address":"陕西省西安市雁塔区中铁国际城17号楼","info":""}},{"type":"Feature","geometry":{"type":"Point","coordinates":[108.99396,34.20127]},"properties":{"province":"陕西省","city":"西安市","county":"雁塔区","community":"梧桐苑六号楼","full_address":"陕西省西安市雁塔区梧桐苑六号楼","info":""}},{"type":"Feature","geometry":{"type":"Point","coordinates":[108.986772,34.18483]},"properties":{"province":"陕西省","city":"西安市","county":"雁塔区","community":"曲江香都20号楼","full_address":"陕西省西安市雁塔区曲江香都20号楼","info":""}},{"type":"Feature","geometry":{"type":"Point","coordinates":[108.933623,34.310513]},"properties":{"province":"陕西省","city":"西安市","county":"未央区","community":"经开区北二环佳家花园小区9号楼","full_address":"陕西省西安市未央区经开区北二环佳家花园小区9号楼","info":""}},{"type":"Feature","geometry":{"type":"Point","coordinates":[108.893192,34.370084]},"properties":{"province":"陕西省","city":"西安市","county":"未央区","community":"长安大学渭水校区住宅小区10号楼","full_address":"陕西省西安市未央区长安大学渭水校区住宅小区10号楼","info":""}},{"type":"Feature","geometry":{"type":"Point","coordinates":[108.939615,34.32783]},"properties":{"province":"陕西省","city":"西安市","county":"未央区","community":"凤城五路海璟时代小区7号楼","full_address":"陕西省西安市未央区凤城五路海璟时代小区7号楼","info":""}},{"type":"Feature","geometry":{"type":"Point","coordinates":[108.942394,34.356328]},"properties":{"province":"陕西省","city":"西安市","county":"未央区","community":"首创国际城18号楼","full_address":"陕西省西安市未央区首创国际城18号楼","info":""}},{"type":"Feature","geometry":{"type":"Point","coordinates":[108.81236,34.302455]},"properties":{"province":"陕西省","city":"西安市","county":"未央区","community":"西咸新区沣东新城上林街道奥林匹克花园小区E3栋","full_address":"陕西省西安市未央区西咸新区沣东新城上林街道奥林匹克花园小区E3栋","info":""}},{"type":"Feature","geometry":{"type":"Point","coordinates":[108.807373,34.300907]},"properties":{"province":"陕西省","city":"西安市","county":"未央区","community":"上林街道世纪大道国润城16号楼","full_address":"陕西省西安市未央区上林街道世纪大道国润城16号楼","info":""}},{"type":"Feature","geometry":{"type":"Point","coordinates":[108.81236,34.302455]},"properties":{"province":"陕西省","city":"西安市","county":"未央区","community":"沣东新城上林街道白桦林印象小区2号楼","full_address":"陕西省西安市未央区沣东新城上林街道白桦林印象小区2号楼","info":""}},{"type":"Feature","geometry":{"type":"Point","coordinates":[108.81236,34.302455]},"properties":{"province":"陕西省","city":"西安市","county":"未央区","community":"沣东新城上林街道沣景公寓1号楼","full_address":"陕西省西安市未央区沣东新城上林街道沣景公寓1号楼","info":""}},{"type":"Feature","geometry":{"type":"Point","coordinates":[108.797115,34.30582]},"properties":{"province":"陕西省","city":"西安市","county":"未央区","community":"沣东新城三桥街道恒大都市广场4号楼、9号楼","full_address":"陕西省西安市未央区沣东新城三桥街道恒大都市广场4号楼、9号楼","info":""}},{"type":"Feature","geometry":{"type":"Point","coordinates":[108.85007,34.263714]},"properties":{"province":"陕西省","city":"西安市","county":"未央区","community":"沣东新城三桥街道加贝花园12号楼","full_address":"陕西省西安市未央区沣东新城三桥街道加贝花园12号楼","info":""}},{"type":"Feature","geometry":{"type":"Point","coordinates":[108.821685,34.284719]},"properties":{"province":"陕西省","city":"西安市","county":"未央区","community":"沣东新城三桥街道蓝光公园华府1期1号楼","full_address":"陕西省西安市未央区沣东新城三桥街道蓝光公园华府1期1号楼","info":""}},{"type":"Feature","geometry":{"type":"Point","coordinates":[108.81236,34.302455]},"properties":{"province":"陕西省","city":"西安市","county":"未央区","community":"沣东新城三桥街道石家花园小区2号楼","full_address":"陕西省西安市未央区沣东新城三桥街道石家花园小区2号楼","info":""}},{"type":"Feature","geometry":{"type":"Point","coordinates":[108.826133,34.300478]},"properties":{"province":"陕西省","city":"西安市","county":"未央区","community":"沣东新城三桥北沙口村7号楼","full_address":"陕西省西安市未央区沣东新城三桥北沙口村7号楼","info":""}},{"type":"Feature","geometry":{"type":"Point","coordinates":[108.715413,34.24725]},"properties":{"province":"陕西省","city":"西安市","county":"长安区","community":"沣西新城马王街道客省庄","full_address":"陕西省西安市长安区沣西新城马王街道客省庄","info":""}},{"type":"Feature","geometry":{"type":"Point","coordinates":[108.887502,34.22302]},"properties":{"province":"陕西省","city":"西安市","county":"西咸新区","community":"秦汉新城渭城街道渭城湾村","full_address":"陕西省西安市西咸新区秦汉新城渭城街道渭城湾村","info":""}},{"type":"Feature","geometry":{"type":"Point","coordinates":[108.81236,34.302455]},"properties":{"province":"陕西省","city":"西安市","county":"未央区","community":"沣东新城三桥街道聚驾六合小区4号楼","full_address":"陕西省西安市未央区沣东新城三桥街道聚驾六合小区4号楼","info":""}},{"type":"Feature","geometry":{"type":"Point","coordinates":[108.83136,34.289382]},"properties":{"province":"陕西省","city":"西安市","county":"未央区","community":"沣东新城上林街道阳光城壹号官邸小区","full_address":"陕西省西安市未央区沣东新城上林街道阳光城壹号官邸小区","info":""}},{"type":"Feature","geometry":{"type":"Point","coordinates":[108.795973,34.282523]},"properties":{"province":"陕西省","city":"西安市","county":"长安区","community":"沣东新城王寺街道和盛花园2号楼","full_address":"陕西省西安市长安区沣东新城王寺街道和盛花园2号楼","info":""}},{"type":"Feature","geometry":{"type":"Point","coordinates":[108.787759,34.252258]},"properties":{"province":"陕西省","city":"西安市","county":"长安区","community":"沣东新城王寺街道纪杨寨村","full_address":"陕西省西安市长安区沣东新城王寺街道纪杨寨村","info":""}},{"type":"Feature","geometry":{"type":"Point","coordinates":[108.951162,34.154812]},"properties":{"province":"陕西省","city":"西安市","county":"长安区","community":"航天基地聚福苑小区5号楼","full_address":"陕西省西安市长安区航天基地聚福苑小区5号楼","info":""}},{"type":"Feature","geometry":{"type":"Point","coordinates":[108.973684,34.161344]},"properties":{"province":"陕西省","city":"西安市","county":"长安区","community":"智慧谷小区1号楼","full_address":"陕西省西安市长安区智慧谷小区1号楼","info":""}},{"type":"Feature","geometry":{"type":"Point","coordinates":[108.956187,34.170236]},"properties":{"province":"陕西省","city":"西安市","county":"长安区","community":"凤栖东路189号天澄园小区","full_address":"陕西省西安市长安区凤栖东路189号天澄园小区","info":""}},{"type":"Feature","geometry":{"type":"Point","coordinates":[108.822904,34.163788]},"properties":{"province":"陕西省","city":"西安市","county":"长安区","community":"国际港务区京东亚洲一号员工宿舍","full_address":"陕西省西安市长安区国际港务区京东亚洲一号员工宿舍","info":""}},{"type":"Feature","geometry":{"type":"Point","coordinates":[109.098961,34.374583]},"properties":{"province":"陕西省","city":"西安市","county":"灞桥区","community":"新筑街道潘罗村","full_address":"陕西省西安市灞桥区新筑街道潘罗村","info":""}},{"type":"Feature","geometry":{"type":"Point","coordinates":[109.015935,34.405016]},"properties":{"province":"陕西省","city":"西安市","county":"灞桥区","community":"新筑街道西航花园A区80号楼","full_address":"陕西省西安市灞桥区新筑街道西航花园A区80号楼","info":""}},{"type":"Feature","geometry":{"type":"Point","coordinates":[109.083731,34.370881]},"properties":{"province":"陕西省","city":"西安市","county":"灞桥区","community":"新筑街道贺韶村","full_address":"陕西省西安市灞桥区新筑街道贺韶村","info":""}},{"type":"Feature","geometry":{"type":"Point","coordinates":[108.901153,34.221955]},"properties":{"province":"陕西省","city":"西安市","county":"雁塔区","community":"高新区丈八街道名城天下6号楼","full_address":"陕西省西安市雁塔区高新区丈八街道名城天下6号楼","info":""}},{"type":"Feature","geometry":{"type":"Point","coordinates":[108.86785,34.200328]},"properties":{"province":"陕西省","city":"西安市","county":"雁塔区","community":"丈八街道罗马景福城3号楼","full_address":"陕西省西安市雁塔区丈八街道罗马景福城3号楼","info":""}},{"type":"Feature","geometry":{"type":"Point","coordinates":[108.898676,34.197745]},"properties":{"province":"陕西省","city":"西安市","county":"雁塔区","community":"丈八街道晶城秀府3号楼","full_address":"陕西省西安市雁塔区丈八街道晶城秀府3号楼","info":""}},{"type":"Feature","geometry":{"type":"Point","coordinates":[108.910437,34.23571]},"properties":{"province":"陕西省","city":"西安市","county":"雁塔区","community":"电子城街道糜家桥小区18号楼","full_address":"陕西省西安市雁塔区电子城街道糜家桥小区18号楼","info":""}},{"type":"Feature","geometry":{"type":"Point","coordinates":[108.877767,34.218615]},"properties":{"province":"陕西省","city":"西安市","county":"雁塔区","community":"丈八街道高新6路绿港花园","full_address":"陕西省西安市雁塔区丈八街道高新6路绿港花园","info":""}},{"type":"Feature","geometry":{"type":"Point","coordinates":[108.929625,34.143665]},"properties":{"province":"陕西省","city":"西安市","county":"长安区","community":"丈八街道双水磨小区6号楼","full_address":"陕西省西安市长安区丈八街道双水磨小区6号楼","info":""}},{"type":"Feature","geometry":{"type":"Point","coordinates":[108.872411,34.227951]},"properties":{"province":"陕西省","city":"西安市","county":"雁塔区","community":"丈八街道龙城铭园2期17号楼、27号楼","full_address":"陕西省西安市雁塔区丈八街道龙城铭园2期17号楼、27号楼","info":""}},{"type":"Feature","geometry":{"type":"Point","coordinates":[108.869075,34.218903]},"properties":{"province":"陕西省","city":"西安市","county":"雁塔区","community":"丈八街道保利天悦3期7号楼","full_address":"陕西省西安市雁塔区丈八街道保利天悦3期7号楼","info":""}},{"type":"Feature","geometry":{"type":"Point","coordinates":[108.901129,34.241299]},"properties":{"province":"陕西省","city":"西安市","county":"雁塔区","community":"丈八街道高新三路2号海佳云顶B座","full_address":"陕西省西安市雁塔区丈八街道高新三路2号海佳云顶B座","info":""}},{"type":"Feature","geometry":{"type":"Point","coordinates":[108.8723,34.20975]},"properties":{"province":"陕西省","city":"西安市","county":"雁塔区","community":"丈八街道丈八北路茶张馨苑小区8号楼","full_address":"陕西省西安市雁塔区丈八街道丈八北路茶张馨苑小区8号楼","info":""}},{"type":"Feature","geometry":{"type":"Point","coordinates":[108.875893,34.234339]},"properties":{"province":"陕西省","city":"西安市","county":"雁塔区","community":"丈八街道西辛庄小区14号楼","full_address":"陕西省西安市雁塔区丈八街道西辛庄小区14号楼","info":""}},{"type":"Feature","geometry":{"type":"Point","coordinates":[108.899068,34.209898]},"properties":{"province":"陕西省","city":"西安市","county":"雁塔区","community":"丈八街道木塔路香榭兰庭1号楼","full_address":"陕西省西安市雁塔区丈八街道木塔路香榭兰庭1号楼","info":""}},{"type":"Feature","geometry":{"type":"Point","coordinates":[108.86601,34.198014]},"properties":{"province":"陕西省","city":"西安市","county":"雁塔区","community":"丈八街道高科尚都2号楼","full_address":"陕西省西安市雁塔区丈八街道高科尚都2号楼","info":""}},{"type":"Feature","geometry":{"type":"Point","coordinates":[108.893754,34.215568]},"properties":{"province":"陕西省","city":"西安市","county":"雁塔区","community":"丈八街道80号领先心城B栋","full_address":"陕西省西安市雁塔区丈八街道80号领先心城B栋","info":""}},{"type":"Feature","geometry":{"type":"Point","coordinates":[108.898123,34.220063]},"properties":{"province":"陕西省","city":"西安市","county":"雁塔区","community":"丈八街道云顶园小区1号楼","full_address":"陕西省西安市雁塔区丈八街道云顶园小区1号楼","info":""}},{"type":"Feature","geometry":{"type":"Point","coordinates":[108.874026,34.221973]},"properties":{"province":"陕西省","city":"西安市","county":"雁塔区","community":"丈八街道鸿基新城沁园16号楼","full_address":"陕西省西安市雁塔区丈八街道鸿基新城沁园16号楼","info":""}},{"type":"Feature","geometry":{"type":"Point","coordinates":[108.870686,34.194324]},"properties":{"province":"陕西省","city":"西安市","county":"雁塔区","community":"丈八街道绿地世纪城23号楼","full_address":"陕西省西安市雁塔区丈八街道绿地世纪城23号楼","info":""}},{"type":"Feature","geometry":{"type":"Point","coordinates":[108.874015,34.222357]},"properties":{"province":"陕西省","city":"西安市","county":"雁塔区","community":"丈八街道科技三路夏日景色2期8号楼","full_address":"陕西省西安市雁塔区丈八街道科技三路夏日景色2期8号楼","info":""}},{"type":"Feature","geometry":{"type":"Point","coordinates":[108.866328,34.218255]},"properties":{"province":"陕西省","city":"西安市","county":"雁塔区","community":"鱼化寨街道科技四路鸿基新城祥园20号楼","full_address":"陕西省西安市雁塔区鱼化寨街道科技四路鸿基新城祥园20号楼","info":""}},{"type":"Feature","geometry":{"type":"Point","coordinates":[108.858589,34.182259]},"properties":{"province":"陕西省","city":"西安市","county":"雁塔区","community":"丈八街道海棠别馆2栋","full_address":"陕西省西安市雁塔区丈八街道海棠别馆2栋","info":""}},{"type":"Feature","geometry":{"type":"Point","coordinates":[108.87245,34.231351]},"properties":{"province":"陕西省","city":"西安市","county":"雁塔区","community":"丈八街道捷瑞新时代小区","full_address":"陕西省西安市雁塔区丈八街道捷瑞新时代小区","info":""}},{"type":"Feature","geometry":{"type":"Point","coordinates":[108.872498,34.222641]},"properties":{"province":"陕西省","city":"西安市","county":"雁塔区","community":"丈八街道易道郡玫瑰公馆小区2期1号楼","full_address":"陕西省西安市雁塔区丈八街道易道郡玫瑰公馆小区2期1号楼","info":""}},{"type":"Feature","geometry":{"type":"Point","coordinates":[108.882258,34.219218]},"properties":{"province":"陕西省","city":"西安市","county":"雁塔区","community":"丈八街道南窑头社区","full_address":"陕西省西安市雁塔区丈八街道南窑头社区","info":""}},{"type":"Feature","geometry":{"type":"Point","coordinates":[108.874848,34.226064]},"properties":{"province":"陕西省","city":"西安市","county":"雁塔区","community":"光电园","full_address":"陕西省西安市雁塔区光电园","info":""}},{"type":"Feature","geometry":{"type":"Point","coordinates":[108.899068,34.209898]},"properties":{"province":"陕西省","city":"西安市","county":"雁塔区","community":"丈八街道香榭兰庭1号楼","full_address":"陕西省西安市雁塔区丈八街道香榭兰庭1号楼","info":""}},{"type":"Feature","geometry":{"type":"Point","coordinates":[109.004988,34.305177]},"properties":{"province":"陕西省","city":"西安市","county":"未央区","community":"浐灞生态区玄武东路华远海蓝城27号楼","full_address":"陕西省西安市未央区浐灞生态区玄武东路华远海蓝城27号楼","info":""}},{"type":"Feature","geometry":{"type":"Point","coordinates":[109.022572,34.22631]},"properties":{"province":"陕西省","city":"西安市","county":"雁塔区","community":"长鸣路恒大御龙湾小区2号楼","full_address":"陕西省西安市雁塔区长鸣路恒大御龙湾小区2号楼","info":""}},{"type":"Feature","geometry":{"type":"Point","coordinates":[109.005137,34.320901]},"properties":{"province":"陕西省","city":"西安市","county":"未央区","community":"荣德棕榈阳光小区4号楼","full_address":"陕西省西安市未央区荣德棕榈阳光小区4号楼","info":""}},{"type":"Feature","geometry":{"type":"Point","coordinates":[109.038657,34.273844]},"properties":{"province":"陕西省","city":"西安市","county":"灞桥区","community":"上水苑小区11栋","full_address":"陕西省西安市灞桥区上水苑小区11栋","info":""}},{"type":"Feature","geometry":{"type":"Point","coordinates":[108.988416,34.291782]},"properties":{"province":"陕西省","city":"西安市","county":"新城区","community":"太华路街道八府庄小区9号楼","full_address":"陕西省西安市新城区太华路街道八府庄小区9号楼","info":""}},{"type":"Feature","geometry":{"type":"Point","coordinates":[108.949,34.262532]},"properties":{"province":"陕西省","city":"西安市","county":"新城区","community":"西一路街道尚朴路10号家属院5号楼","full_address":"陕西省西安市新城区西一路街道尚朴路10号家属院5号楼","info":""}},{"type":"Feature","geometry":{"type":"Point","coordinates":[109.023308,34.242923]},"properties":{"province":"陕西省","city":"西安市","county":"新城区","community":"韩森寨街道华清学府城39号楼","full_address":"陕西省西安市新城区韩森寨街道华清学府城39号楼","info":""}},{"type":"Feature","geometry":{"type":"Point","coordinates":[109.001422,34.278378]},"properties":{"province":"陕西省","city":"西安市","county":"新城区","community":"胡家庙街道汉杰天赐良苑小区2号楼","full_address":"陕西省西安市新城区胡家庙街道汉杰天赐良苑小区2号楼","info":""}},{"type":"Feature","geometry":{"type":"Point","coordinates":[116.969983,33.347244]},"properties":{"province":"安徽省","city":"宿州市","county":"埇桥区","community":"大营镇大营新村","full_address":"安徽省宿州市埇桥区大营镇大营新村","info":""}},{"type":"Feature","geometry":{"type":"Point","coordinates":[113.92559,22.937581]},"properties":{"province":"广东省","city":"东莞市","county":"大朗镇","community":"长富社区碧桂园首座3栋","full_address":"广东省东莞市大朗镇长富社区碧桂园首座3栋","info":""}},{"type":"Feature","geometry":{"type":"Point","coordinates":[113.942398,22.933704]},"properties":{"province":"广东省","city":"东莞市","county":"大朗镇","community":"蔡边村沙井街76-80号","full_address":"广东省东莞市大朗镇蔡边村沙井街76-80号","info":""}},{"type":"Feature","geometry":{"type":"Point","coordinates":[113.946057,22.937547]},"properties":{"province":"广东省","city":"东莞市","county":"大朗镇","community":"蔡边村金丽路五巷20号","full_address":"广东省东莞市大朗镇蔡边村金丽路五巷20号","info":""}},{"type":"Feature","geometry":{"type":"Point","coordinates":[113.948359,22.933462]},"properties":{"province":"广东省","city":"东莞市","county":"大朗镇","community":"蔡边村九墩区112号","full_address":"广东省东莞市大朗镇蔡边村九墩区112号","info":""}},{"type":"Feature","geometry":{"type":"Point","coordinates":[113.947142,22.960522]},"properties":{"province":"广东省","city":"东莞市","county":"大朗镇","community":"长塘社区第一工业区一街92-146号","full_address":"广东省东莞市大朗镇长塘社区第一工业区一街92-146号","info":""}},{"type":"Feature","geometry":{"type":"Point","coordinates":[113.936963,22.939556]},"properties":{"province":"广东省","city":"东莞市","county":"大朗镇","community":"长塘社区三区一路197-199号君安雅居","full_address":"广东省东莞市大朗镇长塘社区三区一路197-199号君安雅居","info":""}},{"type":"Feature","geometry":{"type":"Point","coordinates":[113.946461,22.93728]},"properties":{"province":"广东省","city":"东莞市","county":"大朗镇","community":"大井头社区怡安路63号怡安时尚公寓","full_address":"广东省东莞市大朗镇大井头社区怡安路63号怡安时尚公寓","info":""}},{"type":"Feature","geometry":{"type":"Point","coordinates":[113.916687,22.881269]},"properties":{"province":"广东省","city":"东莞市","county":"大朗镇","community":"水平村红荔西区金宝公寓","full_address":"广东省东莞市大朗镇水平村红荔西区金宝公寓","info":""}},{"type":"Feature","geometry":{"type":"Point","coordinates":[113.938196,23.089399]},"properties":{"province":"广东省","city":"东莞市","county":"大朗镇","community":"长塘社区长塘花街二街（133号&143号&163号）","full_address":"广东省东莞市大朗镇长塘社区长塘花街二街（133号&143号&163号）","info":""}},{"type":"Feature","geometry":{"type":"Point","coordinates":[113.947936,22.960993]},"properties":{"province":"广东省","city":"东莞市","county":"大朗镇","community":"大井头社区碧桂园凤妍苑5幢3单元","full_address":"广东省东莞市大朗镇大井头社区碧桂园凤妍苑5幢3单元","info":""}},{"type":"Feature","geometry":{"type":"Point","coordinates":[108.13586,21.589003]},"properties":{"province":"广西壮族自治区","city":"防城港市","county":"东兴市","community":"江平镇江龙村周屋组","full_address":"广西壮族自治区防城港市东兴市江平镇江龙村周屋组","info":""}},{"type":"Feature","geometry":{"type":"Point","coordinates":[102.821537,24.823187]},"properties":{"province":"云南省","city":"昆明市","county":"呈贡区","community":"雨花街道营盘社区蓝光天娇城小区","full_address":"云南省昆明市呈贡区雨花街道营盘社区蓝光天娇城小区","info":""}}]}