{"type":"FeatureCollection","features":[{"type":"Feature","geometry":{"type":"Point","coordinates":[97.75088,24.187587]},"properties":{"full_address":"云南省德宏傣族景颇族自治州陇川县章凤镇迭撒村拉影村民小组"}},{"type":"Feature","geometry":{"type":"Point","coordinates":[97.654805,23.878132]},"properties":{"full_address":"云南省德宏傣族景颇族自治州瑞丽市弄岛镇雷允村委会雷允村民小组"}},{"type":"Feature","geometry":{"type":"Point","coordinates":[104.000285,30.66163]},"properties":{"full_address":"四川省成都市青羊区优品道曦岸小区"}},{"type":"Feature","geometry":{"type":"Point","coordinates":[104.043793,30.551819]},"properties":{"full_address":"四川省成都市武侯区高新区都城雅颂居小区"}},{"type":"Feature","geometry":{"type":"Point","coordinates":[104.702063,31.390056]},"properties":{"full_address":"四川省绵阳市涪城区吴家镇惠科路1号厂区"}},{"type":"Feature","geometry":{"type":"Point","coordinates":[123.479533,41.807102]},"properties":{"full_address":"辽宁省沈阳市大东区珠林路50-15号楼"}},{"type":"Feature","geometry":{"type":"Point","coordinates":[118.927537,31.695885]},"properties":{"full_address":"江苏省南京市江宁区禄口街道曹村村张家自然村"}},{"type":"Feature","geometry":{"type":"Point","coordinates":[118.943997,31.692376]},"properties":{"full_address":"江苏省南京市江宁区欢墩山自然村"}},{"type":"Feature","geometry":{"type":"Point","coordinates":[119.011545,31.868194]},"properties":{"full_address":"江苏省南京市江宁区山阴自然村"}},{"type":"Feature","geometry":{"type":"Point","coordinates":[119.011545,31.868194]},"properties":{"full_address":"江苏省南京市江宁区街东自然村"}},{"type":"Feature","geometry":{"type":"Point","coordinates":[118.896182,31.671436]},"properties":{"full_address":"江苏省南京市江宁区溧塘村铜山端自然村"}},{"type":"Feature","geometry":{"type":"Point","coordinates":[118.846876,31.697743]},"properties":{"full_address":"江苏省南京市江宁区陈巷村前陈巷自然村"}},{"type":"Feature","geometry":{"type":"Point","coordinates":[118.836507,31.672965]},"properties":{"full_address":"江苏省南京市江宁区桑园村排驾口自然村"}},{"type":"Feature","geometry":{"type":"Point","coordinates":[119.101566,31.996989]},"properties":{"full_address":"江苏省南京市江宁区驻驾山自然村"}},{"type":"Feature","geometry":{"type":"Point","coordinates":[118.906959,31.694685]},"properties":{"full_address":"江苏省南京市江宁区埂方村卷蓬自然村"}},{"type":"Feature","geometry":{"type":"Point","coordinates":[118.932013,31.700758]},"properties":{"full_address":"江苏省南京市江宁区彭福村彭福自然村"}},{"type":"Feature","geometry":{"type":"Point","coordinates":[118.857902,31.79522]},"properties":{"full_address":"江苏省南京市江宁区陆纲社区翠屏城小区"}},{"type":"Feature","geometry":{"type":"Point","coordinates":[118.913889,31.713662]},"properties":{"full_address":"江苏省南京市江宁区小彭村坂田埂自然村"}},{"type":"Feature","geometry":{"type":"Point","coordinates":[119.011545,31.868194]},"properties":{"full_address":"江苏省南京市江宁区徐家宕自然村"}},{"type":"Feature","geometry":{"type":"Point","coordinates":[118.942266,31.862374]},"properties":{"full_address":"江苏省南京市江宁区东岗头自然村"}},{"type":"Feature","geometry":{"type":"Point","coordinates":[118.843958,31.775877]},"properties":{"full_address":"江苏省南京市江宁区群力社区金德路63号"}},{"type":"Feature","geometry":{"type":"Point","coordinates":[118.864741,31.801367]},"properties":{"full_address":"江苏省南京市江宁区马铺村刘家自然村"}},{"type":"Feature","geometry":{"type":"Point","coordinates":[118.94874,31.797019]},"properties":{"full_address":"江苏省南京市江宁区湖熟街道周岗社区张巷自然村"}},{"type":"Feature","geometry":{"type":"Point","coordinates":[118.897992,31.817375]},"properties":{"full_address":"江苏省南京市江宁区庄上自然村"}},{"type":"Feature","geometry":{"type":"Point","coordinates":[118.93565,31.799071]},"properties":{"full_address":"江苏省南京市江宁区尚桥社区焦东自然村"}},{"type":"Feature","geometry":{"type":"Point","coordinates":[118.824076,31.900879]},"properties":{"full_address":"江苏省南京市江宁区秣陵街道殷巷社龙湖文馨苑小区"}},{"type":"Feature","geometry":{"type":"Point","coordinates":[118.793712,31.906291]},"properties":{"full_address":"江苏省南京市江宁区青源社区翠屏湾花园城"}},{"type":"Feature","geometry":{"type":"Point","coordinates":[118.812897,31.685816]},"properties":{"full_address":"江苏省南京市江宁区横溪街道许呈社区小呈自然村"}},{"type":"Feature","geometry":{"type":"Point","coordinates":[118.83629,31.944619]},"properties":{"full_address":"江苏省南京市江宁区东山街道骆村社区天琪福苑"}},{"type":"Feature","geometry":{"type":"Point","coordinates":[118.96626,31.689765]},"properties":{"full_address":"江苏省南京市溧水区石湫街道九塘行政村毛家圩自然村"}},{"type":"Feature","geometry":{"type":"Point","coordinates":[119.052645,31.642283]},"properties":{"full_address":"江苏省南京市溧水区永阳街道万科城香樟苑"}},{"type":"Feature","geometry":{"type":"Point","coordinates":[119.037452,31.649815]},"properties":{"full_address":"江苏省南京市溧水区宏力花苑"}},{"type":"Feature","geometry":{"type":"Point","coordinates":[118.739757,32.204397]},"properties":{"full_address":"江苏省南京市六合区柘塘街道湖滨新寓"}},{"type":"Feature","geometry":{"type":"Point","coordinates":[119.165386,31.369209]},"properties":{"full_address":"江苏省南京市高淳区桠溪街道省道239与桠定路交叉路口芜太建材店所在建筑范围"}},{"type":"Feature","geometry":{"type":"Point","coordinates":[118.753997,32.019354]},"properties":{"full_address":"江苏省南京市建邺区南苑街道所街26号"}},{"type":"Feature","geometry":{"type":"Point","coordinates":[118.822345,32.028062]},"properties":{"full_address":"江苏省南京市秦淮区瑞金路街道标营4号26栋、27栋、28栋、29栋、30栋"}},{"type":"Feature","geometry":{"type":"Point","coordinates":[118.851188,32.020605]},"properties":{"full_address":"江苏省南京市玄武区孝陵卫街道胜利村100号"}},{"type":"Feature","geometry":{"type":"Point","coordinates":[118.806747,32.10617]},"properties":{"full_address":"江苏省南京市栖霞区迈皋桥街道和燕花苑12幢"}},{"type":"Feature","geometry":{"type":"Point","coordinates":[118.757467,32.087219]},"properties":{"full_address":"江苏省南京市鼓楼区挹江门街道大桥南路10号"}},{"type":"Feature","geometry":{"type":"Point","coordinates":[118.836507,31.672965]},"properties":{"full_address":"江苏省南京市江宁区禄口街道桑园村范家自然村"}},{"type":"Feature","geometry":{"type":"Point","coordinates":[118.836507,31.672965]},"properties":{"full_address":"江苏省南京市江宁区禄口街道桑园村后周家冲自然村"}},{"type":"Feature","geometry":{"type":"Point","coordinates":[118.846876,31.697743]},"properties":{"full_address":"江苏省南京市江宁区禄口街道陈巷村毛郎头自然村"}},{"type":"Feature","geometry":{"type":"Point","coordinates":[119.011545,31.868194]},"properties":{"full_address":"江苏省南京市江宁区禄口街道成功社区杨家边自然村"}},{"type":"Feature","geometry":{"type":"Point","coordinates":[118.896182,31.671436]},"properties":{"full_address":"江苏省南京市江宁区禄口街道溧塘村南夏自然村"}},{"type":"Feature","geometry":{"type":"Point","coordinates":[118.94711,31.796494]},"properties":{"full_address":"江苏省南京市江宁区湖熟街道周岗社区新风苑"}},{"type":"Feature","geometry":{"type":"Point","coordinates":[118.745741,32.028159]},"properties":{"full_address":"江苏省南京市建邺区莫愁湖街道凤栖苑1-93号小区"}},{"type":"Feature","geometry":{"type":"Point","coordinates":[118.779109,32.079573]},"properties":{"full_address":"江苏省南京市鼓楼区中央门街道工人新村小区"}},{"type":"Feature","geometry":{"type":"Point","coordinates":[118.760583,31.965384]},"properties":{"full_address":"江苏省南京市雨花台区铁心桥街道凤翔花园4期"}},{"type":"Feature","geometry":{"type":"Point","coordinates":[118.675917,33.704824]},"properties":{"full_address":"江苏省宿迁市泗阳县众兴街道西湖社区中华商城小区"}}]}