{"type":"FeatureCollection","features":[{"type":"Feature","geometry":{"type":"Point","coordinates":[117.477144,49.588341]},"properties":{"province":"内蒙古自治区","city":"呼伦贝尔市","county":"满洲里市","community":"东山街道","full_address":"内蒙古自治区呼伦贝尔市满洲里市东山街道","info":""}},{"type":"Feature","geometry":{"type":"Point","coordinates":[119.812192,49.238191]},"properties":{"province":"内蒙古自治区","city":"呼伦贝尔市","county":"海拉尔区","community":"南区街道","full_address":"内蒙古自治区呼伦贝尔市海拉尔区南区街道","info":""}},{"type":"Feature","geometry":{"type":"Point","coordinates":[117.477144,49.588341]},"properties":{"province":"内蒙古自治区","city":"呼伦贝尔市","county":"满洲里市","community":"北区街道","full_address":"内蒙古自治区呼伦贝尔市满洲里市北区街道","info":""}},{"type":"Feature","geometry":{"type":"Point","coordinates":[117.459632,49.592082]},"properties":{"province":"内蒙古自治区","city":"呼伦贝尔市","county":"满洲里市","community":"兴华街道","full_address":"内蒙古自治区呼伦贝尔市满洲里市兴华街道","info":""}},{"type":"Feature","geometry":{"type":"Point","coordinates":[117.72904,49.454254]},"properties":{"province":"内蒙古自治区","city":"呼伦贝尔市","county":"扎赉诺尔区","community":"第一街道","full_address":"内蒙古自治区呼伦贝尔市扎赉诺尔区第一街道","info":""}},{"type":"Feature","geometry":{"type":"Point","coordinates":[117.696169,49.465178]},"properties":{"province":"内蒙古自治区","city":"呼伦贝尔市","county":"扎赉诺尔区","community":"第三街道","full_address":"内蒙古自治区呼伦贝尔市扎赉诺尔区第三街道","info":""}},{"type":"Feature","geometry":{"type":"Point","coordinates":[117.691355,49.465511]},"properties":{"province":"内蒙古自治区","city":"呼伦贝尔市","county":"扎赉诺尔区","community":"第四街道","full_address":"内蒙古自治区呼伦贝尔市扎赉诺尔区第四街道","info":""}},{"type":"Feature","geometry":{"type":"Point","coordinates":[97.788827,24.171896]},"properties":{"province":"云南省","city":"德宏傣族景颇族自治州","county":"陇川县","community":"景岭博郡建筑工地以北、勐宛山水建筑工地以西、仁和医院和星云小区以南、勐宛南路延长线以东片区（71网格）","full_address":"云南省德宏傣族景颇族自治州陇川县景岭博郡建筑工地以北、勐宛山水建筑工地以西、仁和医院和星云小区以南、勐宛南路延长线以东片区（71网格）","info":""}}]}