{"type":"FeatureCollection","features":[{"type":"Feature","geometry":{"type":"Point","coordinates":[120.869083,30.012535]},"properties":{"full_address":"浙江省绍兴市上虞区曹娥街道振兴社区"}},{"type":"Feature","geometry":{"type":"Point","coordinates":[120.878382,30.009719]},"properties":{"full_address":"浙江省绍兴市上虞区银河社区"}},{"type":"Feature","geometry":{"type":"Point","coordinates":[120.872397,29.997607]},"properties":{"full_address":"浙江省绍兴市上虞区大通超市（舜杰路店）"}},{"type":"Feature","geometry":{"type":"Point","coordinates":[108.955053,34.228959]},"properties":{"full_address":"陕西省西安市雁塔区小寨路街道长安中路33号长安大学校本部住宅区和北院宿舍"}},{"type":"Feature","geometry":{"type":"Point","coordinates":[108.155933,21.524319]},"properties":{"full_address":"广西壮族自治区防城港市东兴市江平镇万尾村"}}]}