{"type":"FeatureCollection","features":[{"type":"Feature","geometry":{"type":"Point","coordinates":[97.890538,23.979522]},"properties":{"full_address":"云南省德宏傣族景颇族自治州瑞丽市姐告国门社区"}},{"type":"Feature","geometry":{"type":"Point","coordinates":[119.494547,32.422843]},"properties":{"full_address":"江苏省扬州市广陵区湾头镇"}},{"type":"Feature","geometry":{"type":"Point","coordinates":[114.187569,34.564675]},"properties":{"full_address":"河南省开封市尉氏县庄头镇前曹村"}},{"type":"Feature","geometry":{"type":"Point","coordinates":[114.515839,32.559431]},"properties":{"full_address":"河南省驻马店市正阳县吕河乡杨店行政村"}},{"type":"Feature","geometry":{"type":"Point","coordinates":[114.496249,32.541207]},"properties":{"full_address":"河南省驻马店市正阳县大杨行政村"}},{"type":"Feature","geometry":{"type":"Point","coordinates":[114.517304,32.567723]},"properties":{"full_address":"河南省驻马店市正阳县彭围孜行政村"}},{"type":"Feature","geometry":{"type":"Point","coordinates":[114.323845,32.475656]},"properties":{"full_address":"河南省驻马店市正阳县兰青乡兰青行政村"}},{"type":"Feature","geometry":{"type":"Point","coordinates":[114.54086,32.651946]},"properties":{"full_address":"河南省驻马店市正阳县袁寨镇付庄行政村"}},{"type":"Feature","geometry":{"type":"Point","coordinates":[115.870939,34.396405]},"properties":{"full_address":"河南省商丘市虞城县人民医院东院区"}},{"type":"Feature","geometry":{"type":"Point","coordinates":[115.768892,34.280095]},"properties":{"full_address":"河南省商丘市虞城县谷熟镇刘大庄村委何庄村"}},{"type":"Feature","geometry":{"type":"Point","coordinates":[113.681479,34.771264]},"properties":{"full_address":"河南省张家界市永定区永定区阳湖坪街道"}},{"type":"Feature","geometry":{"type":"Point","coordinates":[113.663326,34.728117]},"properties":{"full_address":"河南省郑州市二七区福华街街道铁道京广家园"}},{"type":"Feature","geometry":{"type":"Point","coordinates":[113.643453,34.714265]},"properties":{"full_address":"河南省郑州市二七区长江路街道"}},{"type":"Feature","geometry":{"type":"Point","coordinates":[113.700853,34.634089]},"properties":{"full_address":"河南省郑州市新郑市教育园区温莎城堡"}},{"type":"Feature","geometry":{"type":"Point","coordinates":[113.711909,34.754982]},"properties":{"full_address":"河南省郑州市金水区未来路街道沈庄新城南区"}},{"type":"Feature","geometry":{"type":"Point","coordinates":[113.733012,34.394409]},"properties":{"full_address":"河南省郑州市新郑市教育园区小乔社区吉祥公寓"}},{"type":"Feature","geometry":{"type":"Point","coordinates":[113.646339,34.734346]},"properties":{"full_address":"河南省郑州市二七区建中街街道西福民小区"}},{"type":"Feature","geometry":{"type":"Point","coordinates":[113.655683,34.725517]},"properties":{"full_address":"河南省郑州市二七区福华街街道油漆厂家属院(132号院"}},{"type":"Feature","geometry":{"type":"Point","coordinates":[113.681212,34.600514]},"properties":{"full_address":"河南省郑州市新郑市教育园区小乔社区连家公寓"}},{"type":"Feature","geometry":{"type":"Point","coordinates":[113.666948,34.710663]},"properties":{"full_address":"河南省郑州市二七区京广路街道"}},{"type":"Feature","geometry":{"type":"Point","coordinates":[115.624205,34.395919]},"properties":{"full_address":"河南省商丘市睢阳区第一人民医院"}},{"type":"Feature","geometry":{"type":"Point","coordinates":[115.648411,34.384748]},"properties":{"full_address":"河南省商丘市睢阳区帝景南苑北区"}},{"type":"Feature","geometry":{"type":"Point","coordinates":[114.457137,32.544109]},"properties":{"full_address":"河南省驻马店市正阳县吕河乡(除杨店行政村外"}},{"type":"Feature","geometry":{"type":"Point","coordinates":[114.323845,32.475656]},"properties":{"full_address":"河南省驻马店市正阳县兰青乡(除兰青行政村外"}},{"type":"Feature","geometry":{"type":"Point","coordinates":[114.539357,32.669942]},"properties":{"full_address":"河南省驻马店市正阳县袁寨镇(除付庄行政村外"}},{"type":"Feature","geometry":{"type":"Point","coordinates":[114.192787,34.578044]},"properties":{"full_address":"河南省开封市尉氏县庄头镇后曹村"}},{"type":"Feature","geometry":{"type":"Point","coordinates":[114.182666,34.584888]},"properties":{"full_address":"河南省开封市尉氏县庄头镇于家村"}},{"type":"Feature","geometry":{"type":"Point","coordinates":[114.165085,34.579218]},"properties":{"full_address":"河南省开封市尉氏县庄头镇文家村"}},{"type":"Feature","geometry":{"type":"Point","coordinates":[114.162814,34.571595]},"properties":{"full_address":"河南省开封市尉氏县庄头镇刘家村"}},{"type":"Feature","geometry":{"type":"Point","coordinates":[114.271146,34.478157]},"properties":{"full_address":"河南省开封市尉氏县庄头镇孙庄村"}},{"type":"Feature","geometry":{"type":"Point","coordinates":[114.19407,34.553419]},"properties":{"full_address":"河南省开封市尉氏县庄头镇田家村"}},{"type":"Feature","geometry":{"type":"Point","coordinates":[114.152826,30.488647]},"properties":{"full_address":"湖北省武汉市蔡甸区经开区沌口街道"}},{"type":"Feature","geometry":{"type":"Point","coordinates":[114.33201,30.359741]},"properties":{"full_address":"湖北省武汉市江夏区纸坊街道郭岭里小区"}},{"type":"Feature","geometry":{"type":"Point","coordinates":[114.371563,30.399113]},"properties":{"full_address":"湖北省武汉市江夏区江夏经济开发区栗庙还建小区"}},{"type":"Feature","geometry":{"type":"Point","coordinates":[112.204109,30.983797]},"properties":{"full_address":"湖北省荆门市掇刀区兴隆街道"}},{"type":"Feature","geometry":{"type":"Point","coordinates":[112.183758,30.876926]},"properties":{"full_address":"湖北省荆门市掇刀区团林铺镇"}},{"type":"Feature","geometry":{"type":"Point","coordinates":[114.89086,30.743741]},"properties":{"full_address":"湖北省黄冈市团风县淋山河镇"}},{"type":"Feature","geometry":{"type":"Point","coordinates":[121.195685,31.010079]},"properties":{"full_address":"上海市市辖区松江区永丰街道仓丰路855号（有庐公寓）"}},{"type":"Feature","geometry":{"type":"Point","coordinates":[121.694662,31.183984]},"properties":{"full_address":"上海市市辖区浦东新区川沙新镇川环南路1049弄界龙花苑小区"}},{"type":"Feature","geometry":{"type":"Point","coordinates":[121.809659,31.09306]},"properties":{"full_address":"上海市市辖区浦东新区盐朝公路798号锦江之星"}},{"type":"Feature","geometry":{"type":"Point","coordinates":[121.768684,31.109865]},"properties":{"full_address":"上海市市辖区浦东新区祝桥镇千汇路280弄千汇苑一村小区"}},{"type":"Feature","geometry":{"type":"Point","coordinates":[121.763071,31.123229]},"properties":{"full_address":"上海市市辖区浦东新区祝桥镇千汇路1000弄祝和苑北区"}}]}