{"type":"FeatureCollection","features":[{"type":"Feature","geometry":{"type":"Point","coordinates":[121.633158,31.201341]},"properties":{"full_address":"上海市市辖区浦东新区张江镇张东路2281弄玉兰香苑四期小区"}},{"type":"Feature","geometry":{"type":"Point","coordinates":[117.771334,49.439585]},"properties":{"full_address":"内蒙古自治区呼伦贝尔市满洲里市扎赉诺尔区第二街道"}},{"type":"Feature","geometry":{"type":"Point","coordinates":[117.62076,49.434788]},"properties":{"full_address":"内蒙古自治区呼伦贝尔市扎赉诺尔区第五街道"}},{"type":"Feature","geometry":{"type":"Point","coordinates":[117.685776,49.411217]},"properties":{"full_address":"内蒙古自治区呼伦贝尔市扎赉诺尔区灵泉镇"}},{"type":"Feature","geometry":{"type":"Point","coordinates":[116.811057,48.664226]},"properties":{"full_address":"内蒙古自治区呼伦贝尔市新巴尔虎右旗阿拉坦额莫勒镇"}},{"type":"Feature","geometry":{"type":"Point","coordinates":[126.668788,45.75997]},"properties":{"full_address":"黑龙江省哈尔滨市南岗区华鸿金色柏林小区8号楼"}},{"type":"Feature","geometry":{"type":"Point","coordinates":[126.664561,45.755996]},"properties":{"full_address":"黑龙江省哈尔滨市南岗区宣德街26—1号至宣德街30号与芦家街90号至90—18号四单元门市半合围区域"}},{"type":"Feature","geometry":{"type":"Point","coordinates":[126.662194,45.690519]},"properties":{"full_address":"黑龙江省哈尔滨市香坊区绿海华庭小区三期"}},{"type":"Feature","geometry":{"type":"Point","coordinates":[126.604664,45.735994]},"properties":{"full_address":"黑龙江省哈尔滨市道里区恒祥城小区二期（14号楼&15号楼&16号楼围合区域）"}},{"type":"Feature","geometry":{"type":"Point","coordinates":[126.611829,45.74467]},"properties":{"full_address":"黑龙江省哈尔滨市道里区民安小区（6栋&7栋围合区域）"}},{"type":"Feature","geometry":{"type":"Point","coordinates":[124.932538,48.334498]},"properties":{"full_address":"黑龙江省齐齐哈尔市讷河市长发镇建设村"}},{"type":"Feature","geometry":{"type":"Point","coordinates":[121.676299,29.933033]},"properties":{"full_address":"浙江省宁波市镇海区蛟川街道的临江小区"}},{"type":"Feature","geometry":{"type":"Point","coordinates":[121.661079,29.938896]},"properties":{"full_address":"浙江省宁波市镇海区阿尔卑斯电子有限公司"}},{"type":"Feature","geometry":{"type":"Point","coordinates":[121.678691,29.937457]},"properties":{"full_address":"浙江省宁波市镇海区蛟川街道甬记公寓"}},{"type":"Feature","geometry":{"type":"Point","coordinates":[120.241245,30.210983]},"properties":{"full_address":"浙江省杭州市萧山区北干街道龙湖春江天玺17幢"}},{"type":"Feature","geometry":{"type":"Point","coordinates":[120.880987,29.99288]},"properties":{"full_address":"浙江省绍兴市上虞区百官街道（城南社区&恒利社区除外）"}},{"type":"Feature","geometry":{"type":"Point","coordinates":[120.874317,30.020339]},"properties":{"full_address":"浙江省绍兴市上虞区曹娥街道（振兴社区&银河社区&大通超市（舜杰路店）除外）"}},{"type":"Feature","geometry":{"type":"Point","coordinates":[120.798119,29.990176]},"properties":{"full_address":"浙江省绍兴市上虞区东关街道大西庄村马家自然村"}},{"type":"Feature","geometry":{"type":"Point","coordinates":[120.818191,30.004439]},"properties":{"full_address":"浙江省绍兴市上虞区南阳社区新东方家园13幢"}},{"type":"Feature","geometry":{"type":"Point","coordinates":[120.596966,29.981834]},"properties":{"full_address":"浙江省绍兴市越城区道墟街道积山村诸家自然村"}},{"type":"Feature","geometry":{"type":"Point","coordinates":[120.776762,30.079995]},"properties":{"full_address":"浙江省绍兴市上虞区汇联村"}},{"type":"Feature","geometry":{"type":"Point","coordinates":[120.898934,29.988432]},"properties":{"full_address":"浙江省绍兴市上虞区梁湖街道天香华庭小区香榭居17幢"}},{"type":"Feature","geometry":{"type":"Point","coordinates":[120.851205,30.066233]},"properties":{"full_address":"浙江省绍兴市上虞区崧厦街道陆家村"}},{"type":"Feature","geometry":{"type":"Point","coordinates":[120.849339,29.818274]},"properties":{"full_address":"浙江省绍兴市上虞区章镇镇浙江胤亿科技有限公司"}},{"type":"Feature","geometry":{"type":"Point","coordinates":[120.935657,29.942548]},"properties":{"full_address":"浙江省绍兴市上虞区丰惠镇南源贾塔自然村"}},{"type":"Feature","geometry":{"type":"Point","coordinates":[120.963717,29.946922]},"properties":{"full_address":"浙江省绍兴市上虞区上虞英格菲尔通用机械有限公司"}},{"type":"Feature","geometry":{"type":"Point","coordinates":[120.906939,29.933302]},"properties":{"full_address":"浙江省绍兴市上虞区渔门村"}},{"type":"Feature","geometry":{"type":"Point","coordinates":[120.930435,30.038017]},"properties":{"full_address":"浙江省绍兴市上虞区驿亭镇新驿亭村"}},{"type":"Feature","geometry":{"type":"Point","coordinates":[120.983311,30.054634]},"properties":{"full_address":"浙江省绍兴市上虞区五夫村"}},{"type":"Feature","geometry":{"type":"Point","coordinates":[120.950153,30.031414]},"properties":{"full_address":"浙江省绍兴市上虞区鲁溪闸群英自然村"}},{"type":"Feature","geometry":{"type":"Point","coordinates":[120.961852,30.018738]},"properties":{"full_address":"浙江省绍兴市上虞区新横塘徐家岙自然村"}},{"type":"Feature","geometry":{"type":"Point","coordinates":[120.950153,30.031414]},"properties":{"full_address":"浙江省绍兴市上虞区鲁溪闸下闸自然村"}},{"type":"Feature","geometry":{"type":"Point","coordinates":[120.882385,30.127205]},"properties":{"full_address":"浙江省绍兴市上虞区盖北镇兴海村"}},{"type":"Feature","geometry":{"type":"Point","coordinates":[120.843766,30.171289]},"properties":{"full_address":"浙江省绍兴市上虞区上虞经济技术开发区朝阳三路浙江太阳股份有限公司"}},{"type":"Feature","geometry":{"type":"Point","coordinates":[120.886713,30.153398]},"properties":{"full_address":"浙江省绍兴市上虞区浙江致为新材料有限公司"}},{"type":"Feature","geometry":{"type":"Point","coordinates":[120.904291,30.154974]},"properties":{"full_address":"浙江省绍兴市上虞区浙江海创锂电科技有限公司"}},{"type":"Feature","geometry":{"type":"Point","coordinates":[108.962165,34.196394]},"properties":{"full_address":"陕西省西安市雁塔区曲江新区雁展路288号沿街69-10101至69-10107商铺"}},{"type":"Feature","geometry":{"type":"Point","coordinates":[108.942851,34.197824]},"properties":{"full_address":"陕西省西安市雁塔区长延堡街道丈八东路2号家属院"}},{"type":"Feature","geometry":{"type":"Point","coordinates":[108.955363,34.228494]},"properties":{"full_address":"陕西省西安市雁塔区小寨路街道长安中路33号长安大学长安路住宅区3区11号楼和2区11号楼"}},{"type":"Feature","geometry":{"type":"Point","coordinates":[108.955363,34.228494]},"properties":{"full_address":"陕西省西安市雁塔区小寨路街道长安中路33号长安大学长安路住宅区3区10号楼1单元"}},{"type":"Feature","geometry":{"type":"Point","coordinates":[108.938405,34.193031]},"properties":{"full_address":"陕西省西安市雁塔区长延堡街道朱雀大街南段10号紫郡长安北区F5栋2单元"}},{"type":"Feature","geometry":{"type":"Point","coordinates":[108.952854,34.228996]},"properties":{"full_address":"陕西省西安市雁塔区小寨街道长安中路33号长安大学家属院2区15号楼、13号楼3单元"}},{"type":"Feature","geometry":{"type":"Point","coordinates":[108.938405,34.193031]},"properties":{"full_address":"陕西省西安市雁塔区长延堡街道朱雀大街南段10号紫郡长安北区F6栋"}},{"type":"Feature","geometry":{"type":"Point","coordinates":[108.893192,34.370084]},"properties":{"full_address":"陕西省西安市未央区经开区长大南路356号长安大学渭水校区住宅小区10号楼3单元"}},{"type":"Feature","geometry":{"type":"Point","coordinates":[108.933639,34.234298]},"properties":{"full_address":"陕西省西安市碑林区含光路23号九锦台小区12号楼2单元"}},{"type":"Feature","geometry":{"type":"Point","coordinates":[108.939587,34.249473]},"properties":{"full_address":"陕西省西安市碑林区张家村街道融信社区大学东路80号民房"}},{"type":"Feature","geometry":{"type":"Point","coordinates":[108.811781,34.301313]},"properties":{"full_address":"陕西省西安市未央区西咸新区沣东新城上林街道奥林匹克花园E3栋"}},{"type":"Feature","geometry":{"type":"Point","coordinates":[116.969983,33.347244]},"properties":{"full_address":"安徽省宿州市埇桥区大营镇大营新村"}},{"type":"Feature","geometry":{"type":"Point","coordinates":[113.92559,22.937581]},"properties":{"full_address":"广东省东莞市大朗镇长富社区碧桂园首座3栋"}},{"type":"Feature","geometry":{"type":"Point","coordinates":[113.942398,22.933704]},"properties":{"full_address":"广东省东莞市大朗镇蔡边村沙井街76-80号"}},{"type":"Feature","geometry":{"type":"Point","coordinates":[113.946057,22.937547]},"properties":{"full_address":"广东省东莞市大朗镇蔡边村金丽路五巷20号"}},{"type":"Feature","geometry":{"type":"Point","coordinates":[113.948359,22.933462]},"properties":{"full_address":"广东省东莞市大朗镇蔡边村九墩区112号"}},{"type":"Feature","geometry":{"type":"Point","coordinates":[113.947142,22.960522]},"properties":{"full_address":"广东省东莞市大朗镇长塘社区第一工业区一街92-146号"}},{"type":"Feature","geometry":{"type":"Point","coordinates":[113.936963,22.939556]},"properties":{"full_address":"广东省东莞市大朗镇长塘社区三区一路197-199号君安雅居"}},{"type":"Feature","geometry":{"type":"Point","coordinates":[113.946461,22.93728]},"properties":{"full_address":"广东省东莞市大朗镇大井头社区怡安路63号怡安时尚公寓"}},{"type":"Feature","geometry":{"type":"Point","coordinates":[113.916687,22.881269]},"properties":{"full_address":"广东省东莞市大朗镇水平村红荔西区金宝公寓"}}]}