{"type":"FeatureCollection","features":[{"type":"Feature","geometry":{"type":"Point","coordinates":[125.293975,43.88385]},"properties":{"full_address":"北京市市辖区朝阳区汉庭酒店大山子店（包括底商）"}},{"type":"Feature","geometry":{"type":"Point","coordinates":[116.594839,40.145929]},"properties":{"full_address":"北京市市辖区顺义区南法信镇西杜兰村"}},{"type":"Feature","geometry":{"type":"Point","coordinates":[116.561247,40.144971]},"properties":{"full_address":"北京市市辖区顺义区高丽营镇张喜庄村"}},{"type":"Feature","geometry":{"type":"Point","coordinates":[117.339786,40.184513]},"properties":{"full_address":"北京市北京市平谷区东马各庄村"}},{"type":"Feature","geometry":{"type":"Point","coordinates":[116.620426,40.140503]},"properties":{"full_address":"北京市市辖区顺义区南法信镇东海洪村"}},{"type":"Feature","geometry":{"type":"Point","coordinates":[116.745051,40.135249]},"properties":{"full_address":"北京市市辖区顺义区南彩镇南彩村"}},{"type":"Feature","geometry":{"type":"Point","coordinates":[116.697869,40.101745]},"properties":{"full_address":"北京市市辖区顺义区仁和镇河南村"}},{"type":"Feature","geometry":{"type":"Point","coordinates":[121.738617,39.098633]},"properties":{"full_address":"辽宁省大连市金州区金普新区先进街道金润小区B区"}},{"type":"Feature","geometry":{"type":"Point","coordinates":[121.731474,39.101599]},"properties":{"full_address":"辽宁省大连市金州区民馨社区"}},{"type":"Feature","geometry":{"type":"Point","coordinates":[121.721102,39.106753]},"properties":{"full_address":"辽宁省大连市金州区光中街道金东路社区"}},{"type":"Feature","geometry":{"type":"Point","coordinates":[121.70502,39.103273]},"properties":{"full_address":"辽宁省大连市金州区红旗社区"}},{"type":"Feature","geometry":{"type":"Point","coordinates":[121.715198,39.100408]},"properties":{"full_address":"辽宁省大连市金州区胜利东社区"}},{"type":"Feature","geometry":{"type":"Point","coordinates":[121.709337,39.096009]},"properties":{"full_address":"辽宁省大连市金州区胜利西社区"}},{"type":"Feature","geometry":{"type":"Point","coordinates":[121.716696,39.111774]},"properties":{"full_address":"辽宁省大连市金州区拥政街道古城甲区"}},{"type":"Feature","geometry":{"type":"Point","coordinates":[121.706994,39.107758]},"properties":{"full_address":"辽宁省大连市金州区友谊街道金华社区"}},{"type":"Feature","geometry":{"type":"Point","coordinates":[121.71268,39.110816]},"properties":{"full_address":"辽宁省大连市金州区古城乙区社区"}},{"type":"Feature","geometry":{"type":"Point","coordinates":[121.715305,39.113939]},"properties":{"full_address":"辽宁省大连市金州区康乐社区"}},{"type":"Feature","geometry":{"type":"Point","coordinates":[121.608264,38.940821]},"properties":{"full_address":"辽宁省大连市西岗区金海社区"}},{"type":"Feature","geometry":{"type":"Point","coordinates":[121.710062,39.11981]},"properties":{"full_address":"辽宁省大连市金州区兴民村"}},{"type":"Feature","geometry":{"type":"Point","coordinates":[121.725247,39.087414]},"properties":{"full_address":"辽宁省大连市金州区站前街道联胜社区"}},{"type":"Feature","geometry":{"type":"Point","coordinates":[121.729605,39.09045]},"properties":{"full_address":"辽宁省大连市金州区盛滨社区"}},{"type":"Feature","geometry":{"type":"Point","coordinates":[121.564523,38.879947]},"properties":{"full_address":"辽宁省大连市沙河口区星海湾街道星海公园社区"}},{"type":"Feature","geometry":{"type":"Point","coordinates":[121.510961,38.883039]},"properties":{"full_address":"辽宁省大连市甘井子区高新园区凌水街道大有恬园社区"}},{"type":"Feature","geometry":{"type":"Point","coordinates":[123.352048,41.837869]},"properties":{"full_address":"辽宁省沈阳市于洪区北陵街道宏达社区"}},{"type":"Feature","geometry":{"type":"Point","coordinates":[123.360949,41.857899]},"properties":{"full_address":"辽宁省沈阳市于洪区华润橡树湾二期"}},{"type":"Feature","geometry":{"type":"Point","coordinates":[123.376429,41.862277]},"properties":{"full_address":"辽宁省沈阳市于洪区中海城星座小区"}},{"type":"Feature","geometry":{"type":"Point","coordinates":[123.361478,41.834357]},"properties":{"full_address":"辽宁省沈阳市皇姑区基业百花园小区"}},{"type":"Feature","geometry":{"type":"Point","coordinates":[122.726864,41.498089]},"properties":{"full_address":"辽宁省沈阳市辽中区化工小区"}},{"type":"Feature","geometry":{"type":"Point","coordinates":[123.379454,41.822471]},"properties":{"full_address":"辽宁省沈阳市皇姑区昆山西路中海寰宇天下天悦园区"}},{"type":"Feature","geometry":{"type":"Point","coordinates":[123.356646,41.833174]},"properties":{"full_address":"辽宁省沈阳市皇姑区昆山西路向工小区东区"}},{"type":"Feature","geometry":{"type":"Point","coordinates":[123.356372,41.825836]},"properties":{"full_address":"辽宁省沈阳市皇姑区亿海阳光一期"}},{"type":"Feature","geometry":{"type":"Point","coordinates":[123.357933,41.829984]},"properties":{"full_address":"辽宁省沈阳市皇姑区溪水街1号楼"}},{"type":"Feature","geometry":{"type":"Point","coordinates":[123.364761,41.825042]},"properties":{"full_address":"辽宁省沈阳市皇姑区明廉路博客地带小区"}},{"type":"Feature","geometry":{"type":"Point","coordinates":[123.390151,41.828211]},"properties":{"full_address":"辽宁省沈阳市皇姑区舍利塔街道世纪学府"}},{"type":"Feature","geometry":{"type":"Point","coordinates":[123.356739,41.827408]},"properties":{"full_address":"辽宁省沈阳市皇姑区明廉街道亿海阳光二期"}},{"type":"Feature","geometry":{"type":"Point","coordinates":[123.365747,41.833342]},"properties":{"full_address":"辽宁省沈阳市皇姑区明廉街道华锐塔湾欣城2期"}},{"type":"Feature","geometry":{"type":"Point","coordinates":[123.361027,41.823971]},"properties":{"full_address":"辽宁省沈阳市皇姑区明廉街道明廉小区"}},{"type":"Feature","geometry":{"type":"Point","coordinates":[123.405215,41.819382]},"properties":{"full_address":"辽宁省沈阳市皇姑区华山街道鲲鹏小区2期"}},{"type":"Feature","geometry":{"type":"Point","coordinates":[123.393262,41.798422]},"properties":{"full_address":"辽宁省沈阳市铁西区北二东路沈铁兴工佳园小区"}},{"type":"Feature","geometry":{"type":"Point","coordinates":[127.50132,50.250397]},"properties":{"full_address":"黑龙江省黑河市爱辉区喇嘛台社区学府佳苑小区"}},{"type":"Feature","geometry":{"type":"Point","coordinates":[128.482513,49.580654]},"properties":{"full_address":"黑龙江省黑河市逊克县金融社区省建材楼所在小区"}},{"type":"Feature","geometry":{"type":"Point","coordinates":[127.499335,50.236818]},"properties":{"full_address":"黑龙江省黑河市爱辉区热电社区新生活家园小区"}},{"type":"Feature","geometry":{"type":"Point","coordinates":[127.520585,50.246204]},"properties":{"full_address":"黑龙江省黑河市爱辉区金兰社区电业名苑小区"}},{"type":"Feature","geometry":{"type":"Point","coordinates":[127.498237,50.239974]},"properties":{"full_address":"黑龙江省黑河市爱辉区热电社区天丝小区"}},{"type":"Feature","geometry":{"type":"Point","coordinates":[127.499533,50.235586]},"properties":{"full_address":"黑龙江省黑河市爱辉区热电社区兴边集资楼（2号楼）"}},{"type":"Feature","geometry":{"type":"Point","coordinates":[114.746774,38.285026]},"properties":{"full_address":"河北省石家庄市藁城区增村镇刘家佐村"}},{"type":"Feature","geometry":{"type":"Point","coordinates":[115.393562,37.367374]},"properties":{"full_address":"河北省邢台市南宫市天地名城小区"}},{"type":"Feature","geometry":{"type":"Point","coordinates":[114.507077,37.082265]},"properties":{"full_address":"河北省邢台市襄都区天一合院小区"}}]}