{"type":"FeatureCollection","features":[{"type":"Feature","geometry":{"type":"Point","coordinates":[97.890538,23.979522]},"properties":{"province":"云南省","city":"德宏傣族景颇族自治州","county":"瑞丽市","community":"姐告国门社区","full_address":"云南省德宏傣族景颇族自治州瑞丽市姐告国门社区","info":""}},{"type":"Feature","geometry":{"type":"Point","coordinates":[118.865185,31.774661]},"properties":{"province":"江苏省","city":"南京市","county":"江宁区","community":"禄口街道全域","full_address":"江苏省南京市江宁区禄口街道全域","info":""}},{"type":"Feature","geometry":{"type":"Point","coordinates":[119.494547,32.422843]},"properties":{"province":"江苏省","city":"扬州市","county":"广陵区","community":"湾头镇","full_address":"江苏省扬州市广陵区湾头镇","info":""}},{"type":"Feature","geometry":{"type":"Point","coordinates":[119.465883,32.36738]},"properties":{"province":"江苏省","city":"扬州市","county":"广陵区","community":"汤汪乡","full_address":"江苏省扬州市广陵区汤汪乡","info":""}},{"type":"Feature","geometry":{"type":"Point","coordinates":[119.469229,32.40693]},"properties":{"province":"江苏省","city":"扬州市","county":"广陵区","community":"曲江街道","full_address":"江苏省扬州市广陵区曲江街道","info":""}},{"type":"Feature","geometry":{"type":"Point","coordinates":[119.446339,32.397772]},"properties":{"province":"江苏省","city":"扬州市","county":"广陵区","community":"东关街道","full_address":"江苏省扬州市广陵区东关街道","info":""}},{"type":"Feature","geometry":{"type":"Point","coordinates":[119.395059,32.37859]},"properties":{"province":"江苏省","city":"扬州市","county":"邗江区","community":"双桥街道宝带河以西、文昌西路以南、新城河路以东、文汇西路以北合围区域","full_address":"江苏省扬州市邗江区双桥街道宝带河以西、文昌西路以南、新城河路以东、文汇西路以北合围区域","info":""}},{"type":"Feature","geometry":{"type":"Point","coordinates":[119.39333,32.378331]},"properties":{"province":"江苏省","city":"扬州市","county":"邗江区","community":"邗上街道","full_address":"江苏省扬州市邗江区邗上街道","info":""}},{"type":"Feature","geometry":{"type":"Point","coordinates":[119.36498,32.380211]},"properties":{"province":"江苏省","city":"扬州市","county":"邗江区","community":"新盛街道","full_address":"江苏省扬州市邗江区新盛街道","info":""}},{"type":"Feature","geometry":{"type":"Point","coordinates":[119.413736,32.379418]},"properties":{"province":"江苏省","city":"扬州市","county":"邗江区","community":"经济技术开发区文汇街道","full_address":"江苏省扬州市邗江区经济技术开发区文汇街道","info":""}},{"type":"Feature","geometry":{"type":"Point","coordinates":[119.418054,32.411468]},"properties":{"province":"江苏省","city":"扬州市","county":"邗江区","community":"蜀冈-瘦西湖风景名胜区梅岭街道","full_address":"江苏省扬州市邗江区蜀冈-瘦西湖风景名胜区梅岭街道","info":""}},{"type":"Feature","geometry":{"type":"Point","coordinates":[113.666948,34.710663]},"properties":{"province":"河南省","city":"郑州市","county":"二七区","community":"京广路街道","full_address":"河南省郑州市二七区京广路街道","info":""}},{"type":"Feature","geometry":{"type":"Point","coordinates":[114.187569,34.564675]},"properties":{"province":"河南省","city":"开封市","county":"尉氏县","community":"庄头镇前曹村","full_address":"河南省开封市尉氏县庄头镇前曹村","info":""}},{"type":"Feature","geometry":{"type":"Point","coordinates":[114.192787,34.578044]},"properties":{"province":"河南省","city":"开封市","county":"尉氏县","community":"后曹村","full_address":"河南省开封市尉氏县后曹村","info":""}},{"type":"Feature","geometry":{"type":"Point","coordinates":[114.182666,34.584888]},"properties":{"province":"河南省","city":"开封市","county":"尉氏县","community":"于家村","full_address":"河南省开封市尉氏县于家村","info":""}},{"type":"Feature","geometry":{"type":"Point","coordinates":[114.165085,34.579218]},"properties":{"province":"河南省","city":"开封市","county":"尉氏县","community":"文家村","full_address":"河南省开封市尉氏县文家村","info":""}},{"type":"Feature","geometry":{"type":"Point","coordinates":[114.162814,34.571595]},"properties":{"province":"河南省","city":"开封市","county":"尉氏县","community":"刘家村","full_address":"河南省开封市尉氏县刘家村","info":""}},{"type":"Feature","geometry":{"type":"Point","coordinates":[114.271146,34.478157]},"properties":{"province":"河南省","city":"开封市","county":"尉氏县","community":"孙庄村","full_address":"河南省开封市尉氏县孙庄村","info":""}},{"type":"Feature","geometry":{"type":"Point","coordinates":[114.19407,34.553419]},"properties":{"province":"河南省","city":"开封市","county":"尉氏县","community":"田家村","full_address":"河南省开封市尉氏县田家村","info":""}},{"type":"Feature","geometry":{"type":"Point","coordinates":[114.515839,32.559431]},"properties":{"province":"河南省","city":"驻马店市","county":"正阳县","community":"吕河乡杨店行政村","full_address":"河南省驻马店市正阳县吕河乡杨店行政村","info":""}},{"type":"Feature","geometry":{"type":"Point","coordinates":[114.496249,32.541207]},"properties":{"province":"河南省","city":"驻马店市","county":"正阳县","community":"大杨行政村","full_address":"河南省驻马店市正阳县大杨行政村","info":""}},{"type":"Feature","geometry":{"type":"Point","coordinates":[114.517304,32.567723]},"properties":{"province":"河南省","city":"驻马店市","county":"正阳县","community":"彭围孜行政村","full_address":"河南省驻马店市正阳县彭围孜行政村","info":""}},{"type":"Feature","geometry":{"type":"Point","coordinates":[114.323845,32.475656]},"properties":{"province":"河南省","city":"驻马店市","county":"正阳县","community":"兰青乡兰青行政村","full_address":"河南省驻马店市正阳县兰青乡兰青行政村","info":""}},{"type":"Feature","geometry":{"type":"Point","coordinates":[114.54086,32.651946]},"properties":{"province":"河南省","city":"驻马店市","county":"正阳县","community":"袁寨镇付庄行政村","full_address":"河南省驻马店市正阳县袁寨镇付庄行政村","info":""}},{"type":"Feature","geometry":{"type":"Point","coordinates":[115.870939,34.396405]},"properties":{"province":"河南省","city":"商丘市","county":"虞城县","community":"人民医院东院区（新增）","full_address":"河南省商丘市虞城县人民医院东院区（新增）","info":""}},{"type":"Feature","geometry":{"type":"Point","coordinates":[115.768892,34.280095]},"properties":{"province":"河南省","city":"商丘市","county":"虞城县","community":"谷熟镇刘大庄村委何庄村（新增）","full_address":"河南省商丘市虞城县谷熟镇刘大庄村委何庄村（新增）","info":""}},{"type":"Feature","geometry":{"type":"Point","coordinates":[110.479977,29.10307]},"properties":{"province":"湖南省","city":"张家界市","county":"永定区","community":"官黎坪街道黄金塔社区","full_address":"湖南省张家界市永定区官黎坪街道黄金塔社区","info":""}},{"type":"Feature","geometry":{"type":"Point","coordinates":[110.473264,29.118808]},"properties":{"province":"湖南省","city":"张家界市","county":"永定区","community":"子午路以南、大桥路以西、大庸路以东合围区域","full_address":"湖南省张家界市永定区子午路以南、大桥路以西、大庸路以东合围区域","info":""}},{"type":"Feature","geometry":{"type":"Point","coordinates":[110.474371,29.131605]},"properties":{"province":"湖南省","city":"张家界市","county":"永定区","community":"子午路以南、迎宾路以西、澧水河以北、大桥路以东合围区域","full_address":"湖南省张家界市永定区子午路以南、迎宾路以西、澧水河以北、大桥路以东合围区域","info":""}}]}