{"type":"FeatureCollection","features":[{"type":"Feature","geometry":{"type":"Point","coordinates":[126.709994,45.757076]},"properties":{"full_address":"黑龙江省哈尔滨市南岗区信恒现代城小区馨园 A 栋"}},{"type":"Feature","geometry":{"type":"Point","coordinates":[126.570181,45.881327]},"properties":{"full_address":"黑龙江省哈尔滨市松北区地恒托斯卡纳小区4期"}},{"type":"Feature","geometry":{"type":"Point","coordinates":[126.761747,45.748136]},"properties":{"full_address":"黑龙江省哈尔滨市香坊区东鸿艺境小区 ( 一、二、三、四期 "}},{"type":"Feature","geometry":{"type":"Point","coordinates":[126.637829,45.72576]},"properties":{"full_address":"黑龙江省哈尔滨市香坊区文政街道和兴路 65 号院"}},{"type":"Feature","geometry":{"type":"Point","coordinates":[126.984381,45.540617]},"properties":{"full_address":"黑龙江省哈尔滨市阿城区金都街道金源世家小区"}},{"type":"Feature","geometry":{"type":"Point","coordinates":[127.089784,46.394604]},"properties":{"full_address":"黑龙江省哈尔滨市巴彦县巴彦镇中兴家园小区"}},{"type":"Feature","geometry":{"type":"Point","coordinates":[127.396889,46.086343]},"properties":{"full_address":"黑龙江省哈尔滨市巴彦县巴彦镇盛隆国际小区"}},{"type":"Feature","geometry":{"type":"Point","coordinates":[127.402299,46.088943]},"properties":{"full_address":"黑龙江省哈尔滨市巴彦县巴彦镇金源嘉园小区"}},{"type":"Feature","geometry":{"type":"Point","coordinates":[127.401018,46.089781]},"properties":{"full_address":"黑龙江省哈尔滨市巴彦县巴彦镇悦和新城小区"}},{"type":"Feature","geometry":{"type":"Point","coordinates":[127.116803,46.443601]},"properties":{"full_address":"黑龙江省哈尔滨市巴彦县兴隆镇阳光名苑小区"}},{"type":"Feature","geometry":{"type":"Point","coordinates":[127.389537,46.079186]},"properties":{"full_address":"黑龙江省哈尔滨市巴彦县巴彦镇水韵新城小区"}},{"type":"Feature","geometry":{"type":"Point","coordinates":[127.391261,46.081963]},"properties":{"full_address":"黑龙江省哈尔滨市巴彦县巴彦镇公园丽景小区"}}]}