{"type":"FeatureCollection","features":[{"type":"Feature","geometry":{"type":"Point","coordinates":[97.862936,23.99526]},"properties":{"province":"云南省","city":"德宏傣族景颇族自治州","county":"瑞丽市","community":"团结村委会下弄安村民小组","full_address":"云南省德宏傣族景颇族自治州瑞丽市团结村委会下弄安村民小组","info":""}},{"type":"Feature","geometry":{"type":"Point","coordinates":[97.896364,24.029615]},"properties":{"province":"云南省","city":"德宏傣族景颇族自治州","county":"瑞丽市","community":"姐勒村委会南闷村民小组","full_address":"云南省德宏傣族景颇族自治州瑞丽市姐勒村委会南闷村民小组","info":""}},{"type":"Feature","geometry":{"type":"Point","coordinates":[97.890538,23.979522]},"properties":{"province":"云南省","city":"德宏傣族景颇族自治州","county":"瑞丽市","community":"姐告国门社区","full_address":"云南省德宏傣族景颇族自治州瑞丽市姐告国门社区","info":""}},{"type":"Feature","geometry":{"type":"Point","coordinates":[119.424674,32.397087]},"properties":{"province":"江苏省","city":"扬州市","county":"邗江区","community":"双桥街道双桥社区柳湖南苑小区","full_address":"江苏省扬州市邗江区双桥街道双桥社区柳湖南苑小区","info":""}},{"type":"Feature","geometry":{"type":"Point","coordinates":[119.390432,32.5072]},"properties":{"province":"江苏省","city":"扬州市","county":"邗江区","community":"方巷镇朝阳路31号","full_address":"江苏省扬州市邗江区方巷镇朝阳路31号","info":""}},{"type":"Feature","geometry":{"type":"Point","coordinates":[119.418054,32.411468]},"properties":{"province":"江苏省","city":"扬州市","county":"邗江区","community":"蜀冈-瘦西湖风景名胜区城北街道瘦西湖福苑小区","full_address":"江苏省扬州市邗江区蜀冈-瘦西湖风景名胜区城北街道瘦西湖福苑小区","info":""}},{"type":"Feature","geometry":{"type":"Point","coordinates":[112.183758,30.876926]},"properties":{"province":"湖北省","city":"荆门市","county":"掇刀区","community":"团林铺镇","full_address":"湖北省荆门市掇刀区团林铺镇","info":""}},{"type":"Feature","geometry":{"type":"Point","coordinates":[121.694662,31.183984]},"properties":{"province":"上海市","city":"市辖区","county":"浦东新区","community":"川沙新镇川环南路1049弄界龙花苑小区","full_address":"上海市市辖区浦东新区川沙新镇川环南路1049弄界龙花苑小区","info":""}},{"type":"Feature","geometry":{"type":"Point","coordinates":[121.809659,31.09306]},"properties":{"province":"上海市","city":"市辖区","county":"浦东新区","community":"盐朝公路798号锦江之星","full_address":"上海市市辖区浦东新区盐朝公路798号锦江之星","info":""}},{"type":"Feature","geometry":{"type":"Point","coordinates":[121.768684,31.109865]},"properties":{"province":"上海市","city":"市辖区","county":"浦东新区","community":"祝桥镇千汇路280弄千汇苑一村小区","full_address":"上海市市辖区浦东新区祝桥镇千汇路280弄千汇苑一村小区","info":""}},{"type":"Feature","geometry":{"type":"Point","coordinates":[121.763071,31.123229]},"properties":{"province":"上海市","city":"市辖区","county":"浦东新区","community":"祝桥镇千汇路1000弄祝和苑北区","full_address":"上海市市辖区浦东新区祝桥镇千汇路1000弄祝和苑北区","info":""}}]}