{"type":"FeatureCollection","features":[{"type":"Feature","geometry":{"type":"Point","coordinates":[114.462468,35.946031]},"properties":{"full_address":"河南省安阳市汤阴县（汤阴县古贤镇除外）"}},{"type":"Feature","geometry":{"type":"Point","coordinates":[117.344086,39.032572]},"properties":{"full_address":"天津市市辖区津南区辛庄镇上东苑"}},{"type":"Feature","geometry":{"type":"Point","coordinates":[117.328814,39.034761]},"properties":{"full_address":"天津市市辖区津南区汀芳花园"}},{"type":"Feature","geometry":{"type":"Point","coordinates":[117.331977,39.034215]},"properties":{"full_address":"天津市市辖区津南区汀兰花园"}},{"type":"Feature","geometry":{"type":"Point","coordinates":[117.409239,38.993513]},"properties":{"full_address":"天津市市辖区津南区咸水沽镇东旺家园"}},{"type":"Feature","geometry":{"type":"Point","coordinates":[117.392213,38.978039]},"properties":{"full_address":"天津市市辖区津南区宝业馨苑"}},{"type":"Feature","geometry":{"type":"Point","coordinates":[117.374068,39.001804]},"properties":{"full_address":"天津市市辖区津南区博雅花园"}},{"type":"Feature","geometry":{"type":"Point","coordinates":[117.371103,38.983367]},"properties":{"full_address":"天津市市辖区津南区金才园"}},{"type":"Feature","geometry":{"type":"Point","coordinates":[117.371382,38.998261]},"properties":{"full_address":"天津市市辖区津南区金芳园"}},{"type":"Feature","geometry":{"type":"Point","coordinates":[117.30398,39.061127]},"properties":{"full_address":"天津市市辖区津南区双港镇柳景家园"}},{"type":"Feature","geometry":{"type":"Point","coordinates":[117.288415,39.02586]},"properties":{"full_address":"天津市市辖区津南区仁和园"}},{"type":"Feature","geometry":{"type":"Point","coordinates":[117.316822,39.044694]},"properties":{"full_address":"天津市市辖区津南区仁永名居"}},{"type":"Feature","geometry":{"type":"Point","coordinates":[117.289954,39.022208]},"properties":{"full_address":"天津市市辖区津南区善和园"}},{"type":"Feature","geometry":{"type":"Point","coordinates":[121.653301,30.934613]},"properties":{"full_address":"上海市市辖区奉贤区奉城镇幸福村8组"}},{"type":"Feature","geometry":{"type":"Point","coordinates":[116.17707,39.75289]},"properties":{"full_address":"北京市市辖区房山区长阳镇北广阳城大街8号"}},{"type":"Feature","geometry":{"type":"Point","coordinates":[116.303205,39.835656]},"properties":{"full_address":"北京市市辖区丰台区新村街道怡海花园恒丰园"}},{"type":"Feature","geometry":{"type":"Point","coordinates":[116.368955,39.806868]},"properties":{"full_address":"北京市市辖区丰台区南苑街道南庭新苑北区"}},{"type":"Feature","geometry":{"type":"Point","coordinates":[116.336039,39.84522]},"properties":{"full_address":"北京市市辖区丰台区玉泉营街道亿朋苑一区"}},{"type":"Feature","geometry":{"type":"Point","coordinates":[116.330798,39.831838]},"properties":{"full_address":"北京市市辖区丰台区黄土岗村"}},{"type":"Feature","geometry":{"type":"Point","coordinates":[116.331827,39.852295]},"properties":{"full_address":"北京市市辖区丰台区万柳西园"}},{"type":"Feature","geometry":{"type":"Point","coordinates":[116.367665,40.03222]},"properties":{"full_address":"北京市市辖区丰台区王佐镇翡翠山社区"}},{"type":"Feature","geometry":{"type":"Point","coordinates":[116.474288,40.003561]},"properties":{"full_address":"北京市市辖区朝阳区安贞街道安贞里社区安贞里三区4号楼"}},{"type":"Feature","geometry":{"type":"Point","coordinates":[116.340484,39.797205]},"properties":{"full_address":"北京市市辖区大兴区西红门镇宏福园小区"}},{"type":"Feature","geometry":{"type":"Point","coordinates":[80.420759,44.201669]},"properties":{"full_address":"新疆维吾尔自治区伊犁哈萨克自治州霍尔果斯市雅馨小区"}},{"type":"Feature","geometry":{"type":"Point","coordinates":[80.415754,44.204038]},"properties":{"full_address":"新疆维吾尔自治区伊犁哈萨克自治州霍尔果斯市雅居小区"}},{"type":"Feature","geometry":{"type":"Point","coordinates":[80.413534,44.205012]},"properties":{"full_address":"新疆维吾尔自治区伊犁哈萨克自治州霍城县丁香湾小区"}},{"type":"Feature","geometry":{"type":"Point","coordinates":[80.422437,44.203581]},"properties":{"full_address":"新疆维吾尔自治区伊犁哈萨克自治州霍尔果斯市时代嘉苑小区"}},{"type":"Feature","geometry":{"type":"Point","coordinates":[81.269389,43.926725]},"properties":{"full_address":"新疆维吾尔自治区伊犁哈萨克自治州伊宁市北京路公租房2号楼"}},{"type":"Feature","geometry":{"type":"Point","coordinates":[101.302,21.294441]},"properties":{"full_address":"云南省西双版纳傣族自治州勐腊县勐满镇集镇片区"}},{"type":"Feature","geometry":{"type":"Point","coordinates":[131.157975,44.402403]},"properties":{"full_address":"黑龙江省牡丹江市绥芬河市鸿福小区"}},{"type":"Feature","geometry":{"type":"Point","coordinates":[131.163474,44.403198]},"properties":{"full_address":"黑龙江省牡丹江市绥芬河市千园小区"}},{"type":"Feature","geometry":{"type":"Point","coordinates":[131.152546,44.412309]},"properties":{"full_address":"黑龙江省牡丹江市绥芬河市良运公司"}},{"type":"Feature","geometry":{"type":"Point","coordinates":[131.148004,44.411587]},"properties":{"full_address":"黑龙江省牡丹江市绥芬河市环保局家属楼"}},{"type":"Feature","geometry":{"type":"Point","coordinates":[131.138329,44.39671]},"properties":{"full_address":"黑龙江省牡丹江市绥芬河市二中集资楼"}},{"type":"Feature","geometry":{"type":"Point","coordinates":[131.164473,44.394966]},"properties":{"full_address":"黑龙江省牡丹江市绥芬河市兴建大厦"}},{"type":"Feature","geometry":{"type":"Point","coordinates":[131.137884,44.388517]},"properties":{"full_address":"黑龙江省牡丹江市绥芬河市龙泉文苑8号楼"}},{"type":"Feature","geometry":{"type":"Point","coordinates":[131.14037,44.394447]},"properties":{"full_address":"黑龙江省牡丹江市绥芬河市旗苑嘉园C区"}},{"type":"Feature","geometry":{"type":"Point","coordinates":[130.265481,44.523109]},"properties":{"full_address":"黑龙江省牡丹江市穆棱市馨怡纯粮油公司"}},{"type":"Feature","geometry":{"type":"Point","coordinates":[131.129193,44.068938]},"properties":{"full_address":"黑龙江省牡丹江市东宁市邮政小区"}},{"type":"Feature","geometry":{"type":"Point","coordinates":[129.637462,44.587641]},"properties":{"full_address":"黑龙江省牡丹江市阳明区春城小区"}},{"type":"Feature","geometry":{"type":"Point","coordinates":[115.953614,38.852771]},"properties":{"full_address":"河北省保定市安新县端村镇西堤东堤片区"}},{"type":"Feature","geometry":{"type":"Point","coordinates":[120.183727,30.179604]},"properties":{"full_address":"浙江省杭州市滨江区长河街道建业路151号[惠而特（中国）餐饮设备有限公司]"}},{"type":"Feature","geometry":{"type":"Point","coordinates":[120.216737,30.181234]},"properties":{"full_address":"浙江省杭州市滨江区漫寓公寓"}},{"type":"Feature","geometry":{"type":"Point","coordinates":[120.183616,30.190277]},"properties":{"full_address":"浙江省杭州市滨江区冠新佳苑小区"}},{"type":"Feature","geometry":{"type":"Point","coordinates":[120.215128,30.191446]},"properties":{"full_address":"浙江省杭州市滨江区春波小区"}},{"type":"Feature","geometry":{"type":"Point","coordinates":[120.183251,30.1493]},"properties":{"full_address":"浙江省杭州市滨江区白马湖和院"}},{"type":"Feature","geometry":{"type":"Point","coordinates":[120.186641,30.179382]},"properties":{"full_address":"浙江省杭州市滨江区长江小区"}},{"type":"Feature","geometry":{"type":"Point","coordinates":[119.712877,30.229058]},"properties":{"full_address":"浙江省杭州市临安区长江西苑小区"}},{"type":"Feature","geometry":{"type":"Point","coordinates":[120.194691,30.185255]},"properties":{"full_address":"浙江省杭州市滨江区华城和瑞科技园"}},{"type":"Feature","geometry":{"type":"Point","coordinates":[120.150933,30.161292]},"properties":{"full_address":"浙江省杭州市滨江区新浦苑"}},{"type":"Feature","geometry":{"type":"Point","coordinates":[119.923188,30.055636]},"properties":{"full_address":"浙江省杭州市富阳区润泽院"}},{"type":"Feature","geometry":{"type":"Point","coordinates":[119.936498,30.048248]},"properties":{"full_address":"浙江省杭州市富阳区富春街道桂花西路262号"}},{"type":"Feature","geometry":{"type":"Point","coordinates":[119.576365,30.016843]},"properties":{"full_address":"浙江省杭州市富阳区洞桥镇贤德村何村坞168号"}}]}