{"type":"FeatureCollection","features":[{"type":"Feature","geometry":{"type":"Point","coordinates":[127.476396,50.253352]},"properties":{"full_address":"黑龙江省黑河市爱辉区向阳社区水岸阳光小区9号楼"}},{"type":"Feature","geometry":{"type":"Point","coordinates":[127.497957,50.252053]},"properties":{"full_address":"黑龙江省黑河市爱辉区鹿源春社区金达之家小区中房49号楼"}},{"type":"Feature","geometry":{"type":"Point","coordinates":[127.529177,50.232449]},"properties":{"full_address":"黑龙江省黑河市爱辉区武庙屯社区之路佳苑小区4号楼"}},{"type":"Feature","geometry":{"type":"Point","coordinates":[114.119252,22.547019]},"properties":{"full_address":"广东省深圳市罗湖区东门街道新园路明华广场1至6楼（含6A与M层）商业区"}},{"type":"Feature","geometry":{"type":"Point","coordinates":[114.083756,22.625502]},"properties":{"full_address":"广东省深圳市龙岗区坂田街道马安堂社区侨联东10巷1号顺兴楼"}},{"type":"Feature","geometry":{"type":"Point","coordinates":[114.082577,22.624199]},"properties":{"full_address":"广东省深圳市龙岗区中兴路高时石材B区A钢构厂房"}},{"type":"Feature","geometry":{"type":"Point","coordinates":[106.615374,23.32345]},"properties":{"full_address":"广西壮族自治区百色市德保县维也纳国际酒店（德保腾飞广场店）"}},{"type":"Feature","geometry":{"type":"Point","coordinates":[106.491013,23.292151]},"properties":{"full_address":"广西壮族自治区百色市德保县都安乡福记村山金屯"}},{"type":"Feature","geometry":{"type":"Point","coordinates":[106.471022,23.335014]},"properties":{"full_address":"广西壮族自治区百色市德保县都安乡坡那村多麦屯"}},{"type":"Feature","geometry":{"type":"Point","coordinates":[106.61648,23.32016]},"properties":{"full_address":"广西壮族自治区百色市德保县城关镇隆盛社区盛象名都小区"}},{"type":"Feature","geometry":{"type":"Point","coordinates":[106.620404,23.320632]},"properties":{"full_address":"广西壮族自治区百色市德保县城关镇隆盛社区东蒙荣盛二巷25号"}},{"type":"Feature","geometry":{"type":"Point","coordinates":[106.606615,23.32394]},"properties":{"full_address":"广西壮族自治区百色市德保县莲城社区德立山庄"}},{"type":"Feature","geometry":{"type":"Point","coordinates":[106.38482,23.526014]},"properties":{"full_address":"广西壮族自治区百色市德保县东凌镇登限村念洞屯"}},{"type":"Feature","geometry":{"type":"Point","coordinates":[106.331328,23.477938]},"properties":{"full_address":"广西壮族自治区百色市德保县敬德镇陇正村多果屯"}},{"type":"Feature","geometry":{"type":"Point","coordinates":[106.428484,23.270124]},"properties":{"full_address":"广西壮族自治区百色市靖西市武平镇大道街大定屯"}},{"type":"Feature","geometry":{"type":"Point","coordinates":[106.396655,23.29751]},"properties":{"full_address":"广西壮族自治区百色市靖西市弄贴村新村屯"}},{"type":"Feature","geometry":{"type":"Point","coordinates":[120.344907,40.319465]},"properties":{"full_address":"辽宁省葫芦岛市绥中县绥中镇工人社区盛华园二期"}},{"type":"Feature","geometry":{"type":"Point","coordinates":[120.632712,30.90228]},"properties":{"full_address":"江苏省苏州市吴江区盛泽镇绿洲华庭小区41栋"}},{"type":"Feature","geometry":{"type":"Point","coordinates":[120.647442,31.130924]},"properties":{"full_address":"江苏省苏州市吴江区长安花园21幢"}},{"type":"Feature","geometry":{"type":"Point","coordinates":[120.662061,31.126891]},"properties":{"full_address":"江苏省苏州市吴江区长安路2358号吴江科技创业园"}},{"type":"Feature","geometry":{"type":"Point","coordinates":[120.660911,31.126684]},"properties":{"full_address":"江苏省苏州市吴江区江陵街道城南花苑2167幢"}},{"type":"Feature","geometry":{"type":"Point","coordinates":[120.671437,31.073208]},"properties":{"full_address":"江苏省苏州市吴江区八坼街道邮电街23号2幢"}},{"type":"Feature","geometry":{"type":"Point","coordinates":[120.682938,31.268953]},"properties":{"full_address":"江苏省苏州市吴中区郭巷街道独墅湖西金悦花园一期19幢"}},{"type":"Feature","geometry":{"type":"Point","coordinates":[120.53875,31.2645]},"properties":{"full_address":"江苏省苏州市吴中区木渎镇沈巷村47～69号"}},{"type":"Feature","geometry":{"type":"Point","coordinates":[120.604779,31.244523]},"properties":{"full_address":"江苏省苏州市吴中区世茂石湖湾花园二期273幢"}},{"type":"Feature","geometry":{"type":"Point","coordinates":[120.609011,31.2245]},"properties":{"full_address":"江苏省苏州市吴中区水岸清华97幢"}},{"type":"Feature","geometry":{"type":"Point","coordinates":[120.773603,31.220586]},"properties":{"full_address":"江苏省苏州市吴中区甪直镇长巨村下扒浜马娄里172号"}},{"type":"Feature","geometry":{"type":"Point","coordinates":[120.619536,31.274762]},"properties":{"full_address":"江苏省苏州市吴中区龙西新村（箭阙苑）40幢"}},{"type":"Feature","geometry":{"type":"Point","coordinates":[120.686858,31.246435]},"properties":{"full_address":"江苏省苏州市吴中区尹山湖景花园三期43幢"}},{"type":"Feature","geometry":{"type":"Point","coordinates":[120.641813,31.257383]},"properties":{"full_address":"江苏省苏州市吴中区碧水湾花园60幢"}},{"type":"Feature","geometry":{"type":"Point","coordinates":[120.676928,31.245189]},"properties":{"full_address":"江苏省苏州市吴中区碧堤半岛53幢"}},{"type":"Feature","geometry":{"type":"Point","coordinates":[120.712155,31.245729]},"properties":{"full_address":"江苏省苏州市吴中区郭巷街道建发独墅湾82幢"}},{"type":"Feature","geometry":{"type":"Point","coordinates":[120.706606,31.243308]},"properties":{"full_address":"江苏省苏州市吴中区郭巷街道双湾花园35幢"}},{"type":"Feature","geometry":{"type":"Point","coordinates":[120.682068,31.259025]},"properties":{"full_address":"江苏省苏州市吴中区郭巷街道国泰社区国泰一村105幢"}},{"type":"Feature","geometry":{"type":"Point","coordinates":[120.677285,31.281061]},"properties":{"full_address":"江苏省苏州市吴中区郭巷街道塘北社区124号"}},{"type":"Feature","geometry":{"type":"Point","coordinates":[120.60628,31.269901]},"properties":{"full_address":"江苏省苏州市姑苏区天辰花园小区18幢"}},{"type":"Feature","geometry":{"type":"Point","coordinates":[120.625337,31.283701]},"properties":{"full_address":"江苏省苏州市姑苏区大竹园3号楼"}},{"type":"Feature","geometry":{"type":"Point","coordinates":[120.643311,31.319917]},"properties":{"full_address":"江苏省苏州市姑苏区永林二区12幢"}},{"type":"Feature","geometry":{"type":"Point","coordinates":[120.605112,31.28787]},"properties":{"full_address":"江苏省苏州市姑苏区胥江路361号（东方苑）1幢"}},{"type":"Feature","geometry":{"type":"Point","coordinates":[120.607946,31.272768]},"properties":{"full_address":"江苏省苏州市姑苏区吴门桥街道长欣苑南区4幢"}},{"type":"Feature","geometry":{"type":"Point","coordinates":[120.634243,31.312018]},"properties":{"full_address":"江苏省苏州市姑苏区平江街道凤池弄5-2号楼"}},{"type":"Feature","geometry":{"type":"Point","coordinates":[120.731302,31.312094]},"properties":{"full_address":"江苏省苏州市吴中区工业园区东湖大郡花园二期22幢"}},{"type":"Feature","geometry":{"type":"Point","coordinates":[120.732199,31.317205]},"properties":{"full_address":"江苏省苏州市吴中区东城郡115幢"}},{"type":"Feature","geometry":{"type":"Point","coordinates":[120.738641,31.303093]},"properties":{"full_address":"江苏省苏州市吴中区斜塘老街12号"}},{"type":"Feature","geometry":{"type":"Point","coordinates":[120.769361,31.299177]},"properties":{"full_address":"江苏省苏州市吴中区澜溪苑18幢"}},{"type":"Feature","geometry":{"type":"Point","coordinates":[120.764776,31.306804]},"properties":{"full_address":"江苏省苏州市吴中区锦溪苑26幢"}},{"type":"Feature","geometry":{"type":"Point","coordinates":[120.765032,31.313869]},"properties":{"full_address":"江苏省苏州市吴中区京隆生活区"}},{"type":"Feature","geometry":{"type":"Point","coordinates":[120.820277,31.30221]},"properties":{"full_address":"江苏省苏州市吴中区星胜客11幢"}},{"type":"Feature","geometry":{"type":"Point","coordinates":[120.769118,31.30427]},"properties":{"full_address":"江苏省苏州市吴中区凤凰城49幢"}},{"type":"Feature","geometry":{"type":"Point","coordinates":[120.827333,31.333513]},"properties":{"full_address":"江苏省苏州市吴中区明日之星1幢"}},{"type":"Feature","geometry":{"type":"Point","coordinates":[120.737442,31.317069]},"properties":{"full_address":"江苏省苏州市吴中区湖畔天城花园16幢"}},{"type":"Feature","geometry":{"type":"Point","coordinates":[120.655193,31.300578]},"properties":{"full_address":"江苏省苏州市吴中区夏家桥118号9幢"}},{"type":"Feature","geometry":{"type":"Point","coordinates":[120.543474,31.863315]},"properties":{"full_address":"江苏省苏州市张家港市花语江南20幢"}},{"type":"Feature","geometry":{"type":"Point","coordinates":[120.724927,31.307636]},"properties":{"full_address":"江苏省苏州市吴中区南山·丽舍40幢"}},{"type":"Feature","geometry":{"type":"Point","coordinates":[120.798831,31.307847]},"properties":{"full_address":"江苏省苏州市吴中区阳浦路150号1幢"}},{"type":"Feature","geometry":{"type":"Point","coordinates":[120.772269,31.301162]},"properties":{"full_address":"江苏省苏州市吴中区文华公寓4号楼"}},{"type":"Feature","geometry":{"type":"Point","coordinates":[120.730928,31.330875]},"properties":{"full_address":"江苏省苏州市吴中区绿地·华尔道名邸小区"}},{"type":"Feature","geometry":{"type":"Point","coordinates":[120.761911,31.302289]},"properties":{"full_address":"江苏省苏州市吴中区锦溪苑5期4幢"}},{"type":"Feature","geometry":{"type":"Point","coordinates":[120.612036,31.39136]},"properties":{"full_address":"江苏省苏州市相城区苏州万科魅力花园3幢"}},{"type":"Feature","geometry":{"type":"Point","coordinates":[120.637113,31.337995]},"properties":{"full_address":"江苏省苏州市相城区官渡花园26幢"}},{"type":"Feature","geometry":{"type":"Point","coordinates":[120.611026,31.365436]},"properties":{"full_address":"江苏省苏州市相城区合景峰汇8期12幢"}},{"type":"Feature","geometry":{"type":"Point","coordinates":[120.557012,31.305504]},"properties":{"full_address":"江苏省苏州市虎丘区万宇名都花园5幢"}},{"type":"Feature","geometry":{"type":"Point","coordinates":[120.599763,31.514579]},"properties":{"full_address":"江苏省苏州市相城区北桥街道盛北花园45幢"}},{"type":"Feature","geometry":{"type":"Point","coordinates":[120.606073,31.496359]},"properties":{"full_address":"江苏省苏州市相城区北桥街道漕韵家园28幢"}},{"type":"Feature","geometry":{"type":"Point","coordinates":[120.777641,31.582919]},"properties":{"full_address":"江苏省苏州市常熟市紫晶城5幢"}},{"type":"Feature","geometry":{"type":"Point","coordinates":[120.820394,31.620383]},"properties":{"full_address":"江苏省苏州市常熟市中欧假日花园9幢"}},{"type":"Feature","geometry":{"type":"Point","coordinates":[120.637538,31.787646]},"properties":{"full_address":"江苏省苏州市张家港市凤凰镇金谷小区18、19幢"}},{"type":"Feature","geometry":{"type":"Point","coordinates":[120.568943,31.867417]},"properties":{"full_address":"江苏省苏州市张家港市杨舍镇君临新城6号楼"}},{"type":"Feature","geometry":{"type":"Point","coordinates":[120.63542,31.777703]},"properties":{"full_address":"江苏省苏州市张家港市凤凰镇双龙花园62幢"}},{"type":"Feature","geometry":{"type":"Point","coordinates":[120.572049,31.859833]},"properties":{"full_address":"江苏省苏州市张家港市杨舍镇民丰苑西区"}},{"type":"Feature","geometry":{"type":"Point","coordinates":[120.563941,31.84355]},"properties":{"full_address":"江苏省苏州市张家港市杨舍镇新农花苑25幢"}},{"type":"Feature","geometry":{"type":"Point","coordinates":[120.57909,31.853624]},"properties":{"full_address":"江苏省苏州市张家港市杨舍镇新航花苑18幢"}},{"type":"Feature","geometry":{"type":"Point","coordinates":[117.537741,49.580289]},"properties":{"full_address":"内蒙古自治区呼伦贝尔市满洲里市南区街道"}},{"type":"Feature","geometry":{"type":"Point","coordinates":[111.668289,40.856504]},"properties":{"full_address":"内蒙古自治区呼和浩特市新城区成吉思汗街道东河社区"}},{"type":"Feature","geometry":{"type":"Point","coordinates":[111.655903,40.865745]},"properties":{"full_address":"内蒙古自治区呼和浩特市新城区代洲营村"}},{"type":"Feature","geometry":{"type":"Point","coordinates":[111.74794,40.920707]},"properties":{"full_address":"内蒙古自治区呼和浩特市新城区哈拉更村"}},{"type":"Feature","geometry":{"type":"Point","coordinates":[111.682087,40.877234]},"properties":{"full_address":"内蒙古自治区呼和浩特市新城区上新营村"}},{"type":"Feature","geometry":{"type":"Point","coordinates":[111.684188,40.853474]},"properties":{"full_address":"内蒙古自治区呼和浩特市新城区苏雅拉社区"}},{"type":"Feature","geometry":{"type":"Point","coordinates":[111.704516,40.84414]},"properties":{"full_address":"内蒙古自治区呼和浩特市新城区东风路街道丽苑社区"}},{"type":"Feature","geometry":{"type":"Point","coordinates":[111.714515,40.838695]},"properties":{"full_address":"内蒙古自治区呼和浩特市新城区芳汀花园社区"}},{"type":"Feature","geometry":{"type":"Point","coordinates":[111.710304,40.840901]},"properties":{"full_address":"内蒙古自治区呼和浩特市新城区祥园社区"}},{"type":"Feature","geometry":{"type":"Point","coordinates":[111.709294,40.835767]},"properties":{"full_address":"内蒙古自治区呼和浩特市新城区东影北街社区"}},{"type":"Feature","geometry":{"type":"Point","coordinates":[111.686589,40.822857]},"properties":{"full_address":"内蒙古自治区呼和浩特市新城区西街街道西落凤社区"}},{"type":"Feature","geometry":{"type":"Point","coordinates":[111.652749,40.848787]},"properties":{"full_address":"内蒙古自治区呼和浩特市新城区海拉尔路街道府兴社区"}},{"type":"Feature","geometry":{"type":"Point","coordinates":[111.644745,40.803819]},"properties":{"full_address":"内蒙古自治区呼和浩特市回民区环河街街道县府街社区"}},{"type":"Feature","geometry":{"type":"Point","coordinates":[111.611943,40.825538]},"properties":{"full_address":"内蒙古自治区呼和浩特市回民区攸攸板镇攸攸板村"}},{"type":"Feature","geometry":{"type":"Point","coordinates":[111.376874,40.31455]},"properties":{"full_address":"内蒙古自治区呼和浩特市托克托县一间房村"}},{"type":"Feature","geometry":{"type":"Point","coordinates":[111.830233,40.861443]},"properties":{"full_address":"内蒙古自治区呼和浩特市赛罕区巴彦树贵社区"}},{"type":"Feature","geometry":{"type":"Point","coordinates":[111.545456,40.811158]},"properties":{"full_address":"内蒙古自治区呼和浩特市回民区东鹏子村"}},{"type":"Feature","geometry":{"type":"Point","coordinates":[111.620259,40.812884]},"properties":{"full_address":"内蒙古自治区呼和浩特市回民区钢铁路街道咱家社区"}},{"type":"Feature","geometry":{"type":"Point","coordinates":[111.673557,40.784284]},"properties":{"full_address":"内蒙古自治区呼和浩特市玉泉区兴隆巷街道四里营东社区"}},{"type":"Feature","geometry":{"type":"Point","coordinates":[111.617723,40.753108]},"properties":{"full_address":"内蒙古自治区呼和浩特市玉泉区小黑河镇祥和苑社区"}},{"type":"Feature","geometry":{"type":"Point","coordinates":[111.623604,40.762705]},"properties":{"full_address":"内蒙古自治区呼和浩特市玉泉区鑫盛社区"}},{"type":"Feature","geometry":{"type":"Point","coordinates":[111.676027,40.799583]},"properties":{"full_address":"内蒙古自治区呼和浩特市玉泉区石东路街道苁蓉社区"}},{"type":"Feature","geometry":{"type":"Point","coordinates":[111.671726,40.797209]},"properties":{"full_address":"内蒙古自治区呼和浩特市玉泉区迎春社区"}},{"type":"Feature","geometry":{"type":"Point","coordinates":[111.678508,40.793067]},"properties":{"full_address":"内蒙古自治区呼和浩特市玉泉区三里营东社区"}},{"type":"Feature","geometry":{"type":"Point","coordinates":[111.628127,40.795094]},"properties":{"full_address":"内蒙古自治区呼和浩特市回民区鄂尔多斯路街道蓝宇社区"}},{"type":"Feature","geometry":{"type":"Point","coordinates":[111.605643,40.789466]},"properties":{"full_address":"内蒙古自治区呼和浩特市玉泉区华宇社区"}},{"type":"Feature","geometry":{"type":"Point","coordinates":[111.651922,40.790117]},"properties":{"full_address":"内蒙古自治区呼和浩特市玉泉区长和廊街道菩提塔西社区"}},{"type":"Feature","geometry":{"type":"Point","coordinates":[111.735642,40.796151]},"properties":{"full_address":"内蒙古自治区呼和浩特市赛罕区昭乌达南路街道小台什社区"}},{"type":"Feature","geometry":{"type":"Point","coordinates":[111.460001,41.09621]},"properties":{"full_address":"内蒙古自治区呼和浩特市武川县锦绣社区"}},{"type":"Feature","geometry":{"type":"Point","coordinates":[111.677004,40.768652]},"properties":{"full_address":"内蒙古自治区呼和浩特市玉泉区万锦社区"}},{"type":"Feature","geometry":{"type":"Point","coordinates":[111.434867,40.738605]},"properties":{"full_address":"内蒙古自治区呼和浩特市土默特左旗敕勒川街道怡水园社区"}},{"type":"Feature","geometry":{"type":"Point","coordinates":[111.787644,40.830612]},"properties":{"full_address":"内蒙古自治区呼和浩特市赛罕区前不塔气"}},{"type":"Feature","geometry":{"type":"Point","coordinates":[111.76546,40.811704]},"properties":{"full_address":"内蒙古自治区呼和浩特市赛罕区香格里社区"}},{"type":"Feature","geometry":{"type":"Point","coordinates":[111.844242,40.899113]},"properties":{"full_address":"内蒙古自治区呼和浩特市赛罕区巴彦镇学苑社区"}},{"type":"Feature","geometry":{"type":"Point","coordinates":[111.725512,40.824324]},"properties":{"full_address":"内蒙古自治区呼和浩特市赛罕区中专路街道园艺所社区"}},{"type":"Feature","geometry":{"type":"Point","coordinates":[111.767071,40.85764]},"properties":{"full_address":"内蒙古自治区呼和浩特市新城区创业社区"}},{"type":"Feature","geometry":{"type":"Point","coordinates":[111.735581,40.831337]},"properties":{"full_address":"内蒙古自治区呼和浩特市赛罕区万达社区"}},{"type":"Feature","geometry":{"type":"Point","coordinates":[111.706432,40.829107]},"properties":{"full_address":"内蒙古自治区呼和浩特市赛罕区乌兰察布路街道长乐宫社区"}},{"type":"Feature","geometry":{"type":"Point","coordinates":[111.713255,40.830047]},"properties":{"full_address":"内蒙古自治区呼和浩特市赛罕区军区第三干休所社区"}},{"type":"Feature","geometry":{"type":"Point","coordinates":[111.702607,40.828683]},"properties":{"full_address":"内蒙古自治区呼和浩特市赛罕区武警社区"}},{"type":"Feature","geometry":{"type":"Point","coordinates":[111.709585,40.823343]},"properties":{"full_address":"内蒙古自治区呼和浩特市赛罕区先锋社区"}},{"type":"Feature","geometry":{"type":"Point","coordinates":[111.623499,40.746316]},"properties":{"full_address":"内蒙古自治区呼和浩特市玉泉区土左旗白庙子镇瓦房院新村"}},{"type":"Feature","geometry":{"type":"Point","coordinates":[111.589987,40.696379]},"properties":{"full_address":"内蒙古自治区呼和浩特市土默特左旗碱房村"}},{"type":"Feature","geometry":{"type":"Point","coordinates":[111.581331,40.679075]},"properties":{"full_address":"内蒙古自治区呼和浩特市土默特左旗东坝什村"}},{"type":"Feature","geometry":{"type":"Point","coordinates":[111.47375,40.761052]},"properties":{"full_address":"内蒙古自治区呼和浩特市土默特左旗敕勒川乳业开发区易购城"}},{"type":"Feature","geometry":{"type":"Point","coordinates":[111.720441,40.818151]},"properties":{"full_address":"内蒙古自治区呼和浩特市赛罕区金海街道金华社区"}},{"type":"Feature","geometry":{"type":"Point","coordinates":[111.562164,40.782977]},"properties":{"full_address":"内蒙古自治区呼和浩特市土默特左旗友谊馨居小区"}},{"type":"Feature","geometry":{"type":"Point","coordinates":[111.572055,40.788794]},"properties":{"full_address":"内蒙古自治区呼和浩特市土默特左旗台阁牧镇三间房村"}},{"type":"Feature","geometry":{"type":"Point","coordinates":[111.7921,40.47854]},"properties":{"full_address":"内蒙古自治区呼和浩特市和林格尔县和林县经济开发区第一农场"}},{"type":"Feature","geometry":{"type":"Point","coordinates":[111.465383,41.087858]},"properties":{"full_address":"内蒙古自治区呼和浩特市武川县可镇滨河社区"}},{"type":"Feature","geometry":{"type":"Point","coordinates":[111.308665,41.186564]},"properties":{"full_address":"内蒙古自治区呼和浩特市武川县上秃亥乡刘家村"}},{"type":"Feature","geometry":{"type":"Point","coordinates":[109.835468,40.658533]},"properties":{"full_address":"内蒙古自治区包头市昆都仑区阿尔丁街道熙华公寓"}},{"type":"Feature","geometry":{"type":"Point","coordinates":[109.803199,40.661107]},"properties":{"full_address":"内蒙古自治区包头市昆都仑区前进街道钢铁大街37号街坊"}},{"type":"Feature","geometry":{"type":"Point","coordinates":[109.807123,40.655069]},"properties":{"full_address":"内蒙古自治区包头市昆都仑区白云街道华丰园小区"}},{"type":"Feature","geometry":{"type":"Point","coordinates":[109.842412,40.649287]},"properties":{"full_address":"内蒙古自治区包头市昆都仑区市府东路街道恩和小区3区"}},{"type":"Feature","geometry":{"type":"Point","coordinates":[109.833067,40.663478]},"properties":{"full_address":"内蒙古自治区包头市昆都仑区阿尔丁街道佳园小区老干院"}},{"type":"Feature","geometry":{"type":"Point","coordinates":[109.844626,40.652896]},"properties":{"full_address":"内蒙古自治区包头市昆都仑区锡华世纪花园小区玫瑰苑"}},{"type":"Feature","geometry":{"type":"Point","coordinates":[111.39663,41.321062]},"properties":{"full_address":"内蒙古自治区包头市达尔罕茂明安联合旗达茂联合旗小文公乡腮林忽洞村"}},{"type":"Feature","geometry":{"type":"Point","coordinates":[104.955526,23.217932]},"properties":{"full_address":"云南省文山壮族苗族自治州文山市自治州麻栗坡县杨万乡哪都村委会达干村小组"}},{"type":"Feature","geometry":{"type":"Point","coordinates":[103.96027,22.508891]},"properties":{"full_address":"云南省红河哈尼族彝族自治州河口瑶族自治县河口县河口农场23队"}},{"type":"Feature","geometry":{"type":"Point","coordinates":[104.073953,30.524279]},"properties":{"full_address":"四川省成都市双流区高新区中和街道长城馨苑小区"}},{"type":"Feature","geometry":{"type":"Point","coordinates":[103.869829,30.688463]},"properties":{"full_address":"四川省成都市温江区公平街道佳兆业·丽晶公馆小区"}},{"type":"Feature","geometry":{"type":"Point","coordinates":[104.089404,30.695611]},"properties":{"full_address":"四川省成都市金牛区驷马桥街道沙河云景湾小区"}},{"type":"Feature","geometry":{"type":"Point","coordinates":[104.417289,30.848759]},"properties":{"full_address":"四川省成都市金堂县赵镇街道生态水城澜岸小区"}},{"type":"Feature","geometry":{"type":"Point","coordinates":[104.06829,30.514166]},"properties":{"full_address":"四川省成都市双流区天府新区华阳街道龙河社区凯华丽景小区"}},{"type":"Feature","geometry":{"type":"Point","coordinates":[104.053255,30.532628]},"properties":{"full_address":"四川省成都市双流区伏龙社区丽景苑小区"}}]}