{"type":"FeatureCollection","features":[{"type":"Feature","geometry":{"type":"Point","coordinates":[116.44265,39.86523]},"properties":{"province":"北京市","city":"丰台区","county":"方庄街道","community":"紫芳园一区7号楼","full_address":"北京市丰台区方庄街道紫芳园一区7号楼","info":""}},{"type":"Feature","geometry":{"type":"Point","coordinates":[117.267822,39.088341]},"properties":{"province":"天津市","city":"天津市","county":"河东区","community":"富民路街道雅仕嘉园18号楼","full_address":"天津市天津市河东区富民路街道雅仕嘉园18号楼","info":""}},{"type":"Feature","geometry":{"type":"Point","coordinates":[117.24463,39.18226]},"properties":{"province":"天津市","city":"天津市","county":"河北区","community":"建昌道街外环小区1号楼1门、2门、6门，4号楼1门","full_address":"天津市天津市河北区建昌道街外环小区1号楼1门、2门、6门，4号楼1门","info":""}},{"type":"Feature","geometry":{"type":"Point","coordinates":[117.236816,39.181171]},"properties":{"province":"天津市","city":"天津市","county":"河北区","community":"建昌道街新天时园20号楼83-85门","full_address":"天津市天津市河北区建昌道街新天时园20号楼83-85门","info":""}},{"type":"Feature","geometry":{"type":"Point","coordinates":[117.741409,39.032761]},"properties":{"province":"天津市","city":"天津市","county":"滨海新区","community":"新港街道启航嘉园7号楼","full_address":"天津市天津市滨海新区新港街道启航嘉园7号楼","info":""}},{"type":"Feature","geometry":{"type":"Point","coordinates":[117.676147,39.031612]},"properties":{"province":"天津市","city":"天津市","county":"滨海新区","community":"杭州道街道万科紫台一期10号楼","full_address":"天津市天津市滨海新区杭州道街道万科紫台一期10号楼","info":""}},{"type":"Feature","geometry":{"type":"Point","coordinates":[117.615074,38.985031]},"properties":{"province":"天津市","city":"天津市","county":"滨海新区","community":"新城镇梁锦西苑2号楼","full_address":"天津市天津市滨海新区新城镇梁锦西苑2号楼","info":""}},{"type":"Feature","geometry":{"type":"Point","coordinates":[116.741821,38.936295]},"properties":{"province":"天津市","city":"天津市","county":"静海区","community":"王口镇小瓦头村、大瓦头村和团结村","full_address":"天津市天津市静海区王口镇小瓦头村、大瓦头村和团结村","info":""}},{"type":"Feature","geometry":{"type":"Point","coordinates":[116.829399,38.859253]},"properties":{"province":"天津市","city":"天津市","county":"静海区","community":"子牙新城平祥园20号楼、舒香园16号楼、静馨园3号楼","full_address":"天津市天津市静海区子牙新城平祥园20号楼、舒香园16号楼、静馨园3号楼","info":""}},{"type":"Feature","geometry":{"type":"Point","coordinates":[116.93203,38.922012]},"properties":{"province":"天津市","city":"天津市","county":"静海区","community":"朝阳街道振农里南1号至11号和振农里北1号至22号平房区域","full_address":"天津市天津市静海区朝阳街道振农里南1号至11号和振农里北1号至22号平房区域","info":""}},{"type":"Feature","geometry":{"type":"Point","coordinates":[116.93717,38.9283]},"properties":{"province":"天津市","city":"天津市","county":"静海区","community":"朝阳街道上上佳园18号楼、长虹公寓A座、静海镇新湖公寓10号楼","full_address":"天津市天津市静海区朝阳街道上上佳园18号楼、长虹公寓A座、静海镇新湖公寓10号楼","info":""}},{"type":"Feature","geometry":{"type":"Point","coordinates":[116.742508,38.93322]},"properties":{"province":"天津市","city":"天津市","county":"静海区","community":"王口镇西岳庄村、东岳庄村、义和村、和平村、民主村、朱家村、北万营村及北茁头村","full_address":"天津市天津市静海区王口镇西岳庄村、东岳庄村、义和村、和平村、民主村、朱家村、北万营村及北茁头村","info":""}},{"type":"Feature","geometry":{"type":"Point","coordinates":[116.770271,38.979]},"properties":{"province":"天津市","city":"天津市","county":"静海区","community":"王口镇南茁头村","full_address":"天津市天津市静海区王口镇南茁头村","info":""}},{"type":"Feature","geometry":{"type":"Point","coordinates":[116.74926,38.947971]},"properties":{"province":"天津市","city":"天津市","county":"静海区","community":"王口镇段堤村","full_address":"天津市天津市静海区王口镇段堤村","info":""}},{"type":"Feature","geometry":{"type":"Point","coordinates":[116.750252,38.899651]},"properties":{"province":"天津市","city":"天津市","county":"静海区","community":"王口镇南万营村、郑庄村","full_address":"天津市天津市静海区王口镇南万营村、郑庄村","info":""}},{"type":"Feature","geometry":{"type":"Point","coordinates":[117.981148,40.197281]},"properties":{"province":"河北省","city":"唐山市","county":"遵化市","community":"文化路街道华远世纪小区108楼","full_address":"河北省唐山市遵化市文化路街道华远世纪小区108楼","info":""}},{"type":"Feature","geometry":{"type":"Point","coordinates":[119.710808,39.951073]},"properties":{"province":"河北省","city":"秦皇岛市","county":"海港区","community":"柳村二场行车公寓所在院区","full_address":"河北省秦皇岛市海港区柳村二场行车公寓所在院区","info":""}},{"type":"Feature","geometry":{"type":"Point","coordinates":[119.440254,39.928516]},"properties":{"province":"河北省","city":"秦皇岛市","county":"开发区","community":"西区深河家园（东区）","full_address":"河北省秦皇岛市开发区西区深河家园（东区）","info":""}},{"type":"Feature","geometry":{"type":"Point","coordinates":[115.281609,36.527443]},"properties":{"province":"河北省","city":"邯郸市","county":"馆陶县","community":"东龙街以南、东龙酒厂以北、新华路以东、山东冠县省域分界线以西区域","full_address":"河北省邯郸市馆陶县东龙街以南、东龙酒厂以北、新华路以东、山东冠县省域分界线以西区域","info":""}},{"type":"Feature","geometry":{"type":"Point","coordinates":[115.278618,36.541821]},"properties":{"province":"河北省","city":"邯郸市","county":"馆陶县","community":"九州华庭","full_address":"河北省邯郸市馆陶县九州华庭","info":""}},{"type":"Feature","geometry":{"type":"Point","coordinates":[115.32484,38.40556]},"properties":{"province":"河北省","city":"保定市","county":"安国市","community":"仁和嘉苑北区","full_address":"河北省保定市安国市仁和嘉苑北区","info":""}},{"type":"Feature","geometry":{"type":"Point","coordinates":[115.322197,38.403275]},"properties":{"province":"河北省","city":"保定市","county":"安国市","community":"喜洋洋包子铺（仁和嘉苑北门路北）","full_address":"河北省保定市安国市喜洋洋包子铺（仁和嘉苑北门路北）","info":""}},{"type":"Feature","geometry":{"type":"Point","coordinates":[115.33562,38.4295]},"properties":{"province":"河北省","city":"保定市","county":"安国市","community":"药都街道办事处果老路23号","full_address":"河北省保定市安国市药都街道办事处果老路23号","info":""}},{"type":"Feature","geometry":{"type":"Point","coordinates":[115.336694,38.429389]},"properties":{"province":"河北省","city":"保定市","county":"安国市","community":"药都街道办事处果老路4号","full_address":"河北省保定市安国市药都街道办事处果老路4号","info":""}},{"type":"Feature","geometry":{"type":"Point","coordinates":[115.342018,38.431]},"properties":{"province":"河北省","city":"保定市","county":"安国市","community":"药都街道办事处银河餐厅（保衡路）","full_address":"河北省保定市安国市药都街道办事处银河餐厅（保衡路）","info":""}},{"type":"Feature","geometry":{"type":"Point","coordinates":[115.334404,38.428802]},"properties":{"province":"河北省","city":"保定市","county":"安国市","community":"药都街道办事处八五大队附近菜市场","full_address":"河北省保定市安国市药都街道办事处八五大队附近菜市场","info":""}},{"type":"Feature","geometry":{"type":"Point","coordinates":[115.368423,38.428532]},"properties":{"province":"河北省","city":"保定市","county":"安国市","community":"药都街道办事处君悦快捷酒店（大文村店）","full_address":"河北省保定市安国市药都街道办事处君悦快捷酒店（大文村店）","info":""}},{"type":"Feature","geometry":{"type":"Point","coordinates":[115.32337,38.42961]},"properties":{"province":"河北省","city":"保定市","county":"安国市","community":"药都街道办事处观音堂村樱花路30号","full_address":"河北省保定市安国市药都街道办事处观音堂村樱花路30号","info":""}},{"type":"Feature","geometry":{"type":"Point","coordinates":[115.32003,38.412121]},"properties":{"province":"河北省","city":"保定市","county":"安国市","community":"药都街道办事处升级工程国贸酒店南楼","full_address":"河北省保定市安国市药都街道办事处升级工程国贸酒店南楼","info":""}},{"type":"Feature","geometry":{"type":"Point","coordinates":[115.34717,38.42592]},"properties":{"province":"河北省","city":"保定市","county":"安国市","community":"药都街道办事处升级工程胜利中街18号院北楼","full_address":"河北省保定市安国市药都街道办事处升级工程胜利中街18号院北楼","info":""}},{"type":"Feature","geometry":{"type":"Point","coordinates":[115.332169,38.422913]},"properties":{"province":"河北省","city":"保定市","county":"安国市","community":"药都街道办事处京海花园5-5","full_address":"河北省保定市安国市药都街道办事处京海花园5-5","info":""}},{"type":"Feature","geometry":{"type":"Point","coordinates":[115.33873,38.43025]},"properties":{"province":"河北省","city":"保定市","county":"安国市","community":"药都街道办事处纪念馆北路福源街8号","full_address":"河北省保定市安国市药都街道办事处纪念馆北路福源街8号","info":""}},{"type":"Feature","geometry":{"type":"Point","coordinates":[115.340767,38.419876]},"properties":{"province":"河北省","city":"保定市","county":"安国市","community":"祁州路街道办事处后传人拨面府（中石油南关加油站店）","full_address":"河北省保定市安国市祁州路街道办事处后传人拨面府（中石油南关加油站店）","info":""}},{"type":"Feature","geometry":{"type":"Point","coordinates":[115.279289,38.448582]},"properties":{"province":"河北省","city":"保定市","county":"安国市","community":"北段村乡瓦子里村南环西街16号","full_address":"河北省保定市安国市北段村乡瓦子里村南环西街16号","info":""}},{"type":"Feature","geometry":{"type":"Point","coordinates":[115.987999,39.26403]},"properties":{"province":"河北省","city":"保定市","county":"高碑店市","community":"新城镇北五里屯南村","full_address":"河北省保定市高碑店市新城镇北五里屯南村","info":""}},{"type":"Feature","geometry":{"type":"Point","coordinates":[115.98835,39.244522]},"properties":{"province":"河北省","city":"保定市","county":"高碑店市","community":"新城镇兰若金街","full_address":"河北省保定市高碑店市新城镇兰若金街","info":""}},{"type":"Feature","geometry":{"type":"Point","coordinates":[116.00618,39.272743]},"properties":{"province":"河北省","city":"保定市","county":"高碑店市","community":"新城镇泗堡村","full_address":"河北省保定市高碑店市新城镇泗堡村","info":""}},{"type":"Feature","geometry":{"type":"Point","coordinates":[115.870583,39.322372]},"properties":{"province":"河北省","city":"保定市","county":"高碑店市","community":"迎宾路民通巷1号武装部家属楼","full_address":"河北省保定市高碑店市迎宾路民通巷1号武装部家属楼","info":""}},{"type":"Feature","geometry":{"type":"Point","coordinates":[114.878339,40.820924]},"properties":{"province":"河北省","city":"张家口市","county":"桥西区","community":"北关街社区","full_address":"河北省张家口市桥西区北关街社区","info":""}},{"type":"Feature","geometry":{"type":"Point","coordinates":[114.876503,40.819398]},"properties":{"province":"河北省","city":"张家口市","county":"桥西区","community":"鼓楼西街社区","full_address":"河北省张家口市桥西区鼓楼西街社区","info":""}},{"type":"Feature","geometry":{"type":"Point","coordinates":[114.879494,40.819683]},"properties":{"province":"河北省","city":"张家口市","county":"桥西区","community":"武城街社区","full_address":"河北省张家口市桥西区武城街社区","info":""}},{"type":"Feature","geometry":{"type":"Point","coordinates":[115.09923,40.60845]},"properties":{"province":"河北省","city":"张家口市","county":"宣化区","community":"环保楼127号院","full_address":"河北省张家口市宣化区环保楼127号院","info":""}},{"type":"Feature","geometry":{"type":"Point","coordinates":[115.07029,40.61388]},"properties":{"province":"河北省","city":"张家口市","county":"宣化区","community":"秦垣鱼头世家（恒基店）","full_address":"河北省张家口市宣化区秦垣鱼头世家（恒基店）","info":""}},{"type":"Feature","geometry":{"type":"Point","coordinates":[115.06575,40.634174]},"properties":{"province":"河北省","city":"张家口市","county":"宣化区","community":"太阳城小区底商壹度超市和吕家菜馆","full_address":"河北省张家口市宣化区太阳城小区底商壹度超市和吕家菜馆","info":""}},{"type":"Feature","geometry":{"type":"Point","coordinates":[115.067841,40.615139]},"properties":{"province":"河北省","city":"张家口市","county":"宣化区","community":"恒基花园小区","full_address":"河北省张家口市宣化区恒基花园小区","info":""}},{"type":"Feature","geometry":{"type":"Point","coordinates":[115.068329,40.611164]},"properties":{"province":"河北省","city":"张家口市","county":"宣化区","community":"利民上院小区","full_address":"河北省张家口市宣化区利民上院小区","info":""}},{"type":"Feature","geometry":{"type":"Point","coordinates":[115.116463,40.595394]},"properties":{"province":"河北省","city":"张家口市","county":"宣化区","community":"侯家庙镇侯家庙村","full_address":"河北省张家口市宣化区侯家庙镇侯家庙村","info":""}},{"type":"Feature","geometry":{"type":"Point","coordinates":[115.066483,40.616772]},"properties":{"province":"河北省","city":"张家口市","county":"宣化区","community":"宣化科技职业学院西院区","full_address":"河北省张家口市宣化区宣化科技职业学院西院区","info":""}},{"type":"Feature","geometry":{"type":"Point","coordinates":[115.062645,40.592243]},"properties":{"province":"河北省","city":"张家口市","county":"宣化区","community":"南关街道（造纸厂社区、演武厅社区、车站街社区）","full_address":"河北省张家口市宣化区南关街道（造纸厂社区、演武厅社区、车站街社区）","info":""}},{"type":"Feature","geometry":{"type":"Point","coordinates":[115.10524,40.59528]},"properties":{"province":"河北省","city":"张家口市","county":"宣化区","community":"工业街街道（幸福街第一社区、平安路东社区、采掘社区）","full_address":"河北省张家口市宣化区工业街街道（幸福街第一社区、平安路东社区、采掘社区）","info":""}},{"type":"Feature","geometry":{"type":"Point","coordinates":[114.830704,40.804409]},"properties":{"province":"河北省","city":"张家口市","county":"万全区","community":"宣平堡乡水泉堡村（含泉水苑小区、碧桂园·森林海小区）","full_address":"河北省张家口市万全区宣平堡乡水泉堡村（含泉水苑小区、碧桂园·森林海小区）","info":""}},{"type":"Feature","geometry":{"type":"Point","coordinates":[114.804512,40.757725]},"properties":{"province":"河北省","city":"张家口市","county":"涿鹿县","community":"乐寿源食品张家口技术开发有限公司","full_address":"河北省张家口市涿鹿县乐寿源食品张家口技术开发有限公司","info":""}},{"type":"Feature","geometry":{"type":"Point","coordinates":[115.215363,40.383827]},"properties":{"province":"河北省","city":"张家口市","county":"涿鹿县","community":"优选宾馆及周边人民北街（轩辕中路以北、隆都路以南）","full_address":"河北省张家口市涿鹿县优选宾馆及周边人民北街（轩辕中路以北、隆都路以南）","info":""}},{"type":"Feature","geometry":{"type":"Point","coordinates":[115.210197,40.389721]},"properties":{"province":"河北省","city":"张家口市","county":"涿鹿县","community":"苑府路（合符大街以东、人民北街以西）","full_address":"河北省张家口市涿鹿县苑府路（合符大街以东、人民北街以西）","info":""}},{"type":"Feature","geometry":{"type":"Point","coordinates":[115.575691,40.787361]},"properties":{"province":"河北省","city":"张家口市","county":"赤城县","community":"龙关镇龙居家园小区及其底商","full_address":"河北省张家口市赤城县龙关镇龙居家园小区及其底商","info":""}},{"type":"Feature","geometry":{"type":"Point","coordinates":[115.83166,40.91295]},"properties":{"province":"河北省","city":"张家口市","county":"赤城县","community":"鼓楼后红光发屋方圆200米以内区域","full_address":"河北省张家口市赤城县鼓楼后红光发屋方圆200米以内区域","info":""}},{"type":"Feature","geometry":{"type":"Point","coordinates":[114.86834,40.76041]},"properties":{"province":"河北省","city":"张家口市","county":"经开区","community":"京润现代城一期","full_address":"河北省张家口市经开区京润现代城一期","info":""}},{"type":"Feature","geometry":{"type":"Point","coordinates":[115.928185,38.936321]},"properties":{"province":"河北省","city":"安新县","county":"安新县","community":"安新镇的小西街村片区","full_address":"河北省安新县安新县安新镇的小西街村片区","info":""}},{"type":"Feature","geometry":{"type":"Point","coordinates":[115.951599,38.803642]},"properties":{"province":"河北省","city":"安新县","county":"安新县","community":"刘李庄镇的大马庄村片区","full_address":"河北省安新县安新县刘李庄镇的大马庄村片区","info":""}},{"type":"Feature","geometry":{"type":"Point","coordinates":[112.600883,37.805511]},"properties":{"province":"山西省","city":"太原市","county":"小店区","community":"太原田和活鲜水产市场","full_address":"山西省太原市小店区太原田和活鲜水产市场","info":""}},{"type":"Feature","geometry":{"type":"Point","coordinates":[112.780228,38.090954]},"properties":{"province":"山西省","city":"太原市","county":"阳曲县","community":"东黄水镇大汉村","full_address":"山西省太原市阳曲县东黄水镇大汉村","info":""}},{"type":"Feature","geometry":{"type":"Point","coordinates":[112.71553,38.055023]},"properties":{"province":"山西省","city":"太原市","county":"阳曲县","community":"东黄水镇水泉沟村","full_address":"山西省太原市阳曲县东黄水镇水泉沟村","info":""}},{"type":"Feature","geometry":{"type":"Point","coordinates":[112.67292,38.05828]},"properties":{"province":"山西省","city":"太原市","county":"阳曲县","community":"山西合成生物产业生态园","full_address":"山西省太原市阳曲县山西合成生物产业生态园","info":""}},{"type":"Feature","geometry":{"type":"Point","coordinates":[112.701691,38.062378]},"properties":{"province":"山西省","city":"太原市","county":"阳曲县","community":"双阳路龙城晋府小区（1-4号楼除外）","full_address":"山西省太原市阳曲县双阳路龙城晋府小区（1-4号楼除外）","info":""}},{"type":"Feature","geometry":{"type":"Point","coordinates":[112.769379,38.067661]},"properties":{"province":"山西省","city":"太原市","county":"阳曲县","community":"东黄水镇西殿村","full_address":"山西省太原市阳曲县东黄水镇西殿村","info":""}},{"type":"Feature","geometry":{"type":"Point","coordinates":[112.78743,38.070553]},"properties":{"province":"山西省","city":"太原市","county":"阳曲县","community":"东黄水村","full_address":"山西省太原市阳曲县东黄水村","info":""}},{"type":"Feature","geometry":{"type":"Point","coordinates":[113.31897,40.054405]},"properties":{"province":"山西省","city":"大同市","county":"平城区","community":"西至御河西路、北至南环路、东至滨路西路、南至御河十号小区南沿所围的区域","full_address":"山西省大同市平城区西至御河西路、北至南环路、东至滨路西路、南至御河十号小区南沿所围的区域","info":""}},{"type":"Feature","geometry":{"type":"Point","coordinates":[113.219444,39.996403]},"properties":{"province":"山西省","city":"大同市","county":"平城区","community":"碧水云天御河湾小区","full_address":"山西省大同市平城区碧水云天御河湾小区","info":""}},{"type":"Feature","geometry":{"type":"Point","coordinates":[113.299728,40.050468]},"properties":{"province":"山西省","city":"大同市","county":"平城区","community":"东信国际（昌宁街以南）","full_address":"山西省大同市平城区东信国际（昌宁街以南）","info":""}},{"type":"Feature","geometry":{"type":"Point","coordinates":[113.269592,40.08387]},"properties":{"province":"山西省","city":"大同市","county":"平城区","community":"宏洋美都小区","full_address":"山西省大同市平城区宏洋美都小区","info":""}},{"type":"Feature","geometry":{"type":"Point","coordinates":[113.27459,40.0634]},"properties":{"province":"山西省","city":"大同市","county":"平城区","community":"同煤新苑A区","full_address":"山西省大同市平城区同煤新苑A区","info":""}},{"type":"Feature","geometry":{"type":"Point","coordinates":[113.354088,40.065582]},"properties":{"province":"山西省","city":"大同市","county":"平城区","community":"文慧东苑","full_address":"山西省大同市平城区文慧东苑","info":""}},{"type":"Feature","geometry":{"type":"Point","coordinates":[113.300697,40.105499]},"properties":{"province":"山西省","city":"大同市","county":"平城区","community":"物兴园小区","full_address":"山西省大同市平城区物兴园小区","info":""}},{"type":"Feature","geometry":{"type":"Point","coordinates":[113.301933,40.120422]},"properties":{"province":"山西省","city":"大同市","county":"平城区","community":"南至操场城街、东至北苑路和站东大街、西至西苑路和北环路、北面和东北面至铁路线的合围区域（不包括大同火车站及站前广场）","full_address":"山西省大同市平城区南至操场城街、东至北苑路和站东大街、西至西苑路和北环路、北面和东北面至铁路线的合围区域（不包括大同火车站及站前广场）","info":""}},{"type":"Feature","geometry":{"type":"Point","coordinates":[113.292905,40.05241]},"properties":{"province":"山西省","city":"大同市","county":"平城区","community":"东信广场10号楼","full_address":"山西省大同市平城区东信广场10号楼","info":""}},{"type":"Feature","geometry":{"type":"Point","coordinates":[113.296849,40.060682]},"properties":{"province":"山西省","city":"大同市","county":"平城区","community":"馨泰花园59号楼","full_address":"山西省大同市平城区馨泰花园59号楼","info":""}},{"type":"Feature","geometry":{"type":"Point","coordinates":[113.305297,40.066457]},"properties":{"province":"山西省","city":"大同市","county":"平城区","community":"阳光绿岛小区2号楼","full_address":"山西省大同市平城区阳光绿岛小区2号楼","info":""}},{"type":"Feature","geometry":{"type":"Point","coordinates":[113.310959,40.075798]},"properties":{"province":"山西省","city":"大同市","county":"平城区","community":"中铁十七局西环路跨桥工地宿舍","full_address":"山西省大同市平城区中铁十七局西环路跨桥工地宿舍","info":""}},{"type":"Feature","geometry":{"type":"Point","coordinates":[113.29264,40.06089]},"properties":{"province":"山西省","city":"大同市","county":"平城区","community":"富临宝城11号楼","full_address":"山西省大同市平城区富临宝城11号楼","info":""}},{"type":"Feature","geometry":{"type":"Point","coordinates":[113.305496,40.060083]},"properties":{"province":"山西省","city":"大同市","county":"平城区","community":"柳港园A区19号楼","full_address":"山西省大同市平城区柳港园A区19号楼","info":""}},{"type":"Feature","geometry":{"type":"Point","coordinates":[113.280067,40.071602]},"properties":{"province":"山西省","city":"大同市","county":"平城区","community":"丰庆园63号楼","full_address":"山西省大同市平城区丰庆园63号楼","info":""}},{"type":"Feature","geometry":{"type":"Point","coordinates":[113.301918,40.099888]},"properties":{"province":"山西省","city":"大同市","county":"平城区","community":"吉家窑陶瓷艺术馆（武定街）","full_address":"山西省大同市平城区吉家窑陶瓷艺术馆（武定街）","info":""}},{"type":"Feature","geometry":{"type":"Point","coordinates":[113.269188,40.083488]},"properties":{"province":"山西省","city":"大同市","county":"平城区","community":"潘家园及在建工地","full_address":"山西省大同市平城区潘家园及在建工地","info":""}},{"type":"Feature","geometry":{"type":"Point","coordinates":[113.299728,40.050468]},"properties":{"province":"山西省","city":"大同市","county":"平城区","community":"东信国际土产街","full_address":"山西省大同市平城区东信国际土产街","info":""}},{"type":"Feature","geometry":{"type":"Point","coordinates":[113.288078,40.100101]},"properties":{"province":"山西省","city":"大同市","county":"平城区","community":"四医院家属楼小区1号楼","full_address":"山西省大同市平城区四医院家属楼小区1号楼","info":""}},{"type":"Feature","geometry":{"type":"Point","coordinates":[113.29284,40.062889]},"properties":{"province":"山西省","city":"大同市","county":"平城区","community":"云波里小区4号楼","full_address":"山西省大同市平城区云波里小区4号楼","info":""}},{"type":"Feature","geometry":{"type":"Point","coordinates":[113.301025,40.055607]},"properties":{"province":"山西省","city":"大同市","county":"平城区","community":"化纤厂小区2号楼","full_address":"山西省大同市平城区化纤厂小区2号楼","info":""}},{"type":"Feature","geometry":{"type":"Point","coordinates":[113.3197,40.06809]},"properties":{"province":"山西省","city":"大同市","county":"平城区","community":"御锦源北区12号公寓所在楼栋","full_address":"山西省大同市平城区御锦源北区12号公寓所在楼栋","info":""}},{"type":"Feature","geometry":{"type":"Point","coordinates":[113.287231,40.10223]},"properties":{"province":"山西省","city":"大同市","county":"平城区","community":"东花园里小区14号楼","full_address":"山西省大同市平城区东花园里小区14号楼","info":""}},{"type":"Feature","geometry":{"type":"Point","coordinates":[113.287384,40.060352]},"properties":{"province":"山西省","city":"大同市","county":"平城区","community":"芙蓉苑小区2号楼","full_address":"山西省大同市平城区芙蓉苑小区2号楼","info":""}},{"type":"Feature","geometry":{"type":"Point","coordinates":[113.285439,40.101875]},"properties":{"province":"山西省","city":"大同市","county":"平城区","community":"清远街供热小区7号楼及小区门房","full_address":"山西省大同市平城区清远街供热小区7号楼及小区门房","info":""}},{"type":"Feature","geometry":{"type":"Point","coordinates":[113.282593,40.104149]},"properties":{"province":"山西省","city":"大同市","county":"平城区","community":"云中路雨水提升泵站（新乐苑小区南边）","full_address":"山西省大同市平城区云中路雨水提升泵站（新乐苑小区南边）","info":""}},{"type":"Feature","geometry":{"type":"Point","coordinates":[113.28405,40.065319]},"properties":{"province":"山西省","city":"大同市","county":"平城区","community":"兴周里小区","full_address":"山西省大同市平城区兴周里小区","info":""}},{"type":"Feature","geometry":{"type":"Point","coordinates":[113.2919,40.05238]},"properties":{"province":"山西省","city":"大同市","county":"平城区","community":"东信广场5号楼","full_address":"山西省大同市平城区东信广场5号楼","info":""}},{"type":"Feature","geometry":{"type":"Point","coordinates":[113.28404,40.10599]},"properties":{"province":"山西省","city":"大同市","county":"平城区","community":"路通苑2号楼","full_address":"山西省大同市平城区路通苑2号楼","info":""}},{"type":"Feature","geometry":{"type":"Point","coordinates":[113.283669,40.104733]},"properties":{"province":"山西省","city":"大同市","county":"平城区","community":"上第小区1号楼","full_address":"山西省大同市平城区上第小区1号楼","info":""}},{"type":"Feature","geometry":{"type":"Point","coordinates":[113.27848,40.05744]},"properties":{"province":"山西省","city":"大同市","county":"平城区","community":"魏都新城B区（23号楼、40号楼、42号楼）","full_address":"山西省大同市平城区魏都新城B区（23号楼、40号楼、42号楼）","info":""}},{"type":"Feature","geometry":{"type":"Point","coordinates":[113.301216,40.019615]},"properties":{"province":"山西省","city":"大同市","county":"平城区","community":"马军营村扩大至马军营村及平城二中（马军营中学）","full_address":"山西省大同市平城区马军营村扩大至马军营村及平城二中（马军营中学）","info":""}},{"type":"Feature","geometry":{"type":"Point","coordinates":[113.2826,40.079483]},"properties":{"province":"山西省","city":"大同市","county":"平城区","community":"绿园小区1号院24号楼","full_address":"山西省大同市平城区绿园小区1号院24号楼","info":""}},{"type":"Feature","geometry":{"type":"Point","coordinates":[113.24202,40.09118]},"properties":{"province":"山西省","city":"大同市","county":"平城区","community":"绿园小区3号院22号楼","full_address":"山西省大同市平城区绿园小区3号院22号楼","info":""}},{"type":"Feature","geometry":{"type":"Point","coordinates":[113.283852,40.046291]},"properties":{"province":"山西省","city":"大同市","county":"平城区","community":"福盛园（E区6号楼、G区1号楼、G区6号楼、G区８号楼、G区10号楼）","full_address":"山西省大同市平城区福盛园（E区6号楼、G区1号楼、G区6号楼、G区８号楼、G区10号楼）","info":""}},{"type":"Feature","geometry":{"type":"Point","coordinates":[113.280067,40.071602]},"properties":{"province":"山西省","city":"大同市","county":"平城区","community":"丰庆园小区B6","full_address":"山西省大同市平城区丰庆园小区B6","info":""}},{"type":"Feature","geometry":{"type":"Point","coordinates":[113.2824,40.10033]},"properties":{"province":"山西省","city":"大同市","county":"平城区","community":"龙港苑小区（1号楼、5号楼、6号楼、10号楼）","full_address":"山西省大同市平城区龙港苑小区（1号楼、5号楼、6号楼、10号楼）","info":""}},{"type":"Feature","geometry":{"type":"Point","coordinates":[113.286911,40.075691]},"properties":{"province":"山西省","city":"大同市","county":"平城区","community":"大同市第三人民医院内科住院楼。","full_address":"山西省大同市平城区大同市第三人民医院内科住院楼。","info":""}},{"type":"Feature","geometry":{"type":"Point","coordinates":[113.287117,40.100052]},"properties":{"province":"山西省","city":"大同市","county":"平城区","community":"苹果园小区22号楼","full_address":"山西省大同市平城区苹果园小区22号楼","info":""}},{"type":"Feature","geometry":{"type":"Point","coordinates":[113.27861,40.091278]},"properties":{"province":"山西省","city":"大同市","county":"平城区","community":"同泉里解危解困小区1号楼","full_address":"山西省大同市平城区同泉里解危解困小区1号楼","info":""}},{"type":"Feature","geometry":{"type":"Point","coordinates":[113.2771,40.05636]},"properties":{"province":"山西省","city":"大同市","county":"平城区","community":"魏都新城B区45号楼","full_address":"山西省大同市平城区魏都新城B区45号楼","info":""}},{"type":"Feature","geometry":{"type":"Point","coordinates":[113.277863,40.100082]},"properties":{"province":"山西省","city":"大同市","county":"平城区","community":"运输三公司家属院1号楼","full_address":"山西省大同市平城区运输三公司家属院1号楼","info":""}},{"type":"Feature","geometry":{"type":"Point","coordinates":[113.235718,40.048351]},"properties":{"province":"山西省","city":"大同市","county":"云冈区","community":"杨园北区","full_address":"山西省大同市云冈区杨园北区","info":""}},{"type":"Feature","geometry":{"type":"Point","coordinates":[113.096199,40.127338]},"properties":{"province":"山西省","city":"大同市","county":"云冈区","community":"云冈矿（十三矿）","full_address":"山西省大同市云冈区云冈矿（十三矿）","info":""}},{"type":"Feature","geometry":{"type":"Point","coordinates":[113.219353,39.998249]},"properties":{"province":"山西省","city":"大同市","county":"云冈区","community":"同地景园A区","full_address":"山西省大同市云冈区同地景园A区","info":""}},{"type":"Feature","geometry":{"type":"Point","coordinates":[113.167084,40.02523]},"properties":{"province":"山西省","city":"大同市","county":"云冈区","community":"瑞旺园小区","full_address":"山西省大同市云冈区瑞旺园小区","info":""}},{"type":"Feature","geometry":{"type":"Point","coordinates":[113.215111,39.994831]},"properties":{"province":"山西省","city":"大同市","county":"云冈区","community":"泰兴里小区","full_address":"山西省大同市云冈区泰兴里小区","info":""}},{"type":"Feature","geometry":{"type":"Point","coordinates":[113.228396,40.003732]},"properties":{"province":"山西省","city":"大同市","county":"云冈区","community":"恒安新区T区","full_address":"山西省大同市云冈区恒安新区T区","info":""}},{"type":"Feature","geometry":{"type":"Point","coordinates":[113.186859,40.040833]},"properties":{"province":"山西省","city":"大同市","county":"云冈区","community":"平易街小区","full_address":"山西省大同市云冈区平易街小区","info":""}},{"type":"Feature","geometry":{"type":"Point","coordinates":[113.179543,40.017429]},"properties":{"province":"山西省","city":"大同市","county":"云冈区","community":"博茂小区","full_address":"山西省大同市云冈区博茂小区","info":""}},{"type":"Feature","geometry":{"type":"Point","coordinates":[113.304207,40.05344]},"properties":{"province":"山西省","city":"大同市","county":"云冈区","community":"宏盛家园小区","full_address":"山西省大同市云冈区宏盛家园小区","info":""}},{"type":"Feature","geometry":{"type":"Point","coordinates":[113.217102,39.995621]},"properties":{"province":"山西省","city":"大同市","county":"云冈区","community":"同地景园D区","full_address":"山西省大同市云冈区同地景园D区","info":""}},{"type":"Feature","geometry":{"type":"Point","coordinates":[113.224481,39.99771]},"properties":{"province":"山西省","city":"大同市","county":"云冈区","community":"恒安新区V区32号楼","full_address":"山西省大同市云冈区恒安新区V区32号楼","info":""}},{"type":"Feature","geometry":{"type":"Point","coordinates":[113.468712,39.997322]},"properties":{"province":"山西省","city":"大同市","county":"云州区","community":"欣和园小区","full_address":"山西省大同市云州区欣和园小区","info":""}},{"type":"Feature","geometry":{"type":"Point","coordinates":[113.437477,39.996319]},"properties":{"province":"山西省","city":"大同市","county":"云州区","community":"湖东电力机务段及周边商超","full_address":"山西省大同市云州区湖东电力机务段及周边商超","info":""}},{"type":"Feature","geometry":{"type":"Point","coordinates":[113.480423,39.99894]},"properties":{"province":"山西省","city":"大同市","county":"云州区","community":"广盛原中医药有限公司（湖东站北面）","full_address":"山西省大同市云州区广盛原中医药有限公司（湖东站北面）","info":""}},{"type":"Feature","geometry":{"type":"Point","coordinates":[113.402573,40.061516]},"properties":{"province":"山西省","city":"大同市","county":"云州区","community":"樊庄家园小区","full_address":"山西省大同市云州区樊庄家园小区","info":""}},{"type":"Feature","geometry":{"type":"Point","coordinates":[113.460899,40.069252]},"properties":{"province":"山西省","city":"大同市","county":"云州区","community":"倍加造镇独树村","full_address":"山西省大同市云州区倍加造镇独树村","info":""}},{"type":"Feature","geometry":{"type":"Point","coordinates":[113.197655,39.562412]},"properties":{"province":"山西省","city":"朔州市","county":"应县","community":"园丁小区","full_address":"山西省朔州市应县园丁小区","info":""}},{"type":"Feature","geometry":{"type":"Point","coordinates":[113.192245,39.561718]},"properties":{"province":"山西省","city":"朔州市","county":"应县","community":"应百超市","full_address":"山西省朔州市应县应百超市","info":""}},{"type":"Feature","geometry":{"type":"Point","coordinates":[113.194778,39.56617]},"properties":{"province":"山西省","city":"朔州市","county":"应县","community":"东北角村东北坛二栋四、五、六排","full_address":"山西省朔州市应县东北角村东北坛二栋四、五、六排","info":""}},{"type":"Feature","geometry":{"type":"Point","coordinates":[113.115372,39.810051]},"properties":{"province":"山西省","city":"朔州市","county":"怀仁市","community":"云中街道办事处七中苑小区","full_address":"山西省朔州市怀仁市云中街道办事处七中苑小区","info":""}},{"type":"Feature","geometry":{"type":"Point","coordinates":[113.106133,39.803093]},"properties":{"province":"山西省","city":"朔州市","county":"怀仁市","community":"云中街道办事处明鑫苑小区","full_address":"山西省朔州市怀仁市云中街道办事处明鑫苑小区","info":""}},{"type":"Feature","geometry":{"type":"Point","coordinates":[113.110764,39.816772]},"properties":{"province":"山西省","city":"朔州市","county":"怀仁市","community":"云中街道办事处怀安苑小区","full_address":"山西省朔州市怀仁市云中街道办事处怀安苑小区","info":""}},{"type":"Feature","geometry":{"type":"Point","coordinates":[113.113625,39.811142]},"properties":{"province":"山西省","city":"朔州市","county":"怀仁市","community":"云中街道办事处芦山花园小区","full_address":"山西省朔州市怀仁市云中街道办事处芦山花园小区","info":""}},{"type":"Feature","geometry":{"type":"Point","coordinates":[113.098633,39.803131]},"properties":{"province":"山西省","city":"朔州市","county":"怀仁市","community":"云中街道办事处南鑫园二区","full_address":"山西省朔州市怀仁市云中街道办事处南鑫园二区","info":""}},{"type":"Feature","geometry":{"type":"Point","coordinates":[113.111626,39.803532]},"properties":{"province":"山西省","city":"朔州市","county":"怀仁市","community":"云中街道办事处邮政家属楼小区2号楼","full_address":"山西省朔州市怀仁市云中街道办事处邮政家属楼小区2号楼","info":""}},{"type":"Feature","geometry":{"type":"Point","coordinates":[113.127251,39.814671]},"properties":{"province":"山西省","city":"朔州市","county":"怀仁市","community":"云中街道办事处财地福邸小区","full_address":"山西省朔州市怀仁市云中街道办事处财地福邸小区","info":""}},{"type":"Feature","geometry":{"type":"Point","coordinates":[113.107536,39.809738]},"properties":{"province":"山西省","city":"朔州市","county":"怀仁市","community":"云中街道办事处康乐西区六小对第五排小二楼、第六排小二楼、第七排小二楼（东至康乐路，西至四化南路八排及新华东街南九巷平房居民区）","full_address":"山西省朔州市怀仁市云中街道办事处康乐西区六小对第五排小二楼、第六排小二楼、第七排小二楼（东至康乐路，西至四化南路八排及新华东街南九巷平房居民区）","info":""}},{"type":"Feature","geometry":{"type":"Point","coordinates":[113.11338,39.810463]},"properties":{"province":"山西省","city":"朔州市","county":"怀仁市","community":"芦山花园西怀河街六栋二排四号小二楼（北至怀善街，南至怀河路南六栋五排，东至与怀河路南七栋相邻巷道中线，西至与怀河路南五栋相邻巷道中线）","full_address":"山西省朔州市怀仁市芦山花园西怀河街六栋二排四号小二楼（北至怀善街，南至怀河路南六栋五排，东至与怀河路南七栋相邻巷道中线，西至与怀河路南五栋相邻巷道中线）","info":""}},{"type":"Feature","geometry":{"type":"Point","coordinates":[113.108932,39.816799]},"properties":{"province":"山西省","city":"朔州市","county":"怀仁市","community":"怀仁市人民医院","full_address":"山西省朔州市怀仁市怀仁市人民医院","info":""}},{"type":"Feature","geometry":{"type":"Point","coordinates":[113.116699,39.803261]},"properties":{"province":"山西省","city":"朔州市","county":"怀仁市","community":"云中街道办事处云东嘉园小区","full_address":"山西省朔州市怀仁市云中街道办事处云东嘉园小区","info":""}},{"type":"Feature","geometry":{"type":"Point","coordinates":[113.09919,39.811531]},"properties":{"province":"山西省","city":"朔州市","county":"怀仁市","community":"云中街道办事处云馨花园小区","full_address":"山西省朔州市怀仁市云中街道办事处云馨花园小区","info":""}},{"type":"Feature","geometry":{"type":"Point","coordinates":[113.092133,39.811203]},"properties":{"province":"山西省","city":"朔州市","county":"怀仁市","community":"云西街道办事处七小南小二楼居民片区（北至七小南一栋一排，南至七小南一栋八排，东至七小南一栋与仁里路西侧联排商铺后墙相邻巷道，西至七小路南二栋西边。）","full_address":"山西省朔州市怀仁市云西街道办事处七小南小二楼居民片区（北至七小南一栋一排，南至七小南一栋八排，东至七小南一栋与仁里路西侧联排商铺后墙相邻巷道，西至七小路南二栋西边。）","info":""}},{"type":"Feature","geometry":{"type":"Point","coordinates":[113.096794,39.815201]},"properties":{"province":"山西省","city":"朔州市","county":"怀仁市","community":"云西街道办事处星期八快捷酒店（北至春兰诊所，南至春芽幼儿园，东至仁里南路，西至煤运家属园）","full_address":"山西省朔州市怀仁市云西街道办事处星期八快捷酒店（北至春兰诊所，南至春芽幼儿园，东至仁里南路，西至煤运家属园）","info":""}},{"type":"Feature","geometry":{"type":"Point","coordinates":[113.095604,39.814938]},"properties":{"province":"山西省","city":"朔州市","county":"怀仁市","community":"云中街道办事处旧公安局小区（北至农机家属院，南至旧农业局平房家属区及旧大修厂家属院棚改区，东至旧三小院小区，西至仁里北路）","full_address":"山西省朔州市怀仁市云中街道办事处旧公安局小区（北至农机家属院，南至旧农业局平房家属区及旧大修厂家属院棚改区，东至旧三小院小区，西至仁里北路）","info":""}},{"type":"Feature","geometry":{"type":"Point","coordinates":[113.11985,39.804039]},"properties":{"province":"山西省","city":"朔州市","county":"怀仁市","community":"云中街道办事处沁和园小区","full_address":"山西省朔州市怀仁市云中街道办事处沁和园小区","info":""}},{"type":"Feature","geometry":{"type":"Point","coordinates":[113.145302,39.823971]},"properties":{"province":"山西省","city":"朔州市","county":"怀仁市","community":"云东街道办事处同仁家园幸福里A区","full_address":"山西省朔州市怀仁市云东街道办事处同仁家园幸福里A区","info":""}},{"type":"Feature","geometry":{"type":"Point","coordinates":[113.091751,39.821621]},"properties":{"province":"山西省","city":"朔州市","county":"怀仁市","community":"云西街道办事处仁福家园小区","full_address":"山西省朔州市怀仁市云西街道办事处仁福家园小区","info":""}},{"type":"Feature","geometry":{"type":"Point","coordinates":[113.10012,39.82788]},"properties":{"province":"山西省","city":"朔州市","county":"怀仁市","community":"云西街道办事处怀仁市供水保障中心（自来水公司）","full_address":"山西省朔州市怀仁市云西街道办事处怀仁市供水保障中心（自来水公司）","info":""}},{"type":"Feature","geometry":{"type":"Point","coordinates":[113.098083,39.816692]},"properties":{"province":"山西省","city":"朔州市","county":"怀仁市","community":"云西街道办事处二道坡南十二巷居民区（北至二道坡南八栋十八排，南至旧化肥厂宿舍楼，东至二道坡南十一巷，西至二道坡南十三巷）","full_address":"山西省朔州市怀仁市云西街道办事处二道坡南十二巷居民区（北至二道坡南八栋十八排，南至旧化肥厂宿舍楼，东至二道坡南十一巷，西至二道坡南十三巷）","info":""}},{"type":"Feature","geometry":{"type":"Point","coordinates":[113.111626,39.803532]},"properties":{"province":"山西省","city":"朔州市","county":"怀仁市","community":"云中街道办事处农行巷旧城关镇开发楼3号楼院（北至迎宾西街南二巷8（联排小二楼），南至旧城关镇开发楼4号楼院，东至保险公司家属院围墙，西至农行巷。）","full_address":"山西省朔州市怀仁市云中街道办事处农行巷旧城关镇开发楼3号楼院（北至迎宾西街南二巷8（联排小二楼），南至旧城关镇开发楼4号楼院，东至保险公司家属院围墙，西至农行巷。）","info":""}},{"type":"Feature","geometry":{"type":"Point","coordinates":[110.97713,35.086644]},"properties":{"province":"山西省","city":"运城市","county":"盐湖区","community":"盛世陶苑小区","full_address":"山西省运城市盐湖区盛世陶苑小区","info":""}},{"type":"Feature","geometry":{"type":"Point","coordinates":[110.989134,35.083359]},"properties":{"province":"山西省","city":"运城市","county":"盐湖区","community":"吕儒村","full_address":"山西省运城市盐湖区吕儒村","info":""}},{"type":"Feature","geometry":{"type":"Point","coordinates":[110.980598,35.0952]},"properties":{"province":"山西省","city":"运城市","county":"盐湖区","community":"陶上村","full_address":"山西省运城市盐湖区陶上村","info":""}},{"type":"Feature","geometry":{"type":"Point","coordinates":[111.004189,35.09161]},"properties":{"province":"山西省","city":"运城市","county":"盐湖区","community":"姚孟办壕头村中巷","full_address":"山西省运城市盐湖区姚孟办壕头村中巷","info":""}},{"type":"Feature","geometry":{"type":"Point","coordinates":[111.003891,35.04549]},"properties":{"province":"山西省","city":"运城市","county":"盐湖区","community":"北城办事处原王庄村富源路冯府公寓","full_address":"山西省运城市盐湖区北城办事处原王庄村富源路冯府公寓","info":""}},{"type":"Feature","geometry":{"type":"Point","coordinates":[111.037102,35.031643]},"properties":{"province":"山西省","city":"运城市","county":"盐湖区","community":"天泰·金水湾8号楼1单元","full_address":"山西省运城市盐湖区天泰·金水湾8号楼1单元","info":""}},{"type":"Feature","geometry":{"type":"Point","coordinates":[110.995071,35.008972]},"properties":{"province":"山西省","city":"运城市","county":"盐湖区","community":"南城办事处泰山巷西五巷","full_address":"山西省运城市盐湖区南城办事处泰山巷西五巷","info":""}},{"type":"Feature","geometry":{"type":"Point","coordinates":[111.029388,34.976044]},"properties":{"province":"山西省","city":"运城市","county":"盐湖区","community":"国澳电梯毅身减肥基地宿舍楼","full_address":"山西省运城市盐湖区国澳电梯毅身减肥基地宿舍楼","info":""}},{"type":"Feature","geometry":{"type":"Point","coordinates":[111.01902,35.033257]},"properties":{"province":"山西省","city":"运城市","county":"盐湖区","community":"槐东路逸夫小学家属院五排","full_address":"山西省运城市盐湖区槐东路逸夫小学家属院五排","info":""}},{"type":"Feature","geometry":{"type":"Point","coordinates":[110.9784,35.03644]},"properties":{"province":"山西省","city":"运城市","county":"盐湖区","community":"北城街道干河新村学生公寓（河东一中初中部门口）","full_address":"山西省运城市盐湖区北城街道干河新村学生公寓（河东一中初中部门口）","info":""}},{"type":"Feature","geometry":{"type":"Point","coordinates":[111.0307,35.07981]},"properties":{"province":"山西省","city":"运城市","county":"盐湖区","community":"安邑街道大市北村三组东二巷","full_address":"山西省运城市盐湖区安邑街道大市北村三组东二巷","info":""}},{"type":"Feature","geometry":{"type":"Point","coordinates":[110.975143,35.02396]},"properties":{"province":"山西省","city":"运城市","county":"盐湖区","community":"圣惠绿城1号楼4单元","full_address":"山西省运城市盐湖区圣惠绿城1号楼4单元","info":""}},{"type":"Feature","geometry":{"type":"Point","coordinates":[111.037102,35.031643]},"properties":{"province":"山西省","city":"运城市","county":"盐湖区","community":"天泰·金水湾小区4号楼2单元","full_address":"山西省运城市盐湖区天泰·金水湾小区4号楼2单元","info":""}},{"type":"Feature","geometry":{"type":"Point","coordinates":[110.9828,35.05314]},"properties":{"province":"山西省","city":"运城市","county":"盐湖区","community":"富康小区北六巷幸福公寓","full_address":"山西省运城市盐湖区富康小区北六巷幸福公寓","info":""}},{"type":"Feature","geometry":{"type":"Point","coordinates":[111.03878,35.06509]},"properties":{"province":"山西省","city":"运城市","county":"盐湖区","community":"安邑办下王村一组和三组（西后巷）","full_address":"山西省运城市盐湖区安邑办下王村一组和三组（西后巷）","info":""}},{"type":"Feature","geometry":{"type":"Point","coordinates":[111.458702,36.125141]},"properties":{"province":"山西省","city":"临汾市","county":"尧都区","community":"刘村镇刘北村","full_address":"山西省临汾市尧都区刘村镇刘北村","info":""}},{"type":"Feature","geometry":{"type":"Point","coordinates":[111.726573,40.869745]},"properties":{"province":"内蒙古自治区","city":"呼和浩特市","county":"新城区","community":"泽信加州公馆","full_address":"内蒙古自治区呼和浩特市新城区泽信加州公馆","info":""}},{"type":"Feature","geometry":{"type":"Point","coordinates":[111.671054,40.865354]},"properties":{"province":"内蒙古自治区","city":"呼和浩特市","county":"新城区","community":"毓秀国际公馆","full_address":"内蒙古自治区呼和浩特市新城区毓秀国际公馆","info":""}},{"type":"Feature","geometry":{"type":"Point","coordinates":[111.665544,40.858289]},"properties":{"province":"内蒙古自治区","city":"呼和浩特市","county":"新城区","community":"岱洲营村","full_address":"内蒙古自治区呼和浩特市新城区岱洲营村","info":""}},{"type":"Feature","geometry":{"type":"Point","coordinates":[111.648715,40.887607]},"properties":{"province":"内蒙古自治区","city":"呼和浩特市","county":"新城区","community":"红山口村","full_address":"内蒙古自治区呼和浩特市新城区红山口村","info":""}},{"type":"Feature","geometry":{"type":"Point","coordinates":[111.709,40.911068]},"properties":{"province":"内蒙古自治区","city":"呼和浩特市","county":"新城区","community":"哈拉沁村","full_address":"内蒙古自治区呼和浩特市新城区哈拉沁村","info":""}},{"type":"Feature","geometry":{"type":"Point","coordinates":[111.736283,40.847133]},"properties":{"province":"内蒙古自治区","city":"呼和浩特市","county":"新城区","community":"首府观邸小区","full_address":"内蒙古自治区呼和浩特市新城区首府观邸小区","info":""}},{"type":"Feature","geometry":{"type":"Point","coordinates":[111.689656,40.870711]},"properties":{"province":"内蒙古自治区","city":"呼和浩特市","county":"新城区","community":"盛世名筑小区","full_address":"内蒙古自治区呼和浩特市新城区盛世名筑小区","info":""}},{"type":"Feature","geometry":{"type":"Point","coordinates":[111.729585,40.855758]},"properties":{"province":"内蒙古自治区","city":"呼和浩特市","county":"新城区","community":"巨华世纪城和谐园","full_address":"内蒙古自治区呼和浩特市新城区巨华世纪城和谐园","info":""}},{"type":"Feature","geometry":{"type":"Point","coordinates":[111.648732,40.854551]},"properties":{"province":"内蒙古自治区","city":"呼和浩特市","county":"新城区","community":"蒙鑫国际小区","full_address":"内蒙古自治区呼和浩特市新城区蒙鑫国际小区","info":""}},{"type":"Feature","geometry":{"type":"Point","coordinates":[111.704005,40.852051]},"properties":{"province":"内蒙古自治区","city":"呼和浩特市","county":"新城区","community":"筑福城小区","full_address":"内蒙古自治区呼和浩特市新城区筑福城小区","info":""}},{"type":"Feature","geometry":{"type":"Point","coordinates":[111.777658,40.866358]},"properties":{"province":"内蒙古自治区","city":"呼和浩特市","county":"新城区","community":"塔利新村小区","full_address":"内蒙古自治区呼和浩特市新城区塔利新村小区","info":""}},{"type":"Feature","geometry":{"type":"Point","coordinates":[111.74794,40.920707]},"properties":{"province":"内蒙古自治区","city":"呼和浩特市","county":"新城区","community":"哈拉更新村","full_address":"内蒙古自治区呼和浩特市新城区哈拉更新村","info":""}},{"type":"Feature","geometry":{"type":"Point","coordinates":[111.729669,40.84103]},"properties":{"province":"内蒙古自治区","city":"呼和浩特市","county":"新城区","community":"新春路民生小区","full_address":"内蒙古自治区呼和浩特市新城区新春路民生小区","info":""}},{"type":"Feature","geometry":{"type":"Point","coordinates":[111.82218,40.928887]},"properties":{"province":"内蒙古自治区","city":"呼和浩特市","county":"新城区","community":"姚家湾村","full_address":"内蒙古自治区呼和浩特市新城区姚家湾村","info":""}},{"type":"Feature","geometry":{"type":"Point","coordinates":[111.682721,40.871352]},"properties":{"province":"内蒙古自治区","city":"呼和浩特市","county":"新城区","community":"下新营村","full_address":"内蒙古自治区呼和浩特市新城区下新营村","info":""}},{"type":"Feature","geometry":{"type":"Point","coordinates":[111.690808,40.821677]},"properties":{"province":"内蒙古自治区","city":"呼和浩特市","county":"新城区","community":"水云间小区","full_address":"内蒙古自治区呼和浩特市新城区水云间小区","info":""}},{"type":"Feature","geometry":{"type":"Point","coordinates":[111.761678,40.880129]},"properties":{"province":"内蒙古自治区","city":"呼和浩特市","county":"新城区","community":"沙梁村","full_address":"内蒙古自治区呼和浩特市新城区沙梁村","info":""}},{"type":"Feature","geometry":{"type":"Point","coordinates":[111.647371,40.860318]},"properties":{"province":"内蒙古自治区","city":"呼和浩特市","county":"新城区","community":"天赐良缘小区","full_address":"内蒙古自治区呼和浩特市新城区天赐良缘小区","info":""}},{"type":"Feature","geometry":{"type":"Point","coordinates":[111.704512,40.863174]},"properties":{"province":"内蒙古自治区","city":"呼和浩特市","county":"新城区","community":"集通佳苑小区","full_address":"内蒙古自治区呼和浩特市新城区集通佳苑小区","info":""}},{"type":"Feature","geometry":{"type":"Point","coordinates":[111.705344,40.835051]},"properties":{"province":"内蒙古自治区","city":"呼和浩特市","county":"新城区","community":"光华街光华小学宿舍楼","full_address":"内蒙古自治区呼和浩特市新城区光华街光华小学宿舍楼","info":""}},{"type":"Feature","geometry":{"type":"Point","coordinates":[111.69338,40.86879]},"properties":{"province":"内蒙古自治区","city":"呼和浩特市","county":"新城区","community":"聚泽园小区","full_address":"内蒙古自治区呼和浩特市新城区聚泽园小区","info":""}},{"type":"Feature","geometry":{"type":"Point","coordinates":[111.704251,40.846551]},"properties":{"province":"内蒙古自治区","city":"呼和浩特市","county":"新城区","community":"塞外安居新城小区(西区)","full_address":"内蒙古自治区呼和浩特市新城区塞外安居新城小区(西区)","info":""}},{"type":"Feature","geometry":{"type":"Point","coordinates":[111.67399,40.851577]},"properties":{"province":"内蒙古自治区","city":"呼和浩特市","county":"新城区","community":"呼和佳地小区","full_address":"内蒙古自治区呼和浩特市新城区呼和佳地小区","info":""}},{"type":"Feature","geometry":{"type":"Point","coordinates":[111.679528,40.868584]},"properties":{"province":"内蒙古自治区","city":"呼和浩特市","county":"新城区","community":"铁木真小区","full_address":"内蒙古自治区呼和浩特市新城区铁木真小区","info":""}},{"type":"Feature","geometry":{"type":"Point","coordinates":[111.702308,40.859846]},"properties":{"province":"内蒙古自治区","city":"呼和浩特市","county":"新城区","community":"蔚蓝家园B区小区","full_address":"内蒙古自治区呼和浩特市新城区蔚蓝家园B区小区","info":""}},{"type":"Feature","geometry":{"type":"Point","coordinates":[111.719674,40.865088]},"properties":{"province":"内蒙古自治区","city":"呼和浩特市","county":"新城区","community":"玺园小区","full_address":"内蒙古自治区呼和浩特市新城区玺园小区","info":""}},{"type":"Feature","geometry":{"type":"Point","coordinates":[111.664293,40.842415]},"properties":{"province":"内蒙古自治区","city":"呼和浩特市","county":"新城区","community":"团校家属楼","full_address":"内蒙古自治区呼和浩特市新城区团校家属楼","info":""}},{"type":"Feature","geometry":{"type":"Point","coordinates":[111.6873,40.840569]},"properties":{"province":"内蒙古自治区","city":"呼和浩特市","county":"新城区","community":"怡园小区","full_address":"内蒙古自治区呼和浩特市新城区怡园小区","info":""}},{"type":"Feature","geometry":{"type":"Point","coordinates":[111.723037,40.839484]},"properties":{"province":"内蒙古自治区","city":"呼和浩特市","county":"新城区","community":"团结小区","full_address":"内蒙古自治区呼和浩特市新城区团结小区","info":""}},{"type":"Feature","geometry":{"type":"Point","coordinates":[111.689987,40.867099]},"properties":{"province":"内蒙古自治区","city":"呼和浩特市","county":"新城区","community":"科宇世纪苑","full_address":"内蒙古自治区呼和浩特市新城区科宇世纪苑","info":""}},{"type":"Feature","geometry":{"type":"Point","coordinates":[111.700256,40.875109]},"properties":{"province":"内蒙古自治区","city":"呼和浩特市","county":"新城区","community":"沁丰园小区","full_address":"内蒙古自治区呼和浩特市新城区沁丰园小区","info":""}},{"type":"Feature","geometry":{"type":"Point","coordinates":[111.71757,40.848254]},"properties":{"province":"内蒙古自治区","city":"呼和浩特市","county":"新城区","community":"人和小区","full_address":"内蒙古自治区呼和浩特市新城区人和小区","info":""}},{"type":"Feature","geometry":{"type":"Point","coordinates":[111.694502,40.868709]},"properties":{"province":"内蒙古自治区","city":"呼和浩特市","county":"新城区","community":"盛世国际","full_address":"内蒙古自治区呼和浩特市新城区盛世国际","info":""}},{"type":"Feature","geometry":{"type":"Point","coordinates":[111.79025,40.854317]},"properties":{"province":"内蒙古自治区","city":"呼和浩特市","county":"新城区","community":"机场北辅路锦绣园1期","full_address":"内蒙古自治区呼和浩特市新城区机场北辅路锦绣园1期","info":""}},{"type":"Feature","geometry":{"type":"Point","coordinates":[111.693635,40.873542]},"properties":{"province":"内蒙古自治区","city":"呼和浩特市","county":"新城区","community":"新城家园锦园","full_address":"内蒙古自治区呼和浩特市新城区新城家园锦园","info":""}},{"type":"Feature","geometry":{"type":"Point","coordinates":[111.705434,40.835415]},"properties":{"province":"内蒙古自治区","city":"呼和浩特市","county":"新城区","community":"星光北巷教育局宿舍","full_address":"内蒙古自治区呼和浩特市新城区星光北巷教育局宿舍","info":""}},{"type":"Feature","geometry":{"type":"Point","coordinates":[111.648999,40.868047]},"properties":{"province":"内蒙古自治区","city":"呼和浩特市","county":"新城区","community":"岱洲营世纪丽景小区","full_address":"内蒙古自治区呼和浩特市新城区岱洲营世纪丽景小区","info":""}},{"type":"Feature","geometry":{"type":"Point","coordinates":[111.699339,40.861951]},"properties":{"province":"内蒙古自治区","city":"呼和浩特市","county":"新城区","community":"北国风光天建城","full_address":"内蒙古自治区呼和浩特市新城区北国风光天建城","info":""}},{"type":"Feature","geometry":{"type":"Point","coordinates":[111.712433,40.848068]},"properties":{"province":"内蒙古自治区","city":"呼和浩特市","county":"新城区","community":"中华家园Ⅰ期","full_address":"内蒙古自治区呼和浩特市新城区中华家园Ⅰ期","info":""}},{"type":"Feature","geometry":{"type":"Point","coordinates":[111.714555,40.847853]},"properties":{"province":"内蒙古自治区","city":"呼和浩特市","county":"新城区","community":"中华家园Ⅱ期","full_address":"内蒙古自治区呼和浩特市新城区中华家园Ⅱ期","info":""}},{"type":"Feature","geometry":{"type":"Point","coordinates":[111.710463,40.851079]},"properties":{"province":"内蒙古自治区","city":"呼和浩特市","county":"新城区","community":"名都枫景小区","full_address":"内蒙古自治区呼和浩特市新城区名都枫景小区","info":""}},{"type":"Feature","geometry":{"type":"Point","coordinates":[111.705434,40.843517]},"properties":{"province":"内蒙古自治区","city":"呼和浩特市","county":"新城区","community":"家和小区","full_address":"内蒙古自治区呼和浩特市新城区家和小区","info":""}},{"type":"Feature","geometry":{"type":"Point","coordinates":[111.72237,40.855249]},"properties":{"province":"内蒙古自治区","city":"呼和浩特市","county":"新城区","community":"恒大城","full_address":"内蒙古自治区呼和浩特市新城区恒大城","info":""}},{"type":"Feature","geometry":{"type":"Point","coordinates":[111.68841,40.842953]},"properties":{"province":"内蒙古自治区","city":"呼和浩特市","county":"新城区","community":"长城住宅小区","full_address":"内蒙古自治区呼和浩特市新城区长城住宅小区","info":""}},{"type":"Feature","geometry":{"type":"Point","coordinates":[111.724485,40.867509]},"properties":{"province":"内蒙古自治区","city":"呼和浩特市","county":"新城区","community":"玫瑰郡","full_address":"内蒙古自治区呼和浩特市新城区玫瑰郡","info":""}},{"type":"Feature","geometry":{"type":"Point","coordinates":[111.685156,40.864095]},"properties":{"province":"内蒙古自治区","city":"呼和浩特市","county":"新城区","community":"山水小区","full_address":"内蒙古自治区呼和浩特市新城区山水小区","info":""}},{"type":"Feature","geometry":{"type":"Point","coordinates":[111.728144,40.866727]},"properties":{"province":"内蒙古自治区","city":"呼和浩特市","county":"新城区","community":"松江城水晶阁","full_address":"内蒙古自治区呼和浩特市新城区松江城水晶阁","info":""}},{"type":"Feature","geometry":{"type":"Point","coordinates":[111.74794,40.920707]},"properties":{"province":"内蒙古自治区","city":"呼和浩特市","county":"新城区","community":"哈拉更村","full_address":"内蒙古自治区呼和浩特市新城区哈拉更村","info":""}},{"type":"Feature","geometry":{"type":"Point","coordinates":[111.726331,40.845042]},"properties":{"province":"内蒙古自治区","city":"呼和浩特市","county":"新城区","community":"巨华世纪城明祥园","full_address":"内蒙古自治区呼和浩特市新城区巨华世纪城明祥园","info":""}},{"type":"Feature","geometry":{"type":"Point","coordinates":[111.718282,40.842689]},"properties":{"province":"内蒙古自治区","city":"呼和浩特市","county":"新城区","community":"幸福小区","full_address":"内蒙古自治区呼和浩特市新城区幸福小区","info":""}},{"type":"Feature","geometry":{"type":"Point","coordinates":[111.703619,40.860256]},"properties":{"province":"内蒙古自治区","city":"呼和浩特市","county":"新城区","community":"华侨新村","full_address":"内蒙古自治区呼和浩特市新城区华侨新村","info":""}},{"type":"Feature","geometry":{"type":"Point","coordinates":[111.724113,40.864479]},"properties":{"province":"内蒙古自治区","city":"呼和浩特市","county":"新城区","community":"上东墅小区","full_address":"内蒙古自治区呼和浩特市新城区上东墅小区","info":""}},{"type":"Feature","geometry":{"type":"Point","coordinates":[111.676433,40.865973]},"properties":{"province":"内蒙古自治区","city":"呼和浩特市","county":"新城区","community":"北辰新领地","full_address":"内蒙古自治区呼和浩特市新城区北辰新领地","info":""}},{"type":"Feature","geometry":{"type":"Point","coordinates":[111.685521,40.871143]},"properties":{"province":"内蒙古自治区","city":"呼和浩特市","county":"新城区","community":"新康家园","full_address":"内蒙古自治区呼和浩特市新城区新康家园","info":""}},{"type":"Feature","geometry":{"type":"Point","coordinates":[111.725082,40.85947]},"properties":{"province":"内蒙古自治区","city":"呼和浩特市","county":"新城区","community":"青山水恋小区","full_address":"内蒙古自治区呼和浩特市新城区青山水恋小区","info":""}},{"type":"Feature","geometry":{"type":"Point","coordinates":[111.738847,40.881689]},"properties":{"province":"内蒙古自治区","city":"呼和浩特市","county":"新城区","community":"塞外康居","full_address":"内蒙古自治区呼和浩特市新城区塞外康居","info":""}},{"type":"Feature","geometry":{"type":"Point","coordinates":[111.686403,40.861166]},"properties":{"province":"内蒙古自治区","city":"呼和浩特市","county":"新城区","community":"巨华亲亲尚城","full_address":"内蒙古自治区呼和浩特市新城区巨华亲亲尚城","info":""}},{"type":"Feature","geometry":{"type":"Point","coordinates":[111.814734,40.91341]},"properties":{"province":"内蒙古自治区","city":"呼和浩特市","county":"新城区","community":"讨思浩村","full_address":"内蒙古自治区呼和浩特市新城区讨思浩村","info":""}},{"type":"Feature","geometry":{"type":"Point","coordinates":[111.712724,40.865357]},"properties":{"province":"内蒙古自治区","city":"呼和浩特市","county":"新城区","community":"泽信加州华府","full_address":"内蒙古自治区呼和浩特市新城区泽信加州华府","info":""}},{"type":"Feature","geometry":{"type":"Point","coordinates":[111.710674,40.846319]},"properties":{"province":"内蒙古自治区","city":"呼和浩特市","county":"新城区","community":"新舒园","full_address":"内蒙古自治区呼和浩特市新城区新舒园","info":""}},{"type":"Feature","geometry":{"type":"Point","coordinates":[111.696943,40.876725]},"properties":{"province":"内蒙古自治区","city":"呼和浩特市","county":"新城区","community":"教师家园","full_address":"内蒙古自治区呼和浩特市新城区教师家园","info":""}},{"type":"Feature","geometry":{"type":"Point","coordinates":[111.686348,40.856823]},"properties":{"province":"内蒙古自治区","city":"呼和浩特市","county":"新城区","community":"阳光诺卡2期","full_address":"内蒙古自治区呼和浩特市新城区阳光诺卡2期","info":""}},{"type":"Feature","geometry":{"type":"Point","coordinates":[111.715891,40.856643]},"properties":{"province":"内蒙古自治区","city":"呼和浩特市","county":"新城区","community":"福欣小区","full_address":"内蒙古自治区呼和浩特市新城区福欣小区","info":""}},{"type":"Feature","geometry":{"type":"Point","coordinates":[111.651141,40.861126]},"properties":{"province":"内蒙古自治区","city":"呼和浩特市","county":"新城区","community":"毫沁营村回迁小区","full_address":"内蒙古自治区呼和浩特市新城区毫沁营村回迁小区","info":""}},{"type":"Feature","geometry":{"type":"Point","coordinates":[111.667986,40.858958]},"properties":{"province":"内蒙古自治区","city":"呼和浩特市","county":"新城区","community":"赛马场铁路小区","full_address":"内蒙古自治区呼和浩特市新城区赛马场铁路小区","info":""}},{"type":"Feature","geometry":{"type":"Point","coordinates":[111.688008,40.880563]},"properties":{"province":"内蒙古自治区","city":"呼和浩特市","county":"新城区","community":"新苑小区","full_address":"内蒙古自治区呼和浩特市新城区新苑小区","info":""}},{"type":"Feature","geometry":{"type":"Point","coordinates":[111.682087,40.877234]},"properties":{"province":"内蒙古自治区","city":"呼和浩特市","county":"新城区","community":"上新营村","full_address":"内蒙古自治区呼和浩特市新城区上新营村","info":""}},{"type":"Feature","geometry":{"type":"Point","coordinates":[111.655706,40.858271]},"properties":{"province":"内蒙古自治区","city":"呼和浩特市","county":"新城区","community":"左右城小区(左城)","full_address":"内蒙古自治区呼和浩特市新城区左右城小区(左城)","info":""}},{"type":"Feature","geometry":{"type":"Point","coordinates":[111.709692,40.868699]},"properties":{"province":"内蒙古自治区","city":"呼和浩特市","county":"新城区","community":"毫沁营小区(南区、北区、裕仑小区)","full_address":"内蒙古自治区呼和浩特市新城区毫沁营小区(南区、北区、裕仑小区)","info":""}},{"type":"Feature","geometry":{"type":"Point","coordinates":[111.69321,40.869957]},"properties":{"province":"内蒙古自治区","city":"呼和浩特市","county":"新城区","community":"新城家园小区(泽园)","full_address":"内蒙古自治区呼和浩特市新城区新城家园小区(泽园)","info":""}},{"type":"Feature","geometry":{"type":"Point","coordinates":[111.711295,40.868831]},"properties":{"province":"内蒙古自治区","city":"呼和浩特市","county":"新城区","community":"毫沁营村平房区","full_address":"内蒙古自治区呼和浩特市新城区毫沁营村平房区","info":""}},{"type":"Feature","geometry":{"type":"Point","coordinates":[111.677311,40.843729]},"properties":{"province":"内蒙古自治区","city":"呼和浩特市","county":"新城区","community":"呼和巷3号小区","full_address":"内蒙古自治区呼和浩特市新城区呼和巷3号小区","info":""}},{"type":"Feature","geometry":{"type":"Point","coordinates":[111.662913,40.832904]},"properties":{"province":"内蒙古自治区","city":"呼和浩特市","county":"新城区","community":"道北2小区","full_address":"内蒙古自治区呼和浩特市新城区道北2小区","info":""}},{"type":"Feature","geometry":{"type":"Point","coordinates":[111.70165,40.888458]},"properties":{"province":"内蒙古自治区","city":"呼和浩特市","county":"新城区","community":"毫沁营镇三卜树村","full_address":"内蒙古自治区呼和浩特市新城区毫沁营镇三卜树村","info":""}},{"type":"Feature","geometry":{"type":"Point","coordinates":[111.728828,40.832161]},"properties":{"province":"内蒙古自治区","city":"呼和浩特市","county":"新城区","community":"商贸学校综合楼","full_address":"内蒙古自治区呼和浩特市新城区商贸学校综合楼","info":""}},{"type":"Feature","geometry":{"type":"Point","coordinates":[111.724229,40.850551]},"properties":{"province":"内蒙古自治区","city":"呼和浩特市","county":"新城区","community":"丁香路华阳源小区","full_address":"内蒙古自治区呼和浩特市新城区丁香路华阳源小区","info":""}},{"type":"Feature","geometry":{"type":"Point","coordinates":[111.782209,40.868004]},"properties":{"province":"内蒙古自治区","city":"呼和浩特市","county":"新城区","community":"塔利公租房17号楼","full_address":"内蒙古自治区呼和浩特市新城区塔利公租房17号楼","info":""}},{"type":"Feature","geometry":{"type":"Point","coordinates":[111.676137,40.872955]},"properties":{"province":"内蒙古自治区","city":"呼和浩特市","county":"新城区","community":"御景城A区A2","full_address":"内蒙古自治区呼和浩特市新城区御景城A区A2","info":""}},{"type":"Feature","geometry":{"type":"Point","coordinates":[111.684813,40.842969]},"properties":{"province":"内蒙古自治区","city":"呼和浩特市","county":"新城区","community":"公安厅小区11号楼","full_address":"内蒙古自治区呼和浩特市新城区公安厅小区11号楼","info":""}},{"type":"Feature","geometry":{"type":"Point","coordinates":[111.743841,40.848911]},"properties":{"province":"内蒙古自治区","city":"呼和浩特市","county":"新城区","community":"一家村地铁站北面兴泰东河湾三期工地","full_address":"内蒙古自治区呼和浩特市新城区一家村地铁站北面兴泰东河湾三期工地","info":""}},{"type":"Feature","geometry":{"type":"Point","coordinates":[111.663418,40.836784]},"properties":{"province":"内蒙古自治区","city":"呼和浩特市","county":"新城区","community":"气象局招待所","full_address":"内蒙古自治区呼和浩特市新城区气象局招待所","info":""}},{"type":"Feature","geometry":{"type":"Point","coordinates":[111.67946,40.839396]},"properties":{"province":"内蒙古自治区","city":"呼和浩特市","county":"新城区","community":"凤凰新城小区12号楼","full_address":"内蒙古自治区呼和浩特市新城区凤凰新城小区12号楼","info":""}},{"type":"Feature","geometry":{"type":"Point","coordinates":[111.654446,40.846995]},"properties":{"province":"内蒙古自治区","city":"呼和浩特市","county":"新城区","community":"天府花园22号楼","full_address":"内蒙古自治区呼和浩特市新城区天府花园22号楼","info":""}},{"type":"Feature","geometry":{"type":"Point","coordinates":[111.717373,40.837107]},"properties":{"province":"内蒙古自治区","city":"呼和浩特市","county":"新城区","community":"预制厂小区5号楼","full_address":"内蒙古自治区呼和浩特市新城区预制厂小区5号楼","info":""}},{"type":"Feature","geometry":{"type":"Point","coordinates":[111.702313,40.83979]},"properties":{"province":"内蒙古自治区","city":"呼和浩特市","county":"新城区","community":"鼎盛华府小区","full_address":"内蒙古自治区呼和浩特市新城区鼎盛华府小区","info":""}},{"type":"Feature","geometry":{"type":"Point","coordinates":[111.65358,40.829342]},"properties":{"province":"内蒙古自治区","city":"呼和浩特市","county":"新城区","community":"石油小区1号楼","full_address":"内蒙古自治区呼和浩特市新城区石油小区1号楼","info":""}},{"type":"Feature","geometry":{"type":"Point","coordinates":[111.65975,40.833719]},"properties":{"province":"内蒙古自治区","city":"呼和浩特市","county":"新城区","community":"道北5小区工程5号楼","full_address":"内蒙古自治区呼和浩特市新城区道北5小区工程5号楼","info":""}},{"type":"Feature","geometry":{"type":"Point","coordinates":[111.65184,40.85525]},"properties":{"province":"内蒙古自治区","city":"呼和浩特市","county":"新城区","community":"维多利橄榄城6号楼、11号楼","full_address":"内蒙古自治区呼和浩特市新城区维多利橄榄城6号楼、11号楼","info":""}},{"type":"Feature","geometry":{"type":"Point","coordinates":[111.679985,40.872517]},"properties":{"province":"内蒙古自治区","city":"呼和浩特市","county":"新城区","community":"团校巷宿舍楼2号楼","full_address":"内蒙古自治区呼和浩特市新城区团校巷宿舍楼2号楼","info":""}},{"type":"Feature","geometry":{"type":"Point","coordinates":[111.681711,40.830158]},"properties":{"province":"内蒙古自治区","city":"呼和浩特市","county":"新城区","community":"西街街道办事处外贸土畜产家属楼","full_address":"内蒙古自治区呼和浩特市新城区西街街道办事处外贸土畜产家属楼","info":""}},{"type":"Feature","geometry":{"type":"Point","coordinates":[111.69742,40.835]},"properties":{"province":"内蒙古自治区","city":"呼和浩特市","county":"新城区","community":"城建小区16号楼","full_address":"内蒙古自治区呼和浩特市新城区城建小区16号楼","info":""}},{"type":"Feature","geometry":{"type":"Point","coordinates":[111.679579,40.825398]},"properties":{"province":"内蒙古自治区","city":"呼和浩特市","county":"新城区","community":"财院西小区（西院）2号楼","full_address":"内蒙古自治区呼和浩特市新城区财院西小区（西院）2号楼","info":""}},{"type":"Feature","geometry":{"type":"Point","coordinates":[111.717751,40.842819]},"properties":{"province":"内蒙古自治区","city":"呼和浩特市","county":"新城区","community":"幸福小区南面五金厂家属院平房区","full_address":"内蒙古自治区呼和浩特市新城区幸福小区南面五金厂家属院平房区","info":""}},{"type":"Feature","geometry":{"type":"Point","coordinates":[111.68235,40.823601]},"properties":{"province":"内蒙古自治区","city":"呼和浩特市","county":"新城区","community":"公安厅小区统建楼2号楼","full_address":"内蒙古自治区呼和浩特市新城区公安厅小区统建楼2号楼","info":""}},{"type":"Feature","geometry":{"type":"Point","coordinates":[111.759163,40.844284]},"properties":{"province":"内蒙古自治区","city":"呼和浩特市","county":"新城区","community":"水岸小镇","full_address":"内蒙古自治区呼和浩特市新城区水岸小镇","info":""}},{"type":"Feature","geometry":{"type":"Point","coordinates":[111.71843,40.844601]},"properties":{"province":"内蒙古自治区","city":"呼和浩特市","county":"新城区","community":"劳动花园","full_address":"内蒙古自治区呼和浩特市新城区劳动花园","info":""}},{"type":"Feature","geometry":{"type":"Point","coordinates":[111.68235,40.823601]},"properties":{"province":"内蒙古自治区","city":"呼和浩特市","county":"新城区","community":"公安厅小区统建楼3号楼","full_address":"内蒙古自治区呼和浩特市新城区公安厅小区统建楼3号楼","info":""}},{"type":"Feature","geometry":{"type":"Point","coordinates":[111.667305,40.854332]},"properties":{"province":"内蒙古自治区","city":"呼和浩特市","county":"新城区","community":"琦琳北辰小区1号楼","full_address":"内蒙古自治区呼和浩特市新城区琦琳北辰小区1号楼","info":""}},{"type":"Feature","geometry":{"type":"Point","coordinates":[111.68436,40.85342]},"properties":{"province":"内蒙古自治区","city":"呼和浩特市","county":"新城区","community":"公园世家小区3号楼","full_address":"内蒙古自治区呼和浩特市新城区公园世家小区3号楼","info":""}},{"type":"Feature","geometry":{"type":"Point","coordinates":[111.660355,40.834877]},"properties":{"province":"内蒙古自治区","city":"呼和浩特市","county":"新城区","community":"岭秀阁小区（独楼）","full_address":"内蒙古自治区呼和浩特市新城区岭秀阁小区（独楼）","info":""}},{"type":"Feature","geometry":{"type":"Point","coordinates":[111.695679,40.82449]},"properties":{"province":"内蒙古自治区","city":"呼和浩特市","county":"新城区","community":"航苑小区","full_address":"内蒙古自治区呼和浩特市新城区航苑小区","info":""}},{"type":"Feature","geometry":{"type":"Point","coordinates":[111.684586,40.871563]},"properties":{"province":"内蒙古自治区","city":"呼和浩特市","county":"新城区","community":"新康家园23号楼","full_address":"内蒙古自治区呼和浩特市新城区新康家园23号楼","info":""}},{"type":"Feature","geometry":{"type":"Point","coordinates":[111.698868,40.832932]},"properties":{"province":"内蒙古自治区","city":"呼和浩特市","county":"新城区","community":"城建小区13号楼","full_address":"内蒙古自治区呼和浩特市新城区城建小区13号楼","info":""}},{"type":"Feature","geometry":{"type":"Point","coordinates":[111.649048,40.850849]},"properties":{"province":"内蒙古自治区","city":"呼和浩特市","county":"新城区","community":"公主花园小区13号楼","full_address":"内蒙古自治区呼和浩特市新城区公主花园小区13号楼","info":""}},{"type":"Feature","geometry":{"type":"Point","coordinates":[111.715829,40.836181]},"properties":{"province":"内蒙古自治区","city":"呼和浩特市","county":"新城区","community":"芳汀花园8号楼","full_address":"内蒙古自治区呼和浩特市新城区芳汀花园8号楼","info":""}},{"type":"Feature","geometry":{"type":"Point","coordinates":[111.704269,40.87817]},"properties":{"province":"内蒙古自治区","city":"呼和浩特市","county":"新城区","community":"成吉思汗街道办事处曹家营子","full_address":"内蒙古自治区呼和浩特市新城区成吉思汗街道办事处曹家营子","info":""}},{"type":"Feature","geometry":{"type":"Point","coordinates":[111.709244,40.834064]},"properties":{"province":"内蒙古自治区","city":"呼和浩特市","county":"新城区","community":"金都园B座2号楼","full_address":"内蒙古自治区呼和浩特市新城区金都园B座2号楼","info":""}},{"type":"Feature","geometry":{"type":"Point","coordinates":[111.67271,40.84198]},"properties":{"province":"内蒙古自治区","city":"呼和浩特市","county":"新城区","community":"八一小区11号楼、22号楼、26号楼","full_address":"内蒙古自治区呼和浩特市新城区八一小区11号楼、22号楼、26号楼","info":""}},{"type":"Feature","geometry":{"type":"Point","coordinates":[111.671799,40.82618]},"properties":{"province":"内蒙古自治区","city":"呼和浩特市","county":"新城区","community":"政苑小区19号楼、36号楼","full_address":"内蒙古自治区呼和浩特市新城区政苑小区19号楼、36号楼","info":""}},{"type":"Feature","geometry":{"type":"Point","coordinates":[111.658526,40.815895]},"properties":{"province":"内蒙古自治区","city":"呼和浩特市","county":"回民区","community":"三顺店西巷奥威花园","full_address":"内蒙古自治区呼和浩特市回民区三顺店西巷奥威花园","info":""}},{"type":"Feature","geometry":{"type":"Point","coordinates":[111.666967,40.819898]},"properties":{"province":"内蒙古自治区","city":"呼和浩特市","county":"回民区","community":"国际大酒店西侧新华广场简易宿舍","full_address":"内蒙古自治区呼和浩特市回民区国际大酒店西侧新华广场简易宿舍","info":""}},{"type":"Feature","geometry":{"type":"Point","coordinates":[111.630716,40.80642]},"properties":{"province":"内蒙古自治区","city":"呼和浩特市","county":"回民区","community":"香槟美景","full_address":"内蒙古自治区呼和浩特市回民区香槟美景","info":""}},{"type":"Feature","geometry":{"type":"Point","coordinates":[111.615804,40.803822]},"properties":{"province":"内蒙古自治区","city":"呼和浩特市","county":"回民区","community":"孔家营村","full_address":"内蒙古自治区呼和浩特市回民区孔家营村","info":""}},{"type":"Feature","geometry":{"type":"Point","coordinates":[111.669805,40.814753]},"properties":{"province":"内蒙古自治区","city":"呼和浩特市","county":"回民区","community":"海亮广场E座","full_address":"内蒙古自治区呼和浩特市回民区海亮广场E座","info":""}},{"type":"Feature","geometry":{"type":"Point","coordinates":[111.645212,40.826068]},"properties":{"province":"内蒙古自治区","city":"呼和浩特市","county":"回民区","community":"鑫潮花园","full_address":"内蒙古自治区呼和浩特市回民区鑫潮花园","info":""}},{"type":"Feature","geometry":{"type":"Point","coordinates":[111.602384,40.825799]},"properties":{"province":"内蒙古自治区","city":"呼和浩特市","county":"回民区","community":"草原明珠北区","full_address":"内蒙古自治区呼和浩特市回民区草原明珠北区","info":""}},{"type":"Feature","geometry":{"type":"Point","coordinates":[111.642204,40.840504]},"properties":{"province":"内蒙古自治区","city":"呼和浩特市","county":"回民区","community":"盛泰雅园","full_address":"内蒙古自治区呼和浩特市回民区盛泰雅园","info":""}},{"type":"Feature","geometry":{"type":"Point","coordinates":[111.626763,40.833007]},"properties":{"province":"内蒙古自治区","city":"呼和浩特市","county":"回民区","community":"海西名筑小区","full_address":"内蒙古自治区呼和浩特市回民区海西名筑小区","info":""}},{"type":"Feature","geometry":{"type":"Point","coordinates":[111.649269,40.81141]},"properties":{"province":"内蒙古自治区","city":"呼和浩特市","county":"回民区","community":"银河小区","full_address":"内蒙古自治区呼和浩特市回民区银河小区","info":""}},{"type":"Feature","geometry":{"type":"Point","coordinates":[111.660409,40.812635]},"properties":{"province":"内蒙古自治区","city":"呼和浩特市","county":"回民区","community":"温商小区","full_address":"内蒙古自治区呼和浩特市回民区温商小区","info":""}},{"type":"Feature","geometry":{"type":"Point","coordinates":[111.644163,40.828255]},"properties":{"province":"内蒙古自治区","city":"呼和浩特市","county":"回民区","community":"阳光小区","full_address":"内蒙古自治区呼和浩特市回民区阳光小区","info":""}},{"type":"Feature","geometry":{"type":"Point","coordinates":[111.641483,40.828759]},"properties":{"province":"内蒙古自治区","city":"呼和浩特市","county":"回民区","community":"燕莎玫瑰园","full_address":"内蒙古自治区呼和浩特市回民区燕莎玫瑰园","info":""}},{"type":"Feature","geometry":{"type":"Point","coordinates":[111.638986,40.820353]},"properties":{"province":"内蒙古自治区","city":"呼和浩特市","county":"回民区","community":"奥登小区","full_address":"内蒙古自治区呼和浩特市回民区奥登小区","info":""}},{"type":"Feature","geometry":{"type":"Point","coordinates":[111.641896,40.798216]},"properties":{"province":"内蒙古自治区","city":"呼和浩特市","county":"回民区","community":"清水湾","full_address":"内蒙古自治区呼和浩特市回民区清水湾","info":""}},{"type":"Feature","geometry":{"type":"Point","coordinates":[111.632351,40.829548]},"properties":{"province":"内蒙古自治区","city":"呼和浩特市","county":"回民区","community":"天昱自由度","full_address":"内蒙古自治区呼和浩特市回民区天昱自由度","info":""}},{"type":"Feature","geometry":{"type":"Point","coordinates":[111.663679,40.817858]},"properties":{"province":"内蒙古自治区","city":"呼和浩特市","county":"回民区","community":"锦华公寓","full_address":"内蒙古自治区呼和浩特市回民区锦华公寓","info":""}},{"type":"Feature","geometry":{"type":"Point","coordinates":[111.63978,40.844683]},"properties":{"province":"内蒙古自治区","city":"呼和浩特市","county":"回民区","community":"塔布板住宅小区","full_address":"内蒙古自治区呼和浩特市回民区塔布板住宅小区","info":""}},{"type":"Feature","geometry":{"type":"Point","coordinates":[111.632842,40.821822]},"properties":{"province":"内蒙古自治区","city":"呼和浩特市","county":"回民区","community":"什拉门更村A、B、C、D、E区","full_address":"内蒙古自治区呼和浩特市回民区什拉门更村A、B、C、D、E区","info":""}},{"type":"Feature","geometry":{"type":"Point","coordinates":[111.623692,40.808608]},"properties":{"province":"内蒙古自治区","city":"呼和浩特市","county":"回民区","community":"水文华阳小区","full_address":"内蒙古自治区呼和浩特市回民区水文华阳小区","info":""}},{"type":"Feature","geometry":{"type":"Point","coordinates":[111.640583,40.805083]},"properties":{"province":"内蒙古自治区","city":"呼和浩特市","county":"回民区","community":"县府街小学教工楼","full_address":"内蒙古自治区呼和浩特市回民区县府街小学教工楼","info":""}},{"type":"Feature","geometry":{"type":"Point","coordinates":[111.6056,40.823692]},"properties":{"province":"内蒙古自治区","city":"呼和浩特市","county":"回民区","community":"明珠丽景西区5号楼","full_address":"内蒙古自治区呼和浩特市回民区明珠丽景西区5号楼","info":""}},{"type":"Feature","geometry":{"type":"Point","coordinates":[111.669109,40.811924]},"properties":{"province":"内蒙古自治区","city":"呼和浩特市","county":"回民区","community":"公园东路社区妇幼保健院宿舍楼","full_address":"内蒙古自治区呼和浩特市回民区公园东路社区妇幼保健院宿舍楼","info":""}},{"type":"Feature","geometry":{"type":"Point","coordinates":[111.647712,40.848369]},"properties":{"province":"内蒙古自治区","city":"呼和浩特市","county":"回民区","community":"呼运花园2号楼","full_address":"内蒙古自治区呼和浩特市回民区呼运花园2号楼","info":""}},{"type":"Feature","geometry":{"type":"Point","coordinates":[111.670502,40.8125]},"properties":{"province":"内蒙古自治区","city":"呼和浩特市","county":"回民区","community":"海亮名门11号楼","full_address":"内蒙古自治区呼和浩特市回民区海亮名门11号楼","info":""}},{"type":"Feature","geometry":{"type":"Point","coordinates":[111.636375,40.814335]},"properties":{"province":"内蒙古自治区","city":"呼和浩特市","county":"回民区","community":"家和小区4号楼","full_address":"内蒙古自治区呼和浩特市回民区家和小区4号楼","info":""}},{"type":"Feature","geometry":{"type":"Point","coordinates":[111.584517,40.834607]},"properties":{"province":"内蒙古自治区","city":"呼和浩特市","county":"回民区","community":"塞外安康新居10号楼","full_address":"内蒙古自治区呼和浩特市回民区塞外安康新居10号楼","info":""}},{"type":"Feature","geometry":{"type":"Point","coordinates":[111.634949,40.813511]},"properties":{"province":"内蒙古自治区","city":"呼和浩特市","county":"回民区","community":"呼钢小区前面燃料小区（众爱幼儿园附近）","full_address":"内蒙古自治区呼和浩特市回民区呼钢小区前面燃料小区（众爱幼儿园附近）","info":""}},{"type":"Feature","geometry":{"type":"Point","coordinates":[111.638092,40.796658]},"properties":{"province":"内蒙古自治区","city":"呼和浩特市","county":"回民区","community":"水润嘉苑30号楼","full_address":"内蒙古自治区呼和浩特市回民区水润嘉苑30号楼","info":""}},{"type":"Feature","geometry":{"type":"Point","coordinates":[111.650284,40.821022]},"properties":{"province":"内蒙古自治区","city":"呼和浩特市","county":"回民区","community":"浩鑫丽景苑小区2号楼","full_address":"内蒙古自治区呼和浩特市回民区浩鑫丽景苑小区2号楼","info":""}},{"type":"Feature","geometry":{"type":"Point","coordinates":[111.662933,40.814354]},"properties":{"province":"内蒙古自治区","city":"呼和浩特市","county":"回民区","community":"果园路社区新华书店家属楼","full_address":"内蒙古自治区呼和浩特市回民区果园路社区新华书店家属楼","info":""}},{"type":"Feature","geometry":{"type":"Point","coordinates":[111.61585,40.82982]},"properties":{"province":"内蒙古自治区","city":"呼和浩特市","county":"回民区","community":"明珠丽景东区8号楼","full_address":"内蒙古自治区呼和浩特市回民区明珠丽景东区8号楼","info":""}},{"type":"Feature","geometry":{"type":"Point","coordinates":[111.634651,40.814952]},"properties":{"province":"内蒙古自治区","city":"呼和浩特市","county":"回民区","community":"呼钢小区12号楼","full_address":"内蒙古自治区呼和浩特市回民区呼钢小区12号楼","info":""}},{"type":"Feature","geometry":{"type":"Point","coordinates":[111.676727,40.800129]},"properties":{"province":"内蒙古自治区","city":"呼和浩特市","county":"回民区","community":"电厂宿舍楼14号楼","full_address":"内蒙古自治区呼和浩特市回民区电厂宿舍楼14号楼","info":""}},{"type":"Feature","geometry":{"type":"Point","coordinates":[111.614771,40.785938]},"properties":{"province":"内蒙古自治区","city":"呼和浩特市","county":"玉泉区","community":"后八里庄村","full_address":"内蒙古自治区呼和浩特市玉泉区后八里庄村","info":""}},{"type":"Feature","geometry":{"type":"Point","coordinates":[111.670296,40.776926]},"properties":{"province":"内蒙古自治区","city":"呼和浩特市","county":"玉泉区","community":"科苑佳园","full_address":"内蒙古自治区呼和浩特市玉泉区科苑佳园","info":""}},{"type":"Feature","geometry":{"type":"Point","coordinates":[111.632137,40.760935]},"properties":{"province":"内蒙古自治区","city":"呼和浩特市","county":"玉泉区","community":"水语青城","full_address":"内蒙古自治区呼和浩特市玉泉区水语青城","info":""}},{"type":"Feature","geometry":{"type":"Point","coordinates":[111.611167,40.772408]},"properties":{"province":"内蒙古自治区","city":"呼和浩特市","county":"玉泉区","community":"前八里庄村","full_address":"内蒙古自治区呼和浩特市玉泉区前八里庄村","info":""}},{"type":"Feature","geometry":{"type":"Point","coordinates":[111.648695,40.778139]},"properties":{"province":"内蒙古自治区","city":"呼和浩特市","county":"玉泉区","community":"盛世东元","full_address":"内蒙古自治区呼和浩特市玉泉区盛世东元","info":""}},{"type":"Feature","geometry":{"type":"Point","coordinates":[111.660278,40.78427]},"properties":{"province":"内蒙古自治区","city":"呼和浩特市","county":"玉泉区","community":"辛辛板村","full_address":"内蒙古自治区呼和浩特市玉泉区辛辛板村","info":""}},{"type":"Feature","geometry":{"type":"Point","coordinates":[111.675882,40.748424]},"properties":{"province":"内蒙古自治区","city":"呼和浩特市","county":"玉泉区","community":"沟子板村","full_address":"内蒙古自治区呼和浩特市玉泉区沟子板村","info":""}},{"type":"Feature","geometry":{"type":"Point","coordinates":[111.641729,40.791294]},"properties":{"province":"内蒙古自治区","city":"呼和浩特市","county":"玉泉区","community":"西苑南小区","full_address":"内蒙古自治区呼和浩特市玉泉区西苑南小区","info":""}},{"type":"Feature","geometry":{"type":"Point","coordinates":[111.674985,40.766284]},"properties":{"province":"内蒙古自治区","city":"呼和浩特市","county":"玉泉区","community":"世源佳境","full_address":"内蒙古自治区呼和浩特市玉泉区世源佳境","info":""}},{"type":"Feature","geometry":{"type":"Point","coordinates":[111.643538,40.786236]},"properties":{"province":"内蒙古自治区","city":"呼和浩特市","county":"玉泉区","community":"西菜园南源村","full_address":"内蒙古自治区呼和浩特市玉泉区西菜园南源村","info":""}},{"type":"Feature","geometry":{"type":"Point","coordinates":[111.702077,40.747758]},"properties":{"province":"内蒙古自治区","city":"呼和浩特市","county":"玉泉区","community":"亿利澜庭工地宿舍区","full_address":"内蒙古自治区呼和浩特市玉泉区亿利澜庭工地宿舍区","info":""}},{"type":"Feature","geometry":{"type":"Point","coordinates":[111.657189,40.791609]},"properties":{"province":"内蒙古自治区","city":"呼和浩特市","county":"玉泉区","community":"钢管厂巷建北楼","full_address":"内蒙古自治区呼和浩特市玉泉区钢管厂巷建北楼","info":""}},{"type":"Feature","geometry":{"type":"Point","coordinates":[111.657189,40.791609]},"properties":{"province":"内蒙古自治区","city":"呼和浩特市","county":"玉泉区","community":"钢管厂巷建南楼","full_address":"内蒙古自治区呼和浩特市玉泉区钢管厂巷建南楼","info":""}},{"type":"Feature","geometry":{"type":"Point","coordinates":[111.659603,40.764885]},"properties":{"province":"内蒙古自治区","city":"呼和浩特市","county":"玉泉区","community":"观澜国际小区","full_address":"内蒙古自治区呼和浩特市玉泉区观澜国际小区","info":""}},{"type":"Feature","geometry":{"type":"Point","coordinates":[111.652886,40.788908]},"properties":{"province":"内蒙古自治区","city":"呼和浩特市","county":"玉泉区","community":"富贵国际小区","full_address":"内蒙古自治区呼和浩特市玉泉区富贵国际小区","info":""}},{"type":"Feature","geometry":{"type":"Point","coordinates":[111.655913,40.79481]},"properties":{"province":"内蒙古自治区","city":"呼和浩特市","county":"玉泉区","community":"国都世源小区","full_address":"内蒙古自治区呼和浩特市玉泉区国都世源小区","info":""}},{"type":"Feature","geometry":{"type":"Point","coordinates":[111.617763,40.753137]},"properties":{"province":"内蒙古自治区","city":"呼和浩特市","county":"玉泉区","community":"云中路祥和苑","full_address":"内蒙古自治区呼和浩特市玉泉区云中路祥和苑","info":""}},{"type":"Feature","geometry":{"type":"Point","coordinates":[111.635263,40.686314]},"properties":{"province":"内蒙古自治区","city":"呼和浩特市","county":"玉泉区","community":"茂林太村","full_address":"内蒙古自治区呼和浩特市玉泉区茂林太村","info":""}},{"type":"Feature","geometry":{"type":"Point","coordinates":[111.635801,40.785754]},"properties":{"province":"内蒙古自治区","city":"呼和浩特市","county":"玉泉区","community":"西岸国际","full_address":"内蒙古自治区呼和浩特市玉泉区西岸国际","info":""}},{"type":"Feature","geometry":{"type":"Point","coordinates":[111.642376,40.768648]},"properties":{"province":"内蒙古自治区","city":"呼和浩特市","county":"玉泉区","community":"范家营远鹏星河国际","full_address":"内蒙古自治区呼和浩特市玉泉区范家营远鹏星河国际","info":""}},{"type":"Feature","geometry":{"type":"Point","coordinates":[111.641064,40.772832]},"properties":{"province":"内蒙古自治区","city":"呼和浩特市","county":"玉泉区","community":"桃花岛小区","full_address":"内蒙古自治区呼和浩特市玉泉区桃花岛小区","info":""}},{"type":"Feature","geometry":{"type":"Point","coordinates":[111.673881,40.753655]},"properties":{"province":"内蒙古自治区","city":"呼和浩特市","county":"玉泉区","community":"万锦云锦工地宿舍","full_address":"内蒙古自治区呼和浩特市玉泉区万锦云锦工地宿舍","info":""}},{"type":"Feature","geometry":{"type":"Point","coordinates":[111.582452,40.78923]},"properties":{"province":"内蒙古自治区","city":"呼和浩特市","county":"玉泉区","community":"质诺水泥制品厂","full_address":"内蒙古自治区呼和浩特市玉泉区质诺水泥制品厂","info":""}},{"type":"Feature","geometry":{"type":"Point","coordinates":[111.678345,40.779458]},"properties":{"province":"内蒙古自治区","city":"呼和浩特市","county":"玉泉区","community":"闻都世界城18A","full_address":"内蒙古自治区呼和浩特市玉泉区闻都世界城18A","info":""}},{"type":"Feature","geometry":{"type":"Point","coordinates":[111.652079,40.774454]},"properties":{"province":"内蒙古自治区","city":"呼和浩特市","county":"玉泉区","community":"天骄花园西侧平房区","full_address":"内蒙古自治区呼和浩特市玉泉区天骄花园西侧平房区","info":""}},{"type":"Feature","geometry":{"type":"Point","coordinates":[111.572922,40.708942]},"properties":{"province":"内蒙古自治区","city":"呼和浩特市","county":"玉泉区","community":"小黑河镇班定营村","full_address":"内蒙古自治区呼和浩特市玉泉区小黑河镇班定营村","info":""}},{"type":"Feature","geometry":{"type":"Point","coordinates":[111.660771,40.796881]},"properties":{"province":"内蒙古自治区","city":"呼和浩特市","county":"玉泉区","community":"金角苑小区1号楼 2号楼","full_address":"内蒙古自治区呼和浩特市玉泉区金角苑小区1号楼 2号楼","info":""}},{"type":"Feature","geometry":{"type":"Point","coordinates":[111.628517,40.792519]},"properties":{"province":"内蒙古自治区","city":"呼和浩特市","county":"玉泉区","community":"兴隆小区南平房区","full_address":"内蒙古自治区呼和浩特市玉泉区兴隆小区南平房区","info":""}},{"type":"Feature","geometry":{"type":"Point","coordinates":[111.668747,40.78688]},"properties":{"province":"内蒙古自治区","city":"呼和浩特市","county":"玉泉区","community":"俪城小区A7号楼","full_address":"内蒙古自治区呼和浩特市玉泉区俪城小区A7号楼","info":""}},{"type":"Feature","geometry":{"type":"Point","coordinates":[111.633926,40.781071]},"properties":{"province":"内蒙古自治区","city":"呼和浩特市","county":"玉泉区","community":"溪水园小区","full_address":"内蒙古自治区呼和浩特市玉泉区溪水园小区","info":""}},{"type":"Feature","geometry":{"type":"Point","coordinates":[111.684807,40.773041]},"properties":{"province":"内蒙古自治区","city":"呼和浩特市","county":"玉泉区","community":"万锦枫泽湾1号楼","full_address":"内蒙古自治区呼和浩特市玉泉区万锦枫泽湾1号楼","info":""}},{"type":"Feature","geometry":{"type":"Point","coordinates":[111.67531,40.79748]},"properties":{"province":"内蒙古自治区","city":"呼和浩特市","county":"玉泉区","community":"烟厂苁蓉小区19号楼、22号楼","full_address":"内蒙古自治区呼和浩特市玉泉区烟厂苁蓉小区19号楼、22号楼","info":""}},{"type":"Feature","geometry":{"type":"Point","coordinates":[111.661751,40.781292]},"properties":{"province":"内蒙古自治区","city":"呼和浩特市","county":"玉泉区","community":"辛兴公寓南区","full_address":"内蒙古自治区呼和浩特市玉泉区辛兴公寓南区","info":""}},{"type":"Feature","geometry":{"type":"Point","coordinates":[111.672577,40.765129]},"properties":{"province":"内蒙古自治区","city":"呼和浩特市","county":"玉泉区","community":"蓝色港湾S9号楼","full_address":"内蒙古自治区呼和浩特市玉泉区蓝色港湾S9号楼","info":""}},{"type":"Feature","geometry":{"type":"Point","coordinates":[111.685432,40.748158]},"properties":{"province":"内蒙古自治区","city":"呼和浩特市","county":"玉泉区","community":"鼎盛国际B8号楼、G2号楼、G1号楼","full_address":"内蒙古自治区呼和浩特市玉泉区鼎盛国际B8号楼、G2号楼、G1号楼","info":""}},{"type":"Feature","geometry":{"type":"Point","coordinates":[111.643349,40.790058]},"properties":{"province":"内蒙古自治区","city":"呼和浩特市","county":"玉泉区","community":"西菜园西源村","full_address":"内蒙古自治区呼和浩特市玉泉区西菜园西源村","info":""}},{"type":"Feature","geometry":{"type":"Point","coordinates":[111.749544,40.817908]},"properties":{"province":"内蒙古自治区","city":"呼和浩特市","county":"赛罕区","community":"绿地塞尚公馆","full_address":"内蒙古自治区呼和浩特市赛罕区绿地塞尚公馆","info":""}},{"type":"Feature","geometry":{"type":"Point","coordinates":[111.689363,40.802661]},"properties":{"province":"内蒙古自治区","city":"呼和浩特市","county":"赛罕区","community":"农机小区","full_address":"内蒙古自治区呼和浩特市赛罕区农机小区","info":""}},{"type":"Feature","geometry":{"type":"Point","coordinates":[111.729855,40.819709]},"properties":{"province":"内蒙古自治区","city":"呼和浩特市","county":"赛罕区","community":"春雨北区","full_address":"内蒙古自治区呼和浩特市赛罕区春雨北区","info":""}},{"type":"Feature","geometry":{"type":"Point","coordinates":[111.73596,40.817892]},"properties":{"province":"内蒙古自治区","city":"呼和浩特市","county":"赛罕区","community":"巨海城5区","full_address":"内蒙古自治区呼和浩特市赛罕区巨海城5区","info":""}},{"type":"Feature","geometry":{"type":"Point","coordinates":[111.715896,40.828189]},"properties":{"province":"内蒙古自治区","city":"呼和浩特市","county":"赛罕区","community":"中房小区","full_address":"内蒙古自治区呼和浩特市赛罕区中房小区","info":""}},{"type":"Feature","geometry":{"type":"Point","coordinates":[111.784628,40.79633]},"properties":{"province":"内蒙古自治区","city":"呼和浩特市","county":"赛罕区","community":"东达安苑小区","full_address":"内蒙古自治区呼和浩特市赛罕区东达安苑小区","info":""}},{"type":"Feature","geometry":{"type":"Point","coordinates":[111.791345,40.827964]},"properties":{"province":"内蒙古自治区","city":"呼和浩特市","county":"赛罕区","community":"前不塔气社区","full_address":"内蒙古自治区呼和浩特市赛罕区前不塔气社区","info":""}},{"type":"Feature","geometry":{"type":"Point","coordinates":[111.718768,40.829122]},"properties":{"province":"内蒙古自治区","city":"呼和浩特市","county":"赛罕区","community":"政法小区","full_address":"内蒙古自治区呼和浩特市赛罕区政法小区","info":""}},{"type":"Feature","geometry":{"type":"Point","coordinates":[111.801219,40.84416]},"properties":{"province":"内蒙古自治区","city":"呼和浩特市","county":"赛罕区","community":"什兰岱社区","full_address":"内蒙古自治区呼和浩特市赛罕区什兰岱社区","info":""}},{"type":"Feature","geometry":{"type":"Point","coordinates":[111.75889,40.81304]},"properties":{"province":"内蒙古自治区","city":"呼和浩特市","county":"赛罕区","community":"金隅社区金隅时代城","full_address":"内蒙古自治区呼和浩特市赛罕区金隅社区金隅时代城","info":""}},{"type":"Feature","geometry":{"type":"Point","coordinates":[111.977766,40.874736]},"properties":{"province":"内蒙古自治区","city":"呼和浩特市","county":"赛罕区","community":"榆林镇古力半村老砖窑二十四田园","full_address":"内蒙古自治区呼和浩特市赛罕区榆林镇古力半村老砖窑二十四田园","info":""}},{"type":"Feature","geometry":{"type":"Point","coordinates":[111.82942,40.841682]},"properties":{"province":"内蒙古自治区","city":"呼和浩特市","county":"赛罕区","community":"大厂库伦村","full_address":"内蒙古自治区呼和浩特市赛罕区大厂库伦村","info":""}},{"type":"Feature","geometry":{"type":"Point","coordinates":[111.937586,40.8228]},"properties":{"province":"内蒙古自治区","city":"呼和浩特市","county":"赛罕区","community":"太平庄村","full_address":"内蒙古自治区呼和浩特市赛罕区太平庄村","info":""}},{"type":"Feature","geometry":{"type":"Point","coordinates":[111.734136,40.832183]},"properties":{"province":"内蒙古自治区","city":"呼和浩特市","county":"赛罕区","community":"万达广场二期西区1号楼","full_address":"内蒙古自治区呼和浩特市赛罕区万达广场二期西区1号楼","info":""}},{"type":"Feature","geometry":{"type":"Point","coordinates":[111.71508,40.82769]},"properties":{"province":"内蒙古自治区","city":"呼和浩特市","county":"赛罕区","community":"海外公寓3号楼","full_address":"内蒙古自治区呼和浩特市赛罕区海外公寓3号楼","info":""}},{"type":"Feature","geometry":{"type":"Point","coordinates":[111.7386,40.785028]},"properties":{"province":"内蒙古自治区","city":"呼和浩特市","county":"赛罕区","community":"保全庄农贸市场1号公寓楼","full_address":"内蒙古自治区呼和浩特市赛罕区保全庄农贸市场1号公寓楼","info":""}},{"type":"Feature","geometry":{"type":"Point","coordinates":[111.713042,40.818838]},"properties":{"province":"内蒙古自治区","city":"呼和浩特市","county":"赛罕区","community":"乌兰小区12号楼、13号楼","full_address":"内蒙古自治区呼和浩特市赛罕区乌兰小区12号楼、13号楼","info":""}},{"type":"Feature","geometry":{"type":"Point","coordinates":[111.732618,40.817376]},"properties":{"province":"内蒙古自治区","city":"呼和浩特市","county":"赛罕区","community":"巨海城10区1号楼","full_address":"内蒙古自治区呼和浩特市赛罕区巨海城10区1号楼","info":""}},{"type":"Feature","geometry":{"type":"Point","coordinates":[111.803305,40.751447]},"properties":{"province":"内蒙古自治区","city":"呼和浩特市","county":"赛罕区","community":"金河镇八拜村","full_address":"内蒙古自治区呼和浩特市赛罕区金河镇八拜村","info":""}},{"type":"Feature","geometry":{"type":"Point","coordinates":[111.711106,40.826781]},"properties":{"province":"内蒙古自治区","city":"呼和浩特市","county":"赛罕区","community":"中行小区3号楼","full_address":"内蒙古自治区呼和浩特市赛罕区中行小区3号楼","info":""}},{"type":"Feature","geometry":{"type":"Point","coordinates":[111.725629,40.766271]},"properties":{"province":"内蒙古自治区","city":"呼和浩特市","county":"赛罕区","community":"金城小区1号楼2单元","full_address":"内蒙古自治区呼和浩特市赛罕区金城小区1号楼2单元","info":""}},{"type":"Feature","geometry":{"type":"Point","coordinates":[111.700989,40.789421]},"properties":{"province":"内蒙古自治区","city":"呼和浩特市","county":"赛罕区","community":"汇商广场B2、C座","full_address":"内蒙古自治区呼和浩特市赛罕区汇商广场B2、C座","info":""}},{"type":"Feature","geometry":{"type":"Point","coordinates":[111.72017,40.82764]},"properties":{"province":"内蒙古自治区","city":"呼和浩特市","county":"赛罕区","community":"长乐湾小区5号楼","full_address":"内蒙古自治区呼和浩特市赛罕区长乐湾小区5号楼","info":""}},{"type":"Feature","geometry":{"type":"Point","coordinates":[111.723607,40.823131]},"properties":{"province":"内蒙古自治区","city":"呼和浩特市","county":"赛罕区","community":"东乐花园西区3号楼","full_address":"内蒙古自治区呼和浩特市赛罕区东乐花园西区3号楼","info":""}},{"type":"Feature","geometry":{"type":"Point","coordinates":[111.894859,40.812962]},"properties":{"province":"内蒙古自治区","city":"呼和浩特市","county":"赛罕区","community":"巴彦街道五路村平房区","full_address":"内蒙古自治区呼和浩特市赛罕区巴彦街道五路村平房区","info":""}},{"type":"Feature","geometry":{"type":"Point","coordinates":[111.706978,40.797729]},"properties":{"province":"内蒙古自治区","city":"呼和浩特市","county":"赛罕区","community":"牧机所小区8号楼","full_address":"内蒙古自治区呼和浩特市赛罕区牧机所小区8号楼","info":""}},{"type":"Feature","geometry":{"type":"Point","coordinates":[111.750587,40.673573]},"properties":{"province":"内蒙古自治区","city":"呼和浩特市","county":"赛罕区","community":"金河镇曙光村旧焦化厂院内","full_address":"内蒙古自治区呼和浩特市赛罕区金河镇曙光村旧焦化厂院内","info":""}},{"type":"Feature","geometry":{"type":"Point","coordinates":[111.681266,40.804447]},"properties":{"province":"内蒙古自治区","city":"呼和浩特市","county":"赛罕区","community":"书香门第小区4号楼","full_address":"内蒙古自治区呼和浩特市赛罕区书香门第小区4号楼","info":""}},{"type":"Feature","geometry":{"type":"Point","coordinates":[111.76916,40.72714]},"properties":{"province":"内蒙古自治区","city":"呼和浩特市","county":"赛罕区","community":"阿木尔北街与金硅路交汇交叉口西侧宿舍楼","full_address":"内蒙古自治区呼和浩特市赛罕区阿木尔北街与金硅路交汇交叉口西侧宿舍楼","info":""}},{"type":"Feature","geometry":{"type":"Point","coordinates":[111.713257,40.816952]},"properties":{"province":"内蒙古自治区","city":"呼和浩特市","county":"赛罕区","community":"乌兰小区11号楼","full_address":"内蒙古自治区呼和浩特市赛罕区乌兰小区11号楼","info":""}},{"type":"Feature","geometry":{"type":"Point","coordinates":[111.781303,40.795399]},"properties":{"province":"内蒙古自治区","city":"呼和浩特市","county":"赛罕区","community":"东达景苑9号楼","full_address":"内蒙古自治区呼和浩特市赛罕区东达景苑9号楼","info":""}},{"type":"Feature","geometry":{"type":"Point","coordinates":[111.705894,40.828114]},"properties":{"province":"内蒙古自治区","city":"呼和浩特市","county":"赛罕区","community":"地税局艺校家属楼1号楼","full_address":"内蒙古自治区呼和浩特市赛罕区地税局艺校家属楼1号楼","info":""}},{"type":"Feature","geometry":{"type":"Point","coordinates":[111.798622,40.677803]},"properties":{"province":"内蒙古自治区","city":"呼和浩特市","county":"赛罕区","community":"金河镇章盖营村","full_address":"内蒙古自治区呼和浩特市赛罕区金河镇章盖营村","info":""}},{"type":"Feature","geometry":{"type":"Point","coordinates":[111.855064,40.891586]},"properties":{"province":"内蒙古自治区","city":"呼和浩特市","county":"赛罕区","community":"巴彦街道罗家营村陶然雅居B8号楼","full_address":"内蒙古自治区呼和浩特市赛罕区巴彦街道罗家营村陶然雅居B8号楼","info":""}},{"type":"Feature","geometry":{"type":"Point","coordinates":[111.722839,40.785751]},"properties":{"province":"内蒙古自治区","city":"呼和浩特市","county":"赛罕区","community":"中海蓝湾南区1号楼","full_address":"内蒙古自治区呼和浩特市赛罕区中海蓝湾南区1号楼","info":""}},{"type":"Feature","geometry":{"type":"Point","coordinates":[111.708672,40.823383]},"properties":{"province":"内蒙古自治区","city":"呼和浩特市","county":"赛罕区","community":"自来水宿舍楼1号大院2号楼","full_address":"内蒙古自治区呼和浩特市赛罕区自来水宿舍楼1号大院2号楼","info":""}},{"type":"Feature","geometry":{"type":"Point","coordinates":[111.688278,40.798832]},"properties":{"province":"内蒙古自治区","city":"呼和浩特市","county":"赛罕区","community":"赛罕区东瓦窑村平房区","full_address":"内蒙古自治区呼和浩特市赛罕区赛罕区东瓦窑村平房区","info":""}},{"type":"Feature","geometry":{"type":"Point","coordinates":[111.738815,40.823823]},"properties":{"province":"内蒙古自治区","city":"呼和浩特市","county":"赛罕区","community":"检察家园3号楼","full_address":"内蒙古自治区呼和浩特市赛罕区检察家园3号楼","info":""}},{"type":"Feature","geometry":{"type":"Point","coordinates":[111.71391,40.79482]},"properties":{"province":"内蒙古自治区","city":"呼和浩特市","county":"赛罕区","community":"永泰城4号楼","full_address":"内蒙古自治区呼和浩特市赛罕区永泰城4号楼","info":""}},{"type":"Feature","geometry":{"type":"Point","coordinates":[111.6912,40.790199]},"properties":{"province":"内蒙古自治区","city":"呼和浩特市","county":"赛罕区","community":"司法厅住宅小区1号楼","full_address":"内蒙古自治区呼和浩特市赛罕区司法厅住宅小区1号楼","info":""}},{"type":"Feature","geometry":{"type":"Point","coordinates":[111.71218,40.82805]},"properties":{"province":"内蒙古自治区","city":"呼和浩特市","county":"赛罕区","community":"巨华朗域小区6号楼","full_address":"内蒙古自治区呼和浩特市赛罕区巨华朗域小区6号楼","info":""}},{"type":"Feature","geometry":{"type":"Point","coordinates":[111.692749,40.785542]},"properties":{"province":"内蒙古自治区","city":"呼和浩特市","county":"赛罕区","community":"景馨家园二区3号楼","full_address":"内蒙古自治区呼和浩特市赛罕区景馨家园二区3号楼","info":""}},{"type":"Feature","geometry":{"type":"Point","coordinates":[111.843346,40.887436]},"properties":{"province":"内蒙古自治区","city":"呼和浩特市","county":"赛罕区","community":"巴彦街道小粮库家属房","full_address":"内蒙古自治区呼和浩特市赛罕区巴彦街道小粮库家属房","info":""}},{"type":"Feature","geometry":{"type":"Point","coordinates":[111.542183,40.7813]},"properties":{"province":"内蒙古自治区","city":"呼和浩特市","county":"土默特左旗","community":"新天地小区","full_address":"内蒙古自治区呼和浩特市土默特左旗新天地小区","info":""}},{"type":"Feature","geometry":{"type":"Point","coordinates":[111.533817,40.807903]},"properties":{"province":"内蒙古自治区","city":"呼和浩特市","county":"土默特左旗","community":"台阁牧镇霍寨村","full_address":"内蒙古自治区呼和浩特市土默特左旗台阁牧镇霍寨村","info":""}},{"type":"Feature","geometry":{"type":"Point","coordinates":[111.493057,40.591602]},"properties":{"province":"内蒙古自治区","city":"呼和浩特市","county":"土默特左旗","community":"白庙子镇王气村","full_address":"内蒙古自治区呼和浩特市土默特左旗白庙子镇王气村","info":""}},{"type":"Feature","geometry":{"type":"Point","coordinates":[111.533066,40.789806]},"properties":{"province":"内蒙古自治区","city":"呼和浩特市","county":"土默特左旗","community":"金浩区域服务中心宽城西区寿园5号楼","full_address":"内蒙古自治区呼和浩特市土默特左旗金浩区域服务中心宽城西区寿园5号楼","info":""}},{"type":"Feature","geometry":{"type":"Point","coordinates":[110.062157,40.579319]},"properties":{"province":"内蒙古自治区","city":"包头市","county":"东河区","community":"杨圪塄街道办事处北梁新区北八区","full_address":"内蒙古自治区包头市东河区杨圪塄街道办事处北梁新区北八区","info":""}},{"type":"Feature","geometry":{"type":"Point","coordinates":[110.057899,40.58585]},"properties":{"province":"内蒙古自治区","city":"包头市","county":"东河区","community":"河东街道办事处东河商住城小区","full_address":"内蒙古自治区包头市东河区河东街道办事处东河商住城小区","info":""}},{"type":"Feature","geometry":{"type":"Point","coordinates":[110.146942,40.564354]},"properties":{"province":"内蒙古自治区","city":"包头市","county":"东河区","community":"东兴街道办事处华资小区","full_address":"内蒙古自治区包头市东河区东兴街道办事处华资小区","info":""}},{"type":"Feature","geometry":{"type":"Point","coordinates":[110.014618,40.576752]},"properties":{"province":"内蒙古自治区","city":"包头市","county":"东河区","community":"东站街道办事处公二街小区","full_address":"内蒙古自治区包头市东河区东站街道办事处公二街小区","info":""}},{"type":"Feature","geometry":{"type":"Point","coordinates":[110.020042,40.58633]},"properties":{"province":"内蒙古自治区","city":"包头市","county":"东河区","community":"东站街道办事处公园路社区部分小区（东至中心医院西墙，西至西五街，北至环城路，南至体南路），含中心医院家属楼1-12号楼","full_address":"内蒙古自治区包头市东河区东站街道办事处公园路社区部分小区（东至中心医院西墙，西至西五街，北至环城路，南至体南路），含中心医院家属楼1-12号楼","info":""}},{"type":"Feature","geometry":{"type":"Point","coordinates":[110.055771,40.563381]},"properties":{"province":"内蒙古自治区","city":"包头市","county":"东河区","community":"将杨圪塄街道办事处北梁新区南六区7号楼2单元","full_address":"内蒙古自治区包头市东河区将杨圪塄街道办事处北梁新区南六区7号楼2单元","info":""}},{"type":"Feature","geometry":{"type":"Point","coordinates":[110.146942,40.564354]},"properties":{"province":"内蒙古自治区","city":"包头市","county":"东河区","community":"东兴街道办事处原轻工学院家属楼院","full_address":"内蒙古自治区包头市东河区东兴街道办事处原轻工学院家属楼院","info":""}},{"type":"Feature","geometry":{"type":"Point","coordinates":[110.051147,40.584099]},"properties":{"province":"内蒙古自治区","city":"包头市","county":"东河区","community":"河东街道办事处胜达小区","full_address":"内蒙古自治区包头市东河区河东街道办事处胜达小区","info":""}},{"type":"Feature","geometry":{"type":"Point","coordinates":[110.024292,40.57637]},"properties":{"province":"内蒙古自治区","city":"包头市","county":"东河区","community":"东站街道办事处旭日嘉园小区","full_address":"内蒙古自治区包头市东河区东站街道办事处旭日嘉园小区","info":""}},{"type":"Feature","geometry":{"type":"Point","coordinates":[110.02407,40.57857]},"properties":{"province":"内蒙古自治区","city":"包头市","county":"东河区","community":"东站街道办事处巴彦塔拉大街36号","full_address":"内蒙古自治区包头市东河区东站街道办事处巴彦塔拉大街36号","info":""}},{"type":"Feature","geometry":{"type":"Point","coordinates":[110.02976,40.58239]},"properties":{"province":"内蒙古自治区","city":"包头市","county":"东河区","community":"东站街道办事处南门外大街二号街坊","full_address":"内蒙古自治区包头市东河区东站街道办事处南门外大街二号街坊","info":""}},{"type":"Feature","geometry":{"type":"Point","coordinates":[110.054443,40.581409]},"properties":{"province":"内蒙古自治区","city":"包头市","county":"东河区","community":"河东镇东河村欣苑小区","full_address":"内蒙古自治区包头市东河区河东镇东河村欣苑小区","info":""}},{"type":"Feature","geometry":{"type":"Point","coordinates":[110.054375,40.584114]},"properties":{"province":"内蒙古自治区","city":"包头市","county":"东河区","community":"河东街道办事处胜达花苑小区","full_address":"内蒙古自治区包头市东河区河东街道办事处胜达花苑小区","info":""}},{"type":"Feature","geometry":{"type":"Point","coordinates":[110.03841,40.58552]},"properties":{"province":"内蒙古自治区","city":"包头市","county":"东河区","community":"南圪洞街道办事处菜园街商委楼1号楼、2号楼，五金楼1号楼、2号楼，蒙中医院宿舍1号楼、2号楼、3号楼","full_address":"内蒙古自治区包头市东河区南圪洞街道办事处菜园街商委楼1号楼、2号楼，五金楼1号楼、2号楼，蒙中医院宿舍1号楼、2号楼、3号楼","info":""}},{"type":"Feature","geometry":{"type":"Point","coordinates":[109.839409,40.673351]},"properties":{"province":"内蒙古自治区","city":"包头市","county":"昆都仑区","community":"龙昱华府小区1号楼","full_address":"内蒙古自治区包头市昆都仑区龙昱华府小区1号楼","info":""}},{"type":"Feature","geometry":{"type":"Point","coordinates":[109.79996,40.657478]},"properties":{"province":"内蒙古自治区","city":"包头市","county":"昆都仑区","community":"华和园2号楼","full_address":"内蒙古自治区包头市昆都仑区华和园2号楼","info":""}},{"type":"Feature","geometry":{"type":"Point","coordinates":[109.828835,40.61805]},"properties":{"province":"内蒙古自治区","city":"包头市","county":"昆都仑区","community":"松石名第小区1号楼","full_address":"内蒙古自治区包头市昆都仑区松石名第小区1号楼","info":""}},{"type":"Feature","geometry":{"type":"Point","coordinates":[109.820389,40.62801]},"properties":{"province":"内蒙古自治区","city":"包头市","county":"昆都仑区","community":"东亚世纪城文芳苑小区2号楼","full_address":"内蒙古自治区包头市昆都仑区东亚世纪城文芳苑小区2号楼","info":""}},{"type":"Feature","geometry":{"type":"Point","coordinates":[109.844391,40.698841]},"properties":{"province":"内蒙古自治区","city":"包头市","county":"昆都仑区","community":"前口子新村（民族西路以东区域）","full_address":"内蒙古自治区包头市昆都仑区前口子新村（民族西路以东区域）","info":""}},{"type":"Feature","geometry":{"type":"Point","coordinates":[0,0]},"properties":{"province":"内蒙古自治区","city":"包头市","county":"昆都仑区","community":"友谊17#街坊8号楼","full_address":"内蒙古自治区包头市昆都仑区友谊17#街坊8号楼","info":""}},{"type":"Feature","geometry":{"type":"Point","coordinates":[0,0]},"properties":{"province":"内蒙古自治区","city":"包头市","county":"昆都仑区","community":"少先26#街坊894号楼","full_address":"内蒙古自治区包头市昆都仑区少先26#街坊894号楼","info":""}},{"type":"Feature","geometry":{"type":"Point","coordinates":[0,0]},"properties":{"province":"内蒙古自治区","city":"包头市","county":"昆都仑区","community":"团11#街坊广源小区5号楼","full_address":"内蒙古自治区包头市昆都仑区团11#街坊广源小区5号楼","info":""}},{"type":"Feature","geometry":{"type":"Point","coordinates":[109.816284,40.6745]},"properties":{"province":"内蒙古自治区","city":"包头市","county":"昆都仑区","community":"明日星城文景苑小区（北院）5号楼","full_address":"内蒙古自治区包头市昆都仑区明日星城文景苑小区（北院）5号楼","info":""}},{"type":"Feature","geometry":{"type":"Point","coordinates":[0,0]},"properties":{"province":"内蒙古自治区","city":"包头市","county":"昆都仑区","community":"钢甲24#街坊17号楼","full_address":"内蒙古自治区包头市昆都仑区钢甲24#街坊17号楼","info":""}},{"type":"Feature","geometry":{"type":"Point","coordinates":[0,0]},"properties":{"province":"内蒙古自治区","city":"包头市","county":"昆都仑区","community":"友谊23#街坊政府楼（住宅楼）","full_address":"内蒙古自治区包头市昆都仑区友谊23#街坊政府楼（住宅楼）","info":""}},{"type":"Feature","geometry":{"type":"Point","coordinates":[0,0]},"properties":{"province":"内蒙古自治区","city":"包头市","county":"昆都仑区","community":"钢38#街坊5号楼","full_address":"内蒙古自治区包头市昆都仑区钢38#街坊5号楼","info":""}},{"type":"Feature","geometry":{"type":"Point","coordinates":[109.816528,40.640591]},"properties":{"province":"内蒙古自治区","city":"包头市","county":"昆都仑区","community":"友谊19小区五区粮食局1栋","full_address":"内蒙古自治区包头市昆都仑区友谊19小区五区粮食局1栋","info":""}},{"type":"Feature","geometry":{"type":"Point","coordinates":[109.812317,40.657978]},"properties":{"province":"内蒙古自治区","city":"包头市","county":"昆都仑区","community":"世贸大酒店","full_address":"内蒙古自治区包头市昆都仑区世贸大酒店","info":""}},{"type":"Feature","geometry":{"type":"Point","coordinates":[109.808304,40.641003]},"properties":{"province":"内蒙古自治区","city":"包头市","county":"昆都仑区","community":"禧瑞都一期14号楼","full_address":"内蒙古自治区包头市昆都仑区禧瑞都一期14号楼","info":""}},{"type":"Feature","geometry":{"type":"Point","coordinates":[0,0]},"properties":{"province":"内蒙古自治区","city":"包头市","county":"昆都仑区","community":"友谊19#街坊二区32号楼","full_address":"内蒙古自治区包头市昆都仑区友谊19#街坊二区32号楼","info":""}},{"type":"Feature","geometry":{"type":"Point","coordinates":[110.4021,41.177582]},"properties":{"province":"内蒙古自治区","city":"包头市","county":"昆都仑区","community":"南排三组西村2-19栋","full_address":"内蒙古自治区包头市昆都仑区南排三组西村2-19栋","info":""}},{"type":"Feature","geometry":{"type":"Point","coordinates":[109.809235,40.6432]},"properties":{"province":"内蒙古自治区","city":"包头市","county":"昆都仑区","community":"禧瑞都二期1号楼","full_address":"内蒙古自治区包头市昆都仑区禧瑞都二期1号楼","info":""}},{"type":"Feature","geometry":{"type":"Point","coordinates":[109.842911,40.687881]},"properties":{"province":"内蒙古自治区","city":"包头市","county":"昆都仑区","community":"甲尔坝农贸（粮油）市场东墙以西、阿尔丁北大街以东、甲尔坝农贸（粮油）市场北墙以南，青山路以北区域","full_address":"内蒙古自治区包头市昆都仑区甲尔坝农贸（粮油）市场东墙以西、阿尔丁北大街以东、甲尔坝农贸（粮油）市场北墙以南，青山路以北区域","info":""}},{"type":"Feature","geometry":{"type":"Point","coordinates":[109.880325,40.644325]},"properties":{"province":"内蒙古自治区","city":"包头市","county":"青山区","community":"安泰华庭1号楼","full_address":"内蒙古自治区包头市青山区安泰华庭1号楼","info":""}},{"type":"Feature","geometry":{"type":"Point","coordinates":[109.862961,40.678322]},"properties":{"province":"内蒙古自治区","city":"包头市","county":"青山区","community":"锦林花园39栋","full_address":"内蒙古自治区包头市青山区锦林花园39栋","info":""}},{"type":"Feature","geometry":{"type":"Point","coordinates":[109.854553,40.669109]},"properties":{"province":"内蒙古自治区","city":"包头市","county":"青山区","community":"迎宾小区1号街坊四运院1栋","full_address":"内蒙古自治区包头市青山区迎宾小区1号街坊四运院1栋","info":""}},{"type":"Feature","geometry":{"type":"Point","coordinates":[109.862961,40.678322]},"properties":{"province":"内蒙古自治区","city":"包头市","county":"青山区","community":"锦林花园50栋","full_address":"内蒙古自治区包头市青山区锦林花园50栋","info":""}},{"type":"Feature","geometry":{"type":"Point","coordinates":[109.87345,40.67759]},"properties":{"province":"内蒙古自治区","city":"包头市","county":"青山区","community":"富强路10号街坊3栋","full_address":"内蒙古自治区包头市青山区富强路10号街坊3栋","info":""}},{"type":"Feature","geometry":{"type":"Point","coordinates":[109.969948,40.60038]},"properties":{"province":"内蒙古自治区","city":"包头市","county":"九原区","community":"沙河街道教育新型楼","full_address":"内蒙古自治区包头市九原区沙河街道教育新型楼","info":""}},{"type":"Feature","geometry":{"type":"Point","coordinates":[109.984161,40.583771]},"properties":{"province":"内蒙古自治区","city":"包头市","county":"九原区","community":"沙河街道北梁新区西一区东区23号楼","full_address":"内蒙古自治区包头市九原区沙河街道北梁新区西一区东区23号楼","info":""}},{"type":"Feature","geometry":{"type":"Point","coordinates":[109.865128,40.579281]},"properties":{"province":"内蒙古自治区","city":"包头市","county":"九原区","community":"麻池镇东壕口村永土路以东，包哈线以南，养鸡厂巷以西，村委员会广场东西路以北","full_address":"内蒙古自治区包头市九原区麻池镇东壕口村永土路以东，包哈线以南，养鸡厂巷以西，村委员会广场东西路以北","info":""}},{"type":"Feature","geometry":{"type":"Point","coordinates":[109.984161,40.583771]},"properties":{"province":"内蒙古自治区","city":"包头市","county":"九原区","community":"沙河街道北梁新区西一区16号楼","full_address":"内蒙古自治区包头市九原区沙河街道北梁新区西一区16号楼","info":""}},{"type":"Feature","geometry":{"type":"Point","coordinates":[109.981209,40.622211]},"properties":{"province":"内蒙古自治区","city":"包头市","county":"九原区","community":"白音席勒街道龙苑C区30号楼","full_address":"内蒙古自治区包头市九原区白音席勒街道龙苑C区30号楼","info":""}},{"type":"Feature","geometry":{"type":"Point","coordinates":[110.776207,40.610931]},"properties":{"province":"内蒙古自治区","city":"包头市","county":"土默特右旗","community":"美岱召镇协力气村","full_address":"内蒙古自治区包头市土默特右旗美岱召镇协力气村","info":""}},{"type":"Feature","geometry":{"type":"Point","coordinates":[106.813599,39.682281]},"properties":{"province":"内蒙古自治区","city":"乌海市","county":"海勃湾区","community":"凤凰岭街道长青社区锦馨园小区","full_address":"内蒙古自治区乌海市海勃湾区凤凰岭街道长青社区锦馨园小区","info":""}},{"type":"Feature","geometry":{"type":"Point","coordinates":[106.831444,39.677242]},"properties":{"province":"内蒙古自治区","city":"乌海市","county":"海勃湾区","community":"惜缘小区","full_address":"内蒙古自治区乌海市海勃湾区惜缘小区","info":""}},{"type":"Feature","geometry":{"type":"Point","coordinates":[106.813431,39.68132]},"properties":{"province":"内蒙古自治区","city":"乌海市","county":"海勃湾区","community":"锦馨园公寓","full_address":"内蒙古自治区乌海市海勃湾区锦馨园公寓","info":""}},{"type":"Feature","geometry":{"type":"Point","coordinates":[106.88578,39.44173]},"properties":{"province":"内蒙古自治区","city":"乌海市","county":"海南区","community":"泽园西区11号楼","full_address":"内蒙古自治区乌海市海南区泽园西区11号楼","info":""}},{"type":"Feature","geometry":{"type":"Point","coordinates":[106.884163,39.437778]},"properties":{"province":"内蒙古自治区","city":"乌海市","county":"海南区","community":"西卓子山街道办事处西卓子山街1街坊44号楼","full_address":"内蒙古自治区乌海市海南区西卓子山街道办事处西卓子山街1街坊44号楼","info":""}},{"type":"Feature","geometry":{"type":"Point","coordinates":[106.821808,39.427273]},"properties":{"province":"内蒙古自治区","city":"乌海市","county":"海南区","community":"西卓子山街道办事处河南平房区5排1栋1-5号、2栋1-8号，4排8栋1-8号、9栋1-8号","full_address":"内蒙古自治区乌海市海南区西卓子山街道办事处河南平房区5排1栋1-5号、2栋1-8号，4排8栋1-8号、9栋1-8号","info":""}},{"type":"Feature","geometry":{"type":"Point","coordinates":[118.98867,42.283794]},"properties":{"province":"内蒙古自治区","city":"赤峰市","county":"红山区","community":"东城街道赤钢家属院小区2号楼","full_address":"内蒙古自治区赤峰市红山区东城街道赤钢家属院小区2号楼","info":""}},{"type":"Feature","geometry":{"type":"Point","coordinates":[118.999908,42.291641]},"properties":{"province":"内蒙古自治区","city":"赤峰市","county":"红山区","community":"东城街道润泰家园2号楼1单元","full_address":"内蒙古自治区赤峰市红山区东城街道润泰家园2号楼1单元","info":""}},{"type":"Feature","geometry":{"type":"Point","coordinates":[118.991776,42.288143]},"properties":{"province":"内蒙古自治区","city":"赤峰市","county":"红山区","community":"东城街道电线电缆厂小区1号楼1单元","full_address":"内蒙古自治区赤峰市红山区东城街道电线电缆厂小区1号楼1单元","info":""}},{"type":"Feature","geometry":{"type":"Point","coordinates":[118.98867,42.283794]},"properties":{"province":"内蒙古自治区","city":"赤峰市","county":"红山区","community":"东城街道电厂1号楼3单元","full_address":"内蒙古自治区赤峰市红山区东城街道电厂1号楼3单元","info":""}},{"type":"Feature","geometry":{"type":"Point","coordinates":[118.98703,42.267071]},"properties":{"province":"内蒙古自治区","city":"赤峰市","county":"红山区","community":"铁南街道机务段小区34号楼2单元","full_address":"内蒙古自治区赤峰市红山区铁南街道机务段小区34号楼2单元","info":""}},{"type":"Feature","geometry":{"type":"Point","coordinates":[119.000298,42.28392]},"properties":{"province":"内蒙古自治区","city":"赤峰市","county":"红山区","community":"东城街道二毛四生活区38号楼2单元","full_address":"内蒙古自治区赤峰市红山区东城街道二毛四生活区38号楼2单元","info":""}},{"type":"Feature","geometry":{"type":"Point","coordinates":[118.99967,42.29053]},"properties":{"province":"内蒙古自治区","city":"赤峰市","county":"红山区","community":"东城街道龙景小区4号楼2单元","full_address":"内蒙古自治区赤峰市红山区东城街道龙景小区4号楼2单元","info":""}},