{"type":"FeatureCollection","features":[{"type":"Feature","geometry":{"type":"Point","coordinates":[116.36220872043691,39.80826632589913]},"properties":{"full_address":"北京市丰台区南苑街道范家庄北街1号院4号楼"}},{"type":"Feature","geometry":{"type":"Point","coordinates":[116.16655719206729,39.87012956810297]},"properties":{"full_address":"北京市丰台区北宫镇盛德东兴家园西区2号楼风险户"}},{"type":"Feature","geometry":{"type":"Point","coordinates":[116.16655719206729,39.87012956810297]},"properties":{"full_address":"北京市丰台区北宫镇盛德东兴家园西区4号楼2单元风险户"}},{"type":"Feature","geometry":{"type":"Point","coordinates":[116.16655719206729,39.87012956810297]},"properties":{"full_address":"北京市丰台区北宫镇盛德东兴西区6号楼1单元风险户"}},{"type":"Feature","geometry":{"type":"Point","coordinates":[116.16736423712258,39.86969842312595]},"properties":{"full_address":"北京市丰台区北宫镇盛德东兴西区8号楼1单元风险户"}},{"type":"Feature","geometry":{"type":"Point","coordinates":[116.16736423712258,39.86969842312595]},"properties":{"full_address":"北京市丰台区北宫镇盛德东兴西区8号楼2单元风险户"}},{"type":"Feature","geometry":{"type":"Point","coordinates":[116.19075187434224,39.87590751276189]},"properties":{"full_address":"北京市丰台区北宫镇园博园Soho3号楼2单元风险户"}},{"type":"Feature","geometry":{"type":"Point","coordinates":[116.29248087212488,39.969454624475354]},"properties":{"full_address":"北京市海淀区海淀街道碧水云天社区万城华府海园17号楼2单元"}},{"type":"Feature","geometry":{"type":"Point","coordinates":[116.29435416292617,39.97030866161002]},"properties":{"full_address":"北京市海淀区海淀街道碧水云天社区万城华府龙园10号楼1单元"}},{"type":"Feature","geometry":{"type":"Point","coordinates":[116.31048822611989,39.986251012538304]},"properties":{"full_address":"北京市海淀区海淀街道海淀路19-1号九层海阳光旅馆"}},{"type":"Feature","geometry":{"type":"Point","coordinates":[116.30824858203475,39.97327979772967]},"properties":{"full_address":"北京市海淀区海淀街道海淀南路南社区沁园公寓"}},{"type":"Feature","geometry":{"type":"Point","coordinates":[116.31008261927886,39.967450252051805]},"properties":{"full_address":"北京市海淀区海淀街道人大南社区5号楼"}},{"type":"Feature","geometry":{"type":"Point","coordinates":[116.3181757888214,39.9668070646695]},"properties":{"full_address":"北京市海淀区海淀街道三环社区老楼5单元"}},{"type":"Feature","geometry":{"type":"Point","coordinates":[116.28964006464663,39.971824194243055]},"properties":{"full_address":"北京市海淀区海淀街道水云天社区万城华府玺园16号楼"}},{"type":"Feature","geometry":{"type":"Point","coordinates":[116.3042011440888,39.98178077871596]},"properties":{"full_address":"北京市海淀区海淀街道苏州街路社区大河庄苑3号楼5单元"}},{"type":"Feature","geometry":{"type":"Point","coordinates":[116.30401708341228,39.98120567798671]},"properties":{"full_address":"北京市海淀区海淀街道苏州街路社区大河庄苑5号楼2单元及地下室"}},{"type":"Feature","geometry":{"type":"Point","coordinates":[116.30354245328743,39.980839725624534]},"properties":{"full_address":"北京市海淀区海淀街道苏州街路社区港沟南1号楼3单元"}},{"type":"Feature","geometry":{"type":"Point","coordinates":[116.30267383994816,39.98074209745722]},"properties":{"full_address":"北京市海淀区海淀街道苏州街路社区港沟南2号楼2单元"}},{"type":"Feature","geometry":{"type":"Point","coordinates":[116.30709794109036,39.981481049744694]},"properties":{"full_address":"北京市海淀区海淀街道苏州街路社区中湾国际G座"}},{"type":"Feature","geometry":{"type":"Point","coordinates":[116.30765843810951,39.98180155099653]},"properties":{"full_address":"北京市海淀区海淀街道苏州街路社区中湾国际H座"}},{"type":"Feature","geometry":{"type":"Point","coordinates":[116.28964006464663,39.971824194243055]},"properties":{"full_address":"北京市海淀区海淀街道碧水云天社区万城华府玺园16号楼"}},{"type":"Feature","geometry":{"type":"Point","coordinates":[116.35168032712102,39.993818793366785]},"properties":{"full_address":"北京市海淀区学院路街道马家沟平房区"}},{"type":"Feature","geometry":{"type":"Point","coordinates":[116.31060687928904,39.9531648962058]},"properties":{"full_address":"北京市海淀区西北旺（地区）镇宫悦园6号楼"}},{"type":"Feature","geometry":{"type":"Point","coordinates":[116.24787960910457,40.03704007997055]},"properties":{"full_address":"北京市海淀区西北旺（地区）镇韩家川村91号"}},{"type":"Feature","geometry":{"type":"Point","coordinates":[116.24787960910457,40.03704007997055]},"properties":{"full_address":"北京市海淀区西北旺（地区）镇韩家川村川路45号"}},{"type":"Feature","geometry":{"type":"Point","coordinates":[116.24787960910457,40.03704007997055]},"properties":{"full_address":"北京市海淀区西北旺（地区）镇韩家川村南街5号"}},{"type":"Feature","geometry":{"type":"Point","coordinates":[116.27254037685539,40.07572924184627]},"properties":{"full_address":"北京市海淀区西北旺（地区）镇航五院社区21号楼"}},{"type":"Feature","geometry":{"type":"Point","coordinates":[116.22086638394445,40.030675647596404]},"properties":{"full_address":"北京市海淀区西北旺（地区）镇冷泉村红英小学对面"}},{"type":"Feature","geometry":{"type":"Point","coordinates":[116.26368945392127,40.04862140336944]},"properties":{"full_address":"北京市海淀区西北旺（地区）镇冷泉村南街184号"}},{"type":"Feature","geometry":{"type":"Point","coordinates":[116.22396997353579,40.03402948030023]},"properties":{"full_address":"北京市海淀区西北旺（地区）镇冷泉村小羊坊20号"}},{"type":"Feature","geometry":{"type":"Point","coordinates":[116.2553604907556,40.06656080239682]},"properties":{"full_address":"北京市海淀区西北旺（地区）镇六里屯社区五区3号楼2单元"}},{"type":"Feature","geometry":{"type":"Point","coordinates":[116.26273338169885,40.09005596445001]},"properties":{"full_address":"北京市海淀区西北旺（地区）镇青棠湾B3号4单元"}},{"type":"Feature","geometry":{"type":"Point","coordinates":[116.2655484893021,40.09070496209079]},"properties":{"full_address":"北京市海淀区西北旺（地区）镇青棠湾B9楼3单元"}},{"type":"Feature","geometry":{"type":"Point","coordinates":[116.27624506273648,40.06796645837983]},"properties":{"full_address":"北京市海淀区西北旺（地区）镇唐家岭社区T05-5-1"}},{"type":"Feature","geometry":{"type":"Point","coordinates":[116.27624506273648,40.06796645837983]},"properties":{"full_address":"北京市海淀区西北旺（地区）镇唐家岭社区T09-10-4"}},{"type":"Feature","geometry":{"type":"Point","coordinates":[116.26851845282977,40.06070317953312]},"properties":{"full_address":"北京市海淀区西北旺（地区）镇土井家园T03-1-1"}},{"type":"Feature","geometry":{"type":"Point","coordinates":[116.2184446399502,40.033805132977164]},"properties":{"full_address":"北京市海淀区西北旺（地区）镇西山林语社区21号楼3单元"}},{"type":"Feature","geometry":{"type":"Point","coordinates":[116.25692965063799,40.08665339266505]},"properties":{"full_address":"北京市海淀区西北旺（地区）镇友谊嘉园中里7号楼1单元"}},{"type":"Feature","geometry":{"type":"Point","coordinates":[116.361847,39.972874]},"properties":{"full_address":"北京市海淀区上地街道马连洼北路1号院三车间"}},{"type":"Feature","geometry":{"type":"Point","coordinates":[116.64823155233795,39.91235796454902]},"properties":{"full_address":"北京市通州区永顺（地区）镇永顺南街230号院2单元2层病家"}},{"type":"Feature","geometry":{"type":"Point","coordinates":[116.64408320073899,39.91202992619391]},"properties":{"full_address":"北京市通州区永顺（地区）镇永顺南街306号楼1单元5层病家"}},{"type":"Feature","geometry":{"type":"Point","coordinates":[116.67999832813953,40.0041921716039]},"properties":{"full_address":"北京市通州区宋庄镇北窑上村9号"}},{"type":"Feature","geometry":{"type":"Point","coordinates":[116.746720728747,39.92138534391766]},"properties":{"full_address":"北京市通州区宋庄镇菜园村6号"}},{"type":"Feature","geometry":{"type":"Point","coordinates":[116.69017949592049,39.970284246191575]},"properties":{"full_address":"北京市通州区宋庄镇双埠头村99号"}},{"type":"Feature","geometry":{"type":"Point","coordinates":[116.69017949592049,39.970284246191575]},"properties":{"full_address":"北京市通州区宋庄镇双埠头村823号"}},{"type":"Feature","geometry":{"type":"Point","coordinates":[116.55871585559716,39.76391041492156]},"properties":{"full_address":"北京市通州区马驹桥镇二街村福星公寓1号楼2层病例户及周边4户"}},{"type":"Feature","geometry":{"type":"Point","coordinates":[113.57096393622383,37.85343296411914]},"properties":{"full_address":"山西省阳泉市城区南山路街道阳泉市医养康复医院"}},{"type":"Feature","geometry":{"type":"Point","coordinates":[113.60110127465637,37.844950987088424]},"properties":{"full_address":"山西省阳泉市城区义井街道义井新村802号楼2单元"}},{"type":"Feature","geometry":{"type":"Point","coordinates":[113.59955237475658,37.84288253255866]},"properties":{"full_address":"山西省阳泉市城区义井街道义井新村905号楼1单元"}},{"type":"Feature","geometry":{"type":"Point","coordinates":[113.59252713967449,37.85363991456339]},"properties":{"full_address":"山西省阳泉市城区上站街道观象台10号楼1单元"}},{"type":"Feature","geometry":{"type":"Point","coordinates":[113.59439138699524,37.855040781910255]},"properties":{"full_address":"山西省阳泉市城区上站街道观象台铁路小区8号楼3单元"}},{"type":"Feature","geometry":{"type":"Point","coordinates":[113.5918810248185,37.85841606094342]},"properties":{"full_address":"山西省阳泉市城区下站街道佳园小区4号楼4单元"}},{"type":"Feature","geometry":{"type":"Point","coordinates":[113.59431620012658,37.85923923318897]},"properties":{"full_address":"山西省阳泉市城区下站街道东营盘19号楼1单元"}},{"type":"Feature","geometry":{"type":"Point","coordinates":[113.57673670068576,37.84844939076633]},"properties":{"full_address":"山西省阳泉市城区南山路街道育英学校"}},{"type":"Feature","geometry":{"type":"Point","coordinates":[113.58944959321988,37.846281934306816]},"properties":{"full_address":"山西省阳泉市城区南山路街道超威电池电动车修理部"}},{"type":"Feature","geometry":{"type":"Point","coordinates":[113.58685402845788,37.84676319969624]},"properties":{"full_address":"山西省阳泉市城区南山路街道城区消防小区26号楼1单元"}},{"type":"Feature","geometry":{"type":"Point","coordinates":[113.5774095678557,37.852910183232076]},"properties":{"full_address":"山西省阳泉市城区南山路街道气象局26号楼3单元"}},{"type":"Feature","geometry":{"type":"Point","coordinates":[113.58402395919754,37.83857001923354]},"properties":{"full_address":"山西省阳泉市城区南山路街道瑞康小区2号楼1单元"}},{"type":"Feature","geometry":{"type":"Point","coordinates":[113.58082970942046,37.84998990176306]},"properties":{"full_address":"山西省阳泉市城区南山路街道朝阳街25号楼4单元"}},{"type":"Feature","geometry":{"type":"Point","coordinates":[113.59458782190205,37.8465692229339]},"properties":{"full_address":"山西省阳泉市城区义井街道鸿龙小区1期4号楼1单元"}},{"type":"Feature","geometry":{"type":"Point","coordinates":[113.60032927284136,37.83975590371829]},"properties":{"full_address":"山西省阳泉市城区义井街道义北小区6号楼3单元"}},{"type":"Feature","geometry":{"type":"Point","coordinates":[113.57106,37.853321]},"properties":{"full_address":"山西省阳泉市城区南山路街道北岭坡55号阳泉市医养康复医院"}},{"type":"Feature","geometry":{"type":"Point","coordinates":[113.5820543666861,37.86546962064184]},"properties":{"full_address":"山西省阳泉市城区北大街街道玛丽购物中心"}},{"type":"Feature","geometry":{"type":"Point","coordinates":[113.58107386737561,37.7587028508168]},"properties":{"full_address":"山西省阳泉市矿区贵石沟街道苏村社区大井改造楼3号楼"}},{"type":"Feature","geometry":{"type":"Point","coordinates":[113.51753817627427,37.89723343196561]},"properties":{"full_address":"山西省阳泉市矿区沙坪街道里沙坪社区路北3号楼2单元"}},{"type":"Feature","geometry":{"type":"Point","coordinates":[113.51798970626425,37.898790213274346]},"properties":{"full_address":"山西省阳泉市矿区沙坪街道桥南园社区蒙河12号楼"}},{"type":"Feature","geometry":{"type":"Point","coordinates":[113.56376988236129,37.87671154612931]},"properties":{"full_address":"山西省阳泉市矿区平潭街街道育才花园5号楼1单元"}},{"type":"Feature","geometry":{"type":"Point","coordinates":[113.55923765927342,37.87536858204757]},"properties":{"full_address":"山西省阳泉市矿区平潭街街道东山西区21号楼3单元"}},{"type":"Feature","geometry":{"type":"Point","coordinates":[113.579092226898,37.76946956395903]},"properties":{"full_address":"山西省阳泉市矿区贵石沟街道小河滩社区23号楼1单元"}},{"type":"Feature","geometry":{"type":"Point","coordinates":[113.579092226898,37.76946956395903]},"properties":{"full_address":"山西省阳泉市矿区贵石沟街道小河滩社区23号楼3单元"}},{"type":"Feature","geometry":{"type":"Point","coordinates":[113.579092226898,37.76946956395903]},"properties":{"full_address":"山西省阳泉市矿区贵石沟街道小河滩社区23号楼4单元"}},{"type":"Feature","geometry":{"type":"Point","coordinates":[113.58107386737561,37.7587028508168]},"properties":{"full_address":"山西省阳泉市矿区贵石沟街道苏村社区大井4号楼"}},{"type":"Feature","geometry":{"type":"Point","coordinates":[113.59486196235912,37.77218837135949]},"properties":{"full_address":"山西省阳泉市矿区贵石沟街道水滩社区水一区2号楼4单元"}},{"type":"Feature","geometry":{"type":"Point","coordinates":[113.59486196235912,37.77218837135949]},"properties":{"full_address":"山西省阳泉市矿区贵石沟街道水滩社区水二区11号楼2单元"}},{"type":"Feature","geometry":{"type":"Point","coordinates":[113.51860918369033,37.90775039527193]},"properties":{"full_address":"山西省阳泉市矿区沙坪街道蒙北社区向阳小区20号楼5单元"}},{"type":"Feature","geometry":{"type":"Point","coordinates":[113.56585774969527,37.93983329057774]},"properties":{"full_address":"山西省阳泉市郊区荫营镇：荫营镇街上村福地园小区3号楼3单元"}},{"type":"Feature","geometry":{"type":"Point","coordinates":[113.44449942735763,37.858011995519604]},"properties":{"full_address":"山西省阳泉市郊区平坦镇：平坦镇坡头村14号"}},{"type":"Feature","geometry":{"type":"Point","coordinates":[113.44449942735763,37.858011995519604]},"properties":{"full_address":"山西省阳泉市郊区平坦镇：平坦镇坡头村135号"}},{"type":"Feature","geometry":{"type":"Point","coordinates":[113.42926014910215,37.888043593046284]},"properties":{"full_address":"山西省阳泉市郊区平坦镇芦湖村8号楼2单元"}},{"type":"Feature","geometry":{"type":"Point","coordinates":[113.42926014910215,37.888043593046284]},"properties":{"full_address":"山西省阳泉市郊区平坦镇芦湖村5号楼1单元"}},{"type":"Feature","geometry":{"type":"Point","coordinates":[113.42926014910215,37.888043593046284]},"properties":{"full_address":"山西省阳泉市郊区平坦镇芦湖村5号楼4单元"}},{"type":"Feature","geometry":{"type":"Point","coordinates":[113.47778995464972,37.86893914693765]},"properties":{"full_address":"山西省阳泉市郊区平坦镇辛兴新村8号楼1单元"}},{"type":"Feature","geometry":{"type":"Point","coordinates":[113.41826326546952,38.07790741595363]},"properties":{"full_address":"山西省阳泉市盂县友谊宾馆（239国道旁）"}},{"type":"Feature","geometry":{"type":"Point","coordinates":[113.41340547526428,38.08748528132627]},"properties":{"full_address":"山西省阳泉市盂县红楼社区金龙小区3号楼6单元"}},{"type":"Feature","geometry":{"type":"Point","coordinates":[113.41936745514795,38.11180089842292]},"properties":{"full_address":"山西省阳泉市盂县站前街缘森足浴养生会所"}},{"type":"Feature","geometry":{"type":"Point","coordinates":[113.4177910775157,38.07833256251208]},"properties":{"full_address":"山西省阳泉市盂县秀水镇南村保鲜蔬菜市场"}},{"type":"Feature","geometry":{"type":"Point","coordinates":[113.39398812051859,38.09049489654688]},"properties":{"full_address":"山西省阳泉市盂县盛泰快捷酒家"}},{"type":"Feature","geometry":{"type":"Point","coordinates":[113.48914004886045,38.03675004494946]},"properties":{"full_address":"山西省阳泉市盂县路家村镇清城村公路道班"}},{"type":"Feature","geometry":{"type":"Point","coordinates":[113.41200047453567,38.08569927770751]},"properties":{"full_address":"山西省阳泉市盂县239国道晋南饭店（长途客运站附近）"}},{"type":"Feature","geometry":{"type":"Point","coordinates":[113.58609233649582,37.87816112215856]},"properties":{"full_address":"山西省阳泉市高新区盛世新城南区4号楼1单元"}},{"type":"Feature","geometry":{"type":"Point","coordinates":[113.60053648559312,37.868822127952406]},"properties":{"full_address":"山西省阳泉市高新区虹桥路华驿精选酒店"}},{"type":"Feature","geometry":{"type":"Point","coordinates":[113.5763065142752,37.87727347433127]},"properties":{"full_address":"山西省阳泉市高新区居馨花园二组团1号楼3单元"}},{"type":"Feature","geometry":{"type":"Point","coordinates":[113.58099969380189,37.85669981105221]},"properties":{"full_address":"山西省阳泉市高新区侯家沟建筑工地都市兰庭宿舍3号楼"}},{"type":"Feature","geometry":{"type":"Point","coordinates":[113.6166499180625,37.86332758243471]},"properties":{"full_address":"山西省阳泉市高新区阳泉高新区东城水岸小区8号楼2单元"}},{"type":"Feature","geometry":{"type":"Point","coordinates":[113.61998,37.862493]},"properties":{"full_address":"山西省阳泉市高新区卧龙天著小区10号楼"}},{"type":"Feature","geometry":{"type":"Point","coordinates":[113.63143973231858,37.88595194640923]},"properties":{"full_address":"山西省阳泉市高新区义白路齐鑫旅店"}},{"type":"Feature","geometry":{"type":"Point","coordinates":[113.63086904312136,37.88556552768994]},"properties":{"full_address":"山西省阳泉市高新区义白路鑫盛饭店"}},{"type":"Feature","geometry":{"type":"Point","coordinates":[113.58099969380189,37.85669981105221]},"properties":{"full_address":"山西省阳泉市高新区智创城C栋"}},{"type":"Feature","geometry":{"type":"Point","coordinates":[113.16890017590303,36.22011794329532]},"properties":{"full_address":"山西省长治市潞州区老顶山街道嶂头村"}},{"type":"Feature","geometry":{"type":"Point","coordinates":[113.1632937766021,36.16213057402263]},"properties":{"full_address":"山西省长治市潞州区老顶山街道大天桥村天桥新苑小区"}},{"type":"Feature","geometry":{"type":"Point","coordinates":[113.13393173340198,36.154266582387855]},"properties":{"full_address":"山西省长治市潞州区五马街道塔岭小区"}},{"type":"Feature","geometry":{"type":"Point","coordinates":[113.08193742181778,36.203079687747234]},"properties":{"full_address":"山西省长治市潞州区常青街道邱村西小区"}},{"type":"Feature","geometry":{"type":"Point","coordinates":[113.11952534653506,36.15680777167269]},"properties":{"full_address":"山西省长治市潞州区延南街道清华北区东苑"}},{"type":"Feature","geometry":{"type":"Point","coordinates":[113.10808122194041,36.15083704538649]},"properties":{"full_address":"山西省长治市潞州区广播艺术学校家属院"}},{"type":"Feature","geometry":{"type":"Point","coordinates":[113.1265222547281,36.3692063831979]},"properties":{"full_address":"山西省长治市潞州区黄碾镇黄北村"}},{"type":"Feature","geometry":{"type":"Point","coordinates":[113.12300005222556,36.20359949685752]},"properties":{"full_address":"山西省长治市潞州区屯留康庄航天工业园区"}},{"type":"Feature","geometry":{"type":"Point","coordinates":[113.13809791959355,36.1575733409273]},"properties":{"full_address":"山西省长治市潞州区五马街道南石槽村"}},{"type":"Feature","geometry":{"type":"Point","coordinates":[113.13346254968685,36.156234064906464]},"properties":{"full_address":"山西省长治市潞州区五马街道岭南御花苑小区"}},{"type":"Feature","geometry":{"type":"Point","coordinates":[113.13469347737026,36.15763978942331]},"properties":{"full_address":"山西省长治市潞州区延南街道东山美居一期小区"}},{"type":"Feature","geometry":{"type":"Point","coordinates":[113.12306329892955,36.15585534436561]},"properties":{"full_address":"山西省长治市潞州区位于延南街道的山西航天清华装备有限公司主厂区全域"}},{"type":"Feature","geometry":{"type":"Point","coordinates":[113.15488985025809,36.21389194696771]},"properties":{"full_address":"山西省长治市潞州区老顶山街道关村康乐苑小区"}},{"type":"Feature","geometry":{"type":"Point","coordinates":[113.11834605625343,36.30042591722773]},"properties":{"full_address":"山西省长治市潞州区马厂镇张庄村"}},{"type":"Feature","geometry":{"type":"Point","coordinates":[113.10378199222421,36.18520336518501]},"properties":{"full_address":"山西省长治市潞州区位于马厂镇的海鸥双创基地"}},{"type":"Feature","geometry":{"type":"Point","coordinates":[113.1242462992784,36.365662292951605]},"properties":{"full_address":"山西省长治市潞州区黄碾镇黄中村"}},{"type":"Feature","geometry":{"type":"Point","coordinates":[113.12442429087017,36.3599123995973]},"properties":{"full_address":"山西省长治市潞州区黄碾镇黄南村"}},{"type":"Feature","geometry":{"type":"Point","coordinates":[113.08631657680552,36.18172599543535]},"properties":{"full_address":"山西省长治市潞州区西街街道和睦佳园"}},{"type":"Feature","geometry":{"type":"Point","coordinates":[113.11057621193069,36.1611278022544]},"properties":{"full_address":"山西省长治市潞州区延南街道淮海七院小区"}},{"type":"Feature","geometry":{"type":"Point","coordinates":[113.10082025213141,36.13950987126825]},"properties":{"full_address":"山西省长治市潞州区长治经开区中德集团主厂区全域"}},{"type":"Feature","geometry":{"type":"Point","coordinates":[113.07423990022251,36.43179527156474]},"properties":{"full_address":"山西省长治市潞州区西白兔镇漳村中兴洗煤厂"}},{"type":"Feature","geometry":{"type":"Point","coordinates":[112.89822342320352,36.32921117318097]},"properties":{"full_address":"山西省长治市屯留区麟绛街道西河北村滨河湾小区（单栋楼）"}},{"type":"Feature","geometry":{"type":"Point","coordinates":[112.98748547050106,36.36269146568316]},"properties":{"full_address":"山西省长治市屯留区渔泽镇北渔泽村"}},{"type":"Feature","geometry":{"type":"Point","coordinates":[113.03395277331576,36.3387901182193]},"properties":{"full_address":"山西省长治市屯留区金家庄村"}},{"type":"Feature","geometry":{"type":"Point","coordinates":[112.81811041855156,36.447197722078435]},"properties":{"full_address":"山西省长治市屯留区上莲综合服务中心交川村"}},{"type":"Feature","geometry":{"type":"Point","coordinates":[112.39410914860764,35.4862553374846]},"properties":{"full_address":"山西省晋城市阳城县阳城县凤城镇芹安社区安泽小区"}},{"type":"Feature","geometry":{"type":"Point","coordinates":[112.4154605024944,35.49714025620427]},"properties":{"full_address":"山西省晋城市阳城县阳城县凤城镇芹安社区惠泽小区"}},{"type":"Feature","geometry":{"type":"Point","coordinates":[112.49963032417567,35.364359792090525]},"properties":{"full_address":"山西省晋城市阳城县阳城县东冶镇东冶村"}},{"type":"Feature","geometry":{"type":"Point","coordinates":[112.42387385598411,35.4707940198217]},"properties":{"full_address":"山西省晋城市阳城县阳城县凤城镇坪头社区热电生活小区5号楼"}},{"type":"Feature","geometry":{"type":"Point","coordinates":[112.40116788387857,35.49866241155036]},"properties":{"full_address":"山西省晋城市阳城县阳城县凤城镇下李丘社区和谐家园4号楼"}},{"type":"Feature","geometry":{"type":"Point","coordinates":[112.38035617897998,35.521693390763055]},"properties":{"full_address":"山西省晋城市阳城县阳城县西河乡凤溪花苑小区"}},{"type":"Feature","geometry":{"type":"Point","coordinates":[112.53278187008495,35.36196646427944]},"properties":{"full_address":"山西省晋城市阳城县阳城县东冶镇古河村"}},{"type":"Feature","geometry":{"type":"Point","coordinates":[113.28263664282741,35.780210798580086]},"properties":{"full_address":"山西省晋城市陵川县陵川县人民医院血液透析室"}},{"type":"Feature","geometry":{"type":"Point","coordinates":[113.28005871946921,35.77800509995567]},"properties":{"full_address":"山西省晋城市陵川县崇文镇城北社区苇池河巷西巷"}},{"type":"Feature","geometry":{"type":"Point","coordinates":[113.28572584981556,35.77161662091269]},"properties":{"full_address":"山西省晋城市陵川县陵川一中"}},{"type":"Feature","geometry":{"type":"Point","coordinates":[113.27798960111703,35.76170995520631]},"properties":{"full_address":"山西省晋城市陵川县怡枫苑小区18号楼2单元"}},{"type":"Feature","geometry":{"type":"Point","coordinates":[113.27814005340613,35.762269509884526]},"properties":{"full_address":"山西省晋城市陵川县丽枫苑小区7号楼1单元"}},{"type":"Feature","geometry":{"type":"Point","coordinates":[113.30589500000322,35.766689604302385]},"properties":{"full_address":"山西省晋城市陵川县崇文镇仕图苑社区虹桥巷37号宋某某前后3排18户"}},{"type":"Feature","geometry":{"type":"Point","coordinates":[113.25749961429473,35.74277080057541]},"properties":{"full_address":"山西省晋城市陵川县崇文镇北四渠村全域"}},{"type":"Feature","geometry":{"type":"Point","coordinates":[113.28005871946921,35.77800509995567]},"properties":{"full_address":"山西省晋城市陵川县崇文镇城北社区小岭巷22号9排11户"}},{"type":"Feature","geometry":{"type":"Point","coordinates":[113.31144988613072,35.79079036369686]},"properties":{"full_address":"山西省晋城市陵川县崇文镇尧庄新村水站后5排17户"}},{"type":"Feature","geometry":{"type":"Point","coordinates":[113.27917635997886,35.781075806073574]},"properties":{"full_address":"山西省晋城市陵川县陵川县妇幼保健院住院部"}},{"type":"Feature","geometry":{"type":"Point","coordinates":[113.14705780765476,35.84633934901054]},"properties":{"full_address":"山西省晋城市陵川县礼义镇沙河村全域"}},{"type":"Feature","geometry":{"type":"Point","coordinates":[113.15224065560587,35.85645371497196]},"properties":{"full_address":"山西省晋城市陵川县礼义镇东沟村全域"}},{"type":"Feature","geometry":{"type":"Point","coordinates":[113.12637015596677,35.798789293303784]},"properties":{"full_address":"山西省晋城市陵川县礼义圣士达厂区全域"}},{"type":"Feature","geometry":{"type":"Point","coordinates":[112.89229681052943,35.74663730189558]},"properties":{"full_address":"山西省晋城市高平市南城办事处北陈村"}},{"type":"Feature","geometry":{"type":"Point","coordinates":[112.93066594450887,35.770627630201155]},"properties":{"full_address":"山西省晋城市高平市南城办事处龙运新城"}},{"type":"Feature","geometry":{"type":"Point","coordinates":[112.9060064498866,35.76656466268951]},"properties":{"full_address":"山西省晋城市高平市南城办事处上玉井村"}},{"type":"Feature","geometry":{"type":"Point","coordinates":[112.89651149812832,35.76634420811985]},"properties":{"full_address":"山西省晋城市高平市南城办事处梨园村"}},{"type":"Feature","geometry":{"type":"Point","coordinates":[112.94511216335012,35.77228578672837]},"properties":{"full_address":"山西省晋城市高平市南城办事处万和城小区"}},{"type":"Feature","geometry":{"type":"Point","coordinates":[112.91862160085988,35.75314292678545]},"properties":{"full_address":"山西省晋城市高平市南城办事处朴村"}},{"type":"Feature","geometry":{"type":"Point","coordinates":[112.92850781562848,35.77571278902586]},"properties":{"full_address":"山西省晋城市高平市南城办事处金桥佳苑"}},{"type":"Feature","geometry":{"type":"Point","coordinates":[112.928271614199,35.788484876570315]},"properties":{"full_address":"山西省晋城市高平市南城办事处康华苑"}},{"type":"Feature","geometry":{"type":"Point","coordinates":[112.92618996787643,35.785209372825356]},"properties":{"full_address":"山西省晋城市高平市南城办事处龙盛社区"}},{"type":"Feature","geometry":{"type":"Point","coordinates":[112.93229636923321,35.77462897038199]},"properties":{"full_address":"山西省晋城市高平市南城办事处龙渠社区"}},{"type":"Feature","geometry":{"type":"Point","coordinates":[112.92618996787643,35.785209372825356]},"properties":{"full_address":"山西省晋城市高平市南城办事处疙塔村"}},{"type":"Feature","geometry":{"type":"Point","coordinates":[112.91598232257437,35.7816506031988]},"properties":{"full_address":"山西省晋城市高平市南城办事处汤王头村"}},{"type":"Feature","geometry":{"type":"Point","coordinates":[112.7987030181607,35.72565504502384]},"properties":{"full_address":"山西省晋城市高平市马村镇唐安煤矿家属楼"}},{"type":"Feature","geometry":{"type":"Point","coordinates":[112.82489027280444,35.72630261059452]},"properties":{"full_address":"山西省晋城市高平市马村镇锦泽苑小区"}},{"type":"Feature","geometry":{"type":"Point","coordinates":[112.79993506188343,35.72451296693703]},"properties":{"full_address":"山西省晋城市高平市马村镇唐东村"}},{"type":"Feature","geometry":{"type":"Point","coordinates":[112.81798673903326,35.72769664533458]},"properties":{"full_address":"山西省晋城市高平市马村镇马村卫生院"}},{"type":"Feature","geometry":{"type":"Point","coordinates":[112.79238679964573,35.72472909207421]},"properties":{"full_address":"山西省晋城市高平市马村镇唐西村"}},{"type":"Feature","geometry":{"type":"Point","coordinates":[112.8569061439855,35.74625122429124]},"properties":{"full_address":"山西省晋城市高平市马村镇康营村"}},{"type":"Feature","geometry":{"type":"Point","coordinates":[112.77495670886822,35.7344476471212]},"properties":{"full_address":"山西省晋城市高平市马村镇永安村"}},{"type":"Feature","geometry":{"type":"Point","coordinates":[112.82080042795324,35.72846876537781]},"properties":{"full_address":"山西省晋城市高平市马村镇古寨村"}},{"type":"Feature","geometry":{"type":"Point","coordinates":[112.82148135957274,35.72899788493961]},"properties":{"full_address":"山西省晋城市高平市马村镇马村村"}},{"type":"Feature","geometry":{"type":"Point","coordinates":[112.83357487579417,35.7154009962952]},"properties":{"full_address":"山西省晋城市高平市马村镇毕家庄村"}},{"type":"Feature","geometry":{"type":"Point","coordinates":[112.9225923268508,35.80458476380125]},"properties":{"full_address":"山西省晋城市高平市北城办事处丹英小区"}},{"type":"Feature","geometry":{"type":"Point","coordinates":[112.9225923268508,35.80458476380125]},"properties":{"full_address":"山西省晋城市高平市北城办事处东山村"}},{"type":"Feature","geometry":{"type":"Point","coordinates":[112.9225923268508,35.80458476380125]},"properties":{"full_address":"山西省晋城市高平市北城办事处铺上村"}},{"type":"Feature","geometry":{"type":"Point","coordinates":[112.94201100734514,35.80113433744913]},"properties":{"full_address":"山西省晋城市高平市东城办事处天怡小区"}},{"type":"Feature","geometry":{"type":"Point","coordinates":[112.93229361804993,35.79228388865187]},"properties":{"full_address":"山西省晋城市高平市东城办事处青石苑小区"}},{"type":"Feature","geometry":{"type":"Point","coordinates":[112.93332827313128,35.78410185608773]},"properties":{"full_address":"山西省晋城市高平市东城办事处金建都小区"}},{"type":"Feature","geometry":{"type":"Point","coordinates":[112.93305200493862,35.80732382694669]},"properties":{"full_address":"山西省晋城市高平市东城办事处凤阳社区"}},{"type":"Feature","geometry":{"type":"Point","coordinates":[112.93998378082114,35.792829574306936]},"properties":{"full_address":"山西省晋城市高平市南城办事处蓝色港湾"}},{"type":"Feature","geometry":{"type":"Point","coordinates":[112.81603999314463,35.76281889387199]},"properties":{"full_address":"山西省晋城市高平市原村乡原村村"}},{"type":"Feature","geometry":{"type":"Point","coordinates":[112.7471743042295,35.74088541555514]},"properties":{"full_address":"山西省晋城市高平市原村乡里沟村"}},{"type":"Feature","geometry":{"type":"Point","coordinates":[112.8273631054516,35.74590240612955]},"properties":{"full_address":"山西省晋城市高平市原村乡狼儿掌村"}},{"type":"Feature","geometry":{"type":"Point","coordinates":[112.86973627175381,35.79511891217942]},"properties":{"full_address":"山西省晋城市高平市野川镇东沟村"}},{"type":"Feature","geometry":{"type":"Point","coordinates":[112.81507057891469,35.83031988253282]},"properties":{"full_address":"山西省晋城市高平市野川镇柳树底村"}},{"type":"Feature","geometry":{"type":"Point","coordinates":[112.97293713317082,35.87686860099678]},"properties":{"full_address":"山西省晋城市高平市神农镇团东村"}},{"type":"Feature","geometry":{"type":"Point","coordinates":[112.7987030181607,35.72565504502384]},"properties":{"full_address":"山西省晋城市高平市唐安煤矿"}},{"type":"Feature","geometry":{"type":"Point","coordinates":[112.9351912020058,35.77265400267972]},"properties":{"full_address":"山西省晋城市高平市晋煤天源化工"}},{"type":"Feature","geometry":{"type":"Point","coordinates":[112.99032599138873,35.71206306027413]},"properties":{"full_address":"山西省晋城市高平市七一煤矿"}},{"type":"Feature","geometry":{"type":"Point","coordinates":[112.8493895607425,35.792070940362564]},"properties":{"full_address":"山西省晋城市高平市野川煤矿"}},{"type":"Feature","geometry":{"type":"Point","coordinates":[112.93792325943147,35.79775955429046]},"properties":{"full_address":"山西省晋城市高平市东城办事处商贸小区"}},{"type":"Feature","geometry":{"type":"Point","coordinates":[112.93816143127151,35.796439344553335]},"properties":{"full_address":"山西省晋城市高平市东城办事处小北庄社区"}},{"type":"Feature","geometry":{"type":"Point","coordinates":[112.94259509235688,35.787867557406805]},"properties":{"full_address":"山西省晋城市高平市南城办事处南赵庄村"}},{"type":"Feature","geometry":{"type":"Point","coordinates":[112.92893377309069,35.781393987929015]},"properties":{"full_address":"山西省晋城市高平市南城办事处古城路40号"}},{"type":"Feature","geometry":{"type":"Point","coordinates":[112.8976798180765,35.78574330036197]},"properties":{"full_address":"山西省晋城市高平市南城办事处上庄村"}},{"type":"Feature","geometry":{"type":"Point","coordinates":[112.92618996787643,35.785209372825356]},"properties":{"full_address":"山西省晋城市高平市南城办事处康华社区"}},{"type":"Feature","geometry":{"type":"Point","coordinates":[112.9225923268508,35.80458476380125]},"properties":{"full_address":"山西省晋城市高平市北城办事处永禄村"}},{"type":"Feature","geometry":{"type":"Point","coordinates":[112.92056672374017,35.79796851234928]},"properties":{"full_address":"山西省晋城市高平市北城办事处粮丰小区"}},{"type":"Feature","geometry":{"type":"Point","coordinates":[112.97356760372608,35.76742519519382]},"properties":{"full_address":"山西省晋城市高平市米山镇区（米东、米西）"}},{"type":"Feature","geometry":{"type":"Point","coordinates":[112.94425580182141,35.71840516789204]},"properties":{"full_address":"山西省晋城市高平市河西镇河西村"}},{"type":"Feature","geometry":{"type":"Point","coordinates":[112.94396040434168,35.716069153357665]},"properties":{"full_address":"山西省晋城市高平市河西镇悬南村"}},{"type":"Feature","geometry":{"type":"Point","coordinates":[112.97964367916593,35.70879684709883]},"properties":{"full_address":"山西省晋城市高平市河西镇西李门村"}},{"type":"Feature","geometry":{"type":"Point","coordinates":[112.95662079570533,35.72008620648434]},"properties":{"full_address":"山西省晋城市高平市河西镇仙井村"}},{"type":"Feature","geometry":{"type":"Point","coordinates":[113.02134397656509,35.69337274112536]},"properties":{"full_address":"山西省晋城市高平市河西镇牛庄村"}},{"type":"Feature","geometry":{"type":"Point","coordinates":[112.95831867821093,35.675301889062546]},"properties":{"full_address":"山西省晋城市高平市河西镇刘庄村"}},{"type":"Feature","geometry":{"type":"Point","coordinates":[112.94654205217448,35.68755180190764]},"properties":{"full_address":"山西省晋城市高平市河西镇牛村村"}},{"type":"Feature","geometry":{"type":"Point","coordinates":[113.03475844146314,35.7050524416914]},"properties":{"full_address":"山西省晋城市高平市河西镇双井村"}},{"type":"Feature","geometry":{"type":"Point","coordinates":[112.91035505826582,35.811303703847834]},"properties":{"full_address":"山西省晋城市高平市北城办事处兰苑花园"}},{"type":"Feature","geometry":{"type":"Point","coordinates":[113.13643863836539,39.60180165376897]},"properties":{"full_address":"山西省朔州市应县金城镇西朱庄村"}},{"type":"Feature","geometry":{"type":"Point","coordinates":[113.225589524997,39.53100937875755]},"properties":{"full_address":"山西省朔州市应县金城镇龙泉村东北片区"}},{"type":"Feature","geometry":{"type":"Point","coordinates":[113.19041405257119,39.59240902452302]},"properties":{"full_address":"山西省朔州市应县金城镇五里寨村东北片区"}},{"type":"Feature","geometry":{"type":"Point","coordinates":[113.16675838955888,39.522463575473466]},"properties":{"full_address":"山西省朔州市应县金城镇小穗稔村西南片区"}},{"type":"Feature","geometry":{"type":"Point","coordinates":[113.18059059319971,39.554339104743114]},"properties":{"full_address":"山西省朔州市应县金城镇小西关路往北、永丰巷往南"}},{"type":"Feature","geometry":{"type":"Point","coordinates":[113.17660351649528,39.56399781947127]},"properties":{"full_address":"山西省朔州市应县金城镇昌北里1栋8排、6栋15排，昌南里2栋5排、5栋15排"}},{"type":"Feature","geometry":{"type":"Point","coordinates":[113.18868039133717,39.54848627229245]},"properties":{"full_address":"山西省朔州市应县金城镇清宁公园南2排、南16排"}},{"type":"Feature","geometry":{"type":"Point","coordinates":[113.18020659488153,39.563913327331086]},"properties":{"full_address":"山西省朔州市应县金城镇西苑小区9号楼3单元"}},{"type":"Feature","geometry":{"type":"Point","coordinates":[113.17997627509517,39.560103166715315]},"properties":{"full_address":"山西省朔州市应县金城镇畅和园小区11号楼2单元"}},{"type":"Feature","geometry":{"type":"Point","coordinates":[113.16524018101816,39.555229462707054]},"properties":{"full_address":"山西省朔州市应县金城镇幸福新城小区21号楼2单元"}},{"type":"Feature","geometry":{"type":"Point","coordinates":[113.20652277179595,39.55271154124145]},"properties":{"full_address":"山西省朔州市应县金城镇宝坻阁小区8号楼2单元、13号楼4单元、19号楼2单元"}},{"type":"Feature","geometry":{"type":"Point","coordinates":[113.23751550372593,39.49980687080715]},"properties":{"full_address":"山西省朔州市应县南河种镇接马峪村"}},{"type":"Feature","geometry":{"type":"Point","coordinates":[113.25394774306457,39.45458487204558]},"properties":{"full_address":"山西省朔州市应县南河种镇西崔庄村"}},{"type":"Feature","geometry":{"type":"Point","coordinates":[113.20520985221333,39.46921206554048]},"properties":{"full_address":"山西省朔州市应县南河种镇北曹山村"}},{"type":"Feature","geometry":{"type":"Point","coordinates":[112.97500017781822,37.07070050624047]},"properties":{"full_address":"山西省晋中市榆社县外贸小区2号楼4单元"}},{"type":"Feature","geometry":{"type":"Point","coordinates":[112.96982100576918,37.07997287140454]},"properties":{"full_address":"山西省晋中市榆社县广生小区4号楼3单元"}},{"type":"Feature","geometry":{"type":"Point","coordinates":[112.97387126191623,37.07078334924688]},"properties":{"full_address":"山西省晋中市榆社县府西小区6号楼1单元"}},{"type":"Feature","geometry":{"type":"Point","coordinates":[113.00313509215137,37.07722433008075]},"properties":{"full_address":"山西省晋中市榆社县惠民家园14号楼2单元"}},{"type":"Feature","geometry":{"type":"Point","coordinates":[112.9689211524523,37.082925118484816]},"properties":{"full_address":"山西省晋中市榆社县福满园10号楼1单元"}},{"type":"Feature","geometry":{"type":"Point","coordinates":[113.38158006088254,37.07686820192941]},"properties":{"full_address":"山西省晋中市左权县左权县城区东河路裕康小区1-2-102"}},{"type":"Feature","geometry":{"type":"Point","coordinates":[113.36713293361977,37.07775542461657]},"properties":{"full_address":"山西省晋中市左权县左权县城区宏远街米兰小镇4-1-902"}},{"type":"Feature","geometry":{"type":"Point","coordinates":[113.36605799026398,37.07659475504959]},"properties":{"full_address":"山西省晋中市左权县左权县城区宏远街滨河绿洲9-5-502"}},{"type":"Feature","geometry":{"type":"Point","coordinates":[113.36955559323432,37.07458458005304]},"properties":{"full_address":"山西省晋中市左权县左权县城区滨河路滨河嘉园倚云阁1-1-502"}},{"type":"Feature","geometry":{"type":"Point","coordinates":[113.36442328728003,37.08452202837437]},"properties":{"full_address":"山西省晋中市左权县左权县城区北大街帝君后院宿舍楼3-301"}},{"type":"Feature","geometry":{"type":"Point","coordinates":[113.36967001138291,37.07806943143815]},"properties":{"full_address":"山西省晋中市左权县左权县西关前街12号、后街4号"}},{"type":"Feature","geometry":{"type":"Point","coordinates":[113.398651,37.069344]},"properties":{"full_address":"山西省晋中市左权县左权县城区蛤蟆滩村亲水湾小区 2-4-602、4-3-601、5-2-601、6-1-502、6-4-301、7-1-502、8-2-201、8-2-301、8-2-401、8-2-501、8-2-502、8-2-601、9-1-201"}},{"type":"Feature","geometry":{"type":"Point","coordinates":[113.7058956272054,37.61002506950166]},"properties":{"full_address":"山西省晋中市昔阳县阳光花园4号楼3单元"}},{"type":"Feature","geometry":{"type":"Point","coordinates":[113.71546441149141,37.59359964568389]},"properties":{"full_address":"山西省晋中市昔阳县德润嘉园3号楼4单元"}},{"type":"Feature","geometry":{"type":"Point","coordinates":[113.74772000400932,37.61423899941679]},"properties":{"full_address":"山西省晋中市昔阳县339改线项目部（河南村对面）"}},{"type":"Feature","geometry":{"type":"Point","coordinates":[113.70350523072999,37.601414372812066]},"properties":{"full_address":"山西省晋中市昔阳县现代城4号楼1单元"}},{"type":"Feature","geometry":{"type":"Point","coordinates":[113.70584306265535,37.59956827945569]},"properties":{"full_address":"山西省晋中市昔阳县旧人行宿舍1单元"}},{"type":"Feature","geometry":{"type":"Point","coordinates":[113.70584306265535,37.59956827945569]},"properties":{"full_address":"山西省晋中市昔阳县旧人行宿舍2单元"}},{"type":"Feature","geometry":{"type":"Point","coordinates":[113.70699997479853,37.61219918936072]},"properties":{"full_address":"山西省晋中市昔阳县天泽酒店"}},{"type":"Feature","geometry":{"type":"Point","coordinates":[113.71475266734065,37.612133829402026]},"properties":{"full_address":"山西省晋中市昔阳县朝阳宾馆"}},{"type":"Feature","geometry":{"type":"Point","coordinates":[113.70053171543528,37.611747868696504]},"properties":{"full_address":"山西省晋中市昔阳县南关社区常家街"}},{"type":"Feature","geometry":{"type":"Point","coordinates":[113.70154739508997,37.61915944970088]},"properties":{"full_address":"山西省晋中市昔阳县北海苑高层1号楼2单元"}},{"type":"Feature","geometry":{"type":"Point","coordinates":[113.7051898683985,37.61657838556146]},"properties":{"full_address":"山西省晋中市昔阳县西大街社区北头街平房片区"}},{"type":"Feature","geometry":{"type":"Point","coordinates":[113.70453245303504,37.61534368090227]},"properties":{"full_address":"山西省晋中市昔阳县西大街社区西门坡"}},{"type":"Feature","geometry":{"type":"Point","coordinates":[113.69629122438882,37.604623496010475]},"properties":{"full_address":"山西省晋中市昔阳县南岭小镇6号楼3单元"}},{"type":"Feature","geometry":{"type":"Point","coordinates":[113.84426986465644,37.63442953736658]},"properties":{"full_address":"山西省晋中市昔阳县界都石场"}},{"type":"Feature","geometry":{"type":"Point","coordinates":[113.70699997479853,37.61219918936072]},"properties":{"full_address":"山西省晋中市昔阳县和润园3号楼"}},{"type":"Feature","geometry":{"type":"Point","coordinates":[113.69917802773105,37.604671084167514]},"properties":{"full_address":"山西省晋中市昔阳县钟兴四区11号楼5单元"}},{"type":"Feature","geometry":{"type":"Point","coordinates":[113.71038601136998,37.60365616606484]},"properties":{"full_address":"山西省晋中市昔阳县城中二区2号楼1单元"}},{"type":"Feature","geometry":{"type":"Point","coordinates":[113.69789626618885,37.61009558835472]},"properties":{"full_address":"山西省晋中市昔阳县幸福里2号楼3单元"}},{"type":"Feature","geometry":{"type":"Point","coordinates":[113.70260494028908,37.613835548000715]},"properties":{"full_address":"山西省晋中市昔阳县北湾新城4号楼1单元"}},{"type":"Feature","geometry":{"type":"Point","coordinates":[113.80670977120216,37.457840187259656]},"properties":{"full_address":"山西省晋中市昔阳县赵壁乡北思贤村南边街"}},{"type":"Feature","geometry":{"type":"Point","coordinates":[113.8505999430334,37.62333015118809]},"properties":{"full_address":"山西省晋中市昔阳县大寨镇南界都村南阁口"}},{"type":"Feature","geometry":{"type":"Point","coordinates":[113.72705223565181,37.57498944110969]},"properties":{"full_address":"山西省晋中市昔阳县大寨镇金石坡村广场东北角"}},{"type":"Feature","geometry":{"type":"Point","coordinates":[113.8620184654211,37.67109200206264]},"properties":{"full_address":"山西省晋中市昔阳县界都乡石门村长条坪庄"}},{"type":"Feature","geometry":{"type":"Point","coordinates":[113.70525940546564,37.60826294325487]},"properties":{"full_address":"山西省晋中市昔阳县万寿小区3号楼1单元"}},{"type":"Feature","geometry":{"type":"Point","coordinates":[113.70984039853418,37.65947938393005]},"properties":{"full_address":"山西省晋中市昔阳县李家庄乡南庄村杨树沟"}},{"type":"Feature","geometry":{"type":"Point","coordinates":[113.83155302315451,37.496420940765994]},"properties":{"full_address":"山西省晋中市昔阳县赵壁乡西平原村戏台东侧排房"}},{"type":"Feature","geometry":{"type":"Point","coordinates":[113.70768144738223,37.598633252064374]},"properties":{"full_address":"山西省晋中市昔阳县凯悦商务会馆"}},{"type":"Feature","geometry":{"type":"Point","coordinates":[113.88523544868224,37.611340636144035]},"properties":{"full_address":"山西省晋中市昔阳县界都乡崔家庄村戏台南侧"}},{"type":"Feature","geometry":{"type":"Point","coordinates":[113.71565046878547,37.60377859261885]},"properties":{"full_address":"山西省晋中市昔阳县文华苑3号楼1单元"}},{"type":"Feature","geometry":{"type":"Point","coordinates":[113.79965799967064,37.63717664590465]},"properties":{"full_address":"山西省晋中市昔阳县界都乡克栳会村西街"}},{"type":"Feature","geometry":{"type":"Point","coordinates":[113.88362939408918,37.630055717176184]},"properties":{"full_address":"山西省晋中市昔阳县界都乡西固壁村水窑街"}},{"type":"Feature","geometry":{"type":"Point","coordinates":[113.6788808151158,37.52517446605103]},"properties":{"full_address":"山西省晋中市昔阳县大寨镇麻汇村旧学校旁"}},{"type":"Feature","geometry":{"type":"Point","coordinates":[113.74001985457977,37.59183055168219]},"properties":{"full_address":"山西省晋中市昔阳县大寨镇闫庄窝村大场底"}},{"type":"Feature","geometry":{"type":"Point","coordinates":[113.71923400492246,37.60259714258558]},"properties":{"full_address":"山西省晋中市昔阳县阳煤小区2号楼1单元"}},{"type":"Feature","geometry":{"type":"Point","coordinates":[113.71902642520796,37.679670574274745]},"properties":{"full_address":"山西省晋中市昔阳县李家庄乡石坪村石坪超市"}},{"type":"Feature","geometry":{"type":"Point","coordinates":[113.70149327435593,37.6667039557392]},"properties":{"full_address":"山西省晋中市昔阳县李家庄乡北渡海村安坪街"}},{"type":"Feature","geometry":{"type":"Point","coordinates":[113.71384706981365,37.6357011235819]},"properties":{"full_address":"山西省晋中市昔阳县乐平镇瑶头村凤凰山脚"}},{"type":"Feature","geometry":{"type":"Point","coordinates":[113.84473304251365,37.63173561550003]},"properties":{"full_address":"山西省晋中市昔阳县界都乡北界都村东街"}},{"type":"Feature","geometry":{"type":"Point","coordinates":[113.64362428518254,37.63900563031733]},"properties":{"full_address":"山西省晋中市昔阳县乐平镇梁庄村脑后底"}},{"type":"Feature","geometry":{"type":"Point","coordinates":[113.37021001223971,37.620235057249694]},"properties":{"full_address":"山西省晋中市昔阳县沾尚镇瑶村梁山坡"}},{"type":"Feature","geometry":{"type":"Point","coordinates":[113.71408,37.611167]},"properties":{"full_address":"山西省晋中市昔阳县昔阳县格林豪泰酒店"}},{"type":"Feature","geometry":{"type":"Point","coordinates":[113.70866308768461,37.60248102064837]},"properties":{"full_address":"山西省晋中市昔阳县水云阁"}},{"type":"Feature","geometry":{"type":"Point","coordinates":[113.71369606451421,37.61164161722011]},"properties":{"full_address":"山西省晋中市昔阳县惠和饭店"}},{"type":"Feature","geometry":{"type":"Point","coordinates":[113.70699997479853,37.61219918936072]},"properties":{"full_address":"山西省晋中市昔阳县鲜乐多精致生活超市"}},{"type":"Feature","geometry":{"type":"Point","coordinates":[113.7089,37.603789]},"properties":{"full_address":"山西省晋中市昔阳县昔阳小吃城"}},{"type":"Feature","geometry":{"type":"Point","coordinates":[113.70886214742146,37.60323800563644]},"properties":{"full_address":"山西省晋中市昔阳县涛涛便利店"}},{"type":"Feature","geometry":{"type":"Point","coordinates":[113.16841427218723,37.8902748074909]},"properties":{"full_address":"山西省晋中市寿阳县梅林花园3号楼1单元"}},{"type":"Feature","geometry":{"type":"Point","coordinates":[112.55399726898115,37.432434863063754]},"properties":{"full_address":"山西省晋中市太谷区紫玉鑫都小区3号楼2单元"}},{"type":"Feature","geometry":{"type":"Point","coordinates":[112.5905036466803,37.45034080815384]},"properties":{"full_address":"山西省晋中市太谷区北城区韩村逸阳小区4号楼"}},{"type":"Feature","geometry":{"type":"Point","coordinates":[110.99799982119667,35.01510016475819]},"properties":{"full_address":"山西省运城市盐湖区高新区京东物流园"}},{"type":"Feature","geometry":{"type":"Point","coordinates":[111.04030962568781,35.08024198555271]},"properties":{"full_address":"山西省运城市盐湖区经开区关铝物流园景程物流"}},{"type":"Feature","geometry":{"type":"Point","coordinates":[111.0309574815042,35.07572048347339]},"properties":{"full_address":"山西省运城市盐湖区经开区豪德市场6区8街99号"}},{"type":"Feature","geometry":{"type":"Point","coordinates":[110.88479008194193,34.90774938940206]},"properties":{"full_address":"山西省运城市盐湖区解州镇柳马村主巷中段"}},{"type":"Feature","geometry":{"type":"Point","coordinates":[110.88229183318151,35.026818648793665]},"properties":{"full_address":"山西省运城市盐湖区龙居镇袁家庄（油坊巷、中巷中段）"}},{"type":"Feature","geometry":{"type":"Point","coordinates":[110.99503269176742,35.02733637796198]},"properties":{"full_address":"山西省运城市盐湖区北城街道地建三院北楼2号楼西户"}},{"type":"Feature","geometry":{"type":"Point","coordinates":[111.01610179536684,35.03553872133583]},"properties":{"full_address":"山西省运城市盐湖区北城街道黄河大厦快颐坊"}},{"type":"Feature","geometry":{"type":"Point","coordinates":[111.01009271207204,35.02840426738875]},"properties":{"full_address":"山西省运城市盐湖区东城街道农行家属院4-3-401"}},{"type":"Feature","geometry":{"type":"Point","coordinates":[111.01077792342832,35.05418826656607]},"properties":{"full_address":"山西省运城市盐湖区东城街道中银大道3巷小院"}},{"type":"Feature","geometry":{"type":"Point","coordinates":[110.98863839081478,35.00116879985582]},"properties":{"full_address":"山西省运城市盐湖区南城街道圣惠嘉园10-3-602"}},{"type":"Feature","geometry":{"type":"Point","coordinates":[110.9788186251467,35.02720184205891]},"properties":{"full_address":"山西省运城市盐湖区北城街道圣锦天河2号楼1701A"}},{"type":"Feature","geometry":{"type":"Point","coordinates":[111.01643082304552,35.02038551131652]},"properties":{"full_address":"山西省运城市盐湖区安邑街道国税局家属院3-4-301"}},{"type":"Feature","geometry":{"type":"Point","coordinates":[111.04274973114303,35.04130583755367]},"properties":{"full_address":"山西省运城市盐湖区安邑街道明瑞园小区3-2-1202"}},{"type":"Feature","geometry":{"type":"Point","coordinates":[111.02171018285685,35.026434021654666]},"properties":{"full_address":"山西省运城市盐湖区安邑街道山西水利职业技术学院三层家属楼4单元101"}},{"type":"Feature","geometry":{"type":"Point","coordinates":[111.03050682913187,35.07001293322383]},"properties":{"full_address":"山西省运城市盐湖区安邑街道天泰邑北苑2-2-302"}},{"type":"Feature","geometry":{"type":"Point","coordinates":[111.03890074874079,35.06518903732769]},"properties":{"full_address":"山西省运城市盐湖区安邑街道西街五组利西巷北3号"}},{"type":"Feature","geometry":{"type":"Point","coordinates":[111.01593489404218,35.0535783973078]},"properties":{"full_address":"山西省运城市盐湖区安邑街道运镖达物流公司"}},{"type":"Feature","geometry":{"type":"Point","coordinates":[111.06106439066251,35.10795691807167]},"properties":{"full_address":"山西省运城市盐湖区陶村镇张孝村平安小区南排6-4西户"}},{"type":"Feature","geometry":{"type":"Point","coordinates":[111.0099402479213,35.096370226371626]},"properties":{"full_address":"山西省运城市盐湖区安邑街道下王村东4排10号"}},{"type":"Feature","geometry":{"type":"Point","coordinates":[110.95575024915559,35.02807920888575]},"properties":{"full_address":"山西省运城市盐湖区大渠街道寺北村大巷西段"}},{"type":"Feature","geometry":{"type":"Point","coordinates":[110.97734993215869,35.20671839483204]},"properties":{"full_address":"山西省运城市盐湖区冯村乡郭店村敞门巷"}},{"type":"Feature","geometry":{"type":"Point","coordinates":[112.71686465743974,38.43271103200593]},"properties":{"full_address":"山西省忻州市忻府区慕山路慕山小区1号楼1单元"}},{"type":"Feature","geometry":{"type":"Point","coordinates":[112.7087809510486,38.43772824638068]},"properties":{"full_address":"山西省忻州市忻府区通岗北路民心家园东区27号楼2单元、36号楼2单元"}},{"type":"Feature","geometry":{"type":"Point","coordinates":[112.73653751747625,38.42151248682071]},"properties":{"full_address":"山西省忻州市忻府区利民中街食品厂宿舍北院6号楼3单元"}},{"type":"Feature","geometry":{"type":"Point","coordinates":[113.1358800740444,38.620260945941574]},"properties":{"full_address":"山西省忻州市五台县建安镇大建安村龙亭堡街路北巷"}},{"type":"Feature","geometry":{"type":"Point","coordinates":[113.14498442024778,38.62294028514945]},"properties":{"full_address":"山西省忻州市五台县建安镇东建安村福禄街五巷"}},{"type":"Feature","geometry":{"type":"Point","coordinates":[113.26296968304683,38.710161335266825]},"properties":{"full_address":"山西省忻州市五台县沟南乡王庄村:新大街、跃进街、后街、大街、小东街"}},{"type":"Feature","geometry":{"type":"Point","coordinates":[113.262032,38.711731]},"properties":{"full_address":"山西省忻州市五台县沟南乡沟南村：文明东街8巷3号、文明东街4巷2号、文明西南街8巷13号、文明西南街2巷6号、文明西北街3巷3号、文明西北街4巷2号、文明西南街1巷4号、文明西中街12号、南大街东巷3号、鑫龙小区2号楼4单元、鑫龙小区2号楼5单元、、北椿北街56号、北椿南街59号、烟火厂南街5巷8号、烟火厂9巷11号、沟南村1号楼3单元、沟南村1号楼1单元、沟南村2号楼1单元、沟南村2号楼2单元、沟南村2号楼1单元、沟南村村委东面"}},{"type":"Feature","geometry":{"type":"Point","coordinates":[113.25853469449699,38.71676322851307]},"properties":{"full_address":"山西省忻州市五台县县城利民苑3号楼9单元"}},{"type":"Feature","geometry":{"type":"Point","coordinates":[113.11668015588141,38.70107603920015]},"properties":{"full_address":"山西省忻州市五台县东冶镇殿东线菜市场东西门市房"}},{"type":"Feature","geometry":{"type":"Point","coordinates":[111.11293001472126,39.03806071344116]},"properties":{"full_address":"山西省忻州市保德县东关镇愉馨家园西单元"}},{"type":"Feature","geometry":{"type":"Point","coordinates":[111.11620858236299,39.039352539871956]},"properties":{"full_address":"山西省忻州市保德县东关镇郭家滩化肥厂附近恒福苑4单元"}},{"type":"Feature","geometry":{"type":"Point","coordinates":[111.09414495311677,39.02526523038549]},"properties":{"full_address":"山西省忻州市保德县东关镇康苑2号楼1单元"}},{"type":"Feature","geometry":{"type":"Point","coordinates":[111.03717461049592,39.00870729520261]},"properties":{"full_address":"山西省忻州市保德县东关镇开莱国际8号楼4单元"}},{"type":"Feature","geometry":{"type":"Point","coordinates":[111.11014958408843,38.97603208401517]},"properties":{"full_address":"山西省忻州市保德县东关镇刘家墕村赵爱萍自建房"}},{"type":"Feature","geometry":{"type":"Point","coordinates":[111.15204987052807,38.94104028040243]},"properties":{"full_address":"山西省忻州市保德县桥头镇桥头村前湾子自建房"}},{"type":"Feature","geometry":{"type":"Point","coordinates":[111.10531488202363,39.033966743772595]},"properties":{"full_address":"山西省忻州市保德县东关镇东关派出所背后第二栋楼中单元"}},{"type":"Feature","geometry":{"type":"Point","coordinates":[111.10427840493904,39.031069701330644]},"properties":{"full_address":"山西省忻州市保德县东关镇糖枣厂怡馨小区5号楼2单元"}},{"type":"Feature","geometry":{"type":"Point","coordinates":[111.04191973746832,39.01027129448938]},"properties":{"full_address":"山西省忻州市保德县东关镇张家圪坨村御华苑小区2号楼1单元"}},{"type":"Feature","geometry":{"type":"Point","coordinates":[111.06227526730342,39.01810792153299]},"properties":{"full_address":"山西省忻州市保德县东关镇马家滩村（公路站附近）李彦斌自建房一层"}},{"type":"Feature","geometry":{"type":"Point","coordinates":[111.09443888830465,39.02433622236865]},"properties":{"full_address":"山西省忻州市保德县东关镇康家滩大转盘大洋行对面崔来喜楼1单元"}},{"type":"Feature","geometry":{"type":"Point","coordinates":[111.09699003705212,39.029452248432435]},"properties":{"full_address":"山西省忻州市保德县东关镇检察院东1号楼5单元"}},{"type":"Feature","geometry":{"type":"Point","coordinates":[111.11620858236299,39.039352539871956]},"properties":{"full_address":"山西省忻州市保德县东关镇郭家滩大队院附近白旺旺自建房"}},{"type":"Feature","geometry":{"type":"Point","coordinates":[111.30723089149922,36.126219258084284]},"properties":{"full_address":"山西省临汾市尧都区枕头乡水管站全院"}},{"type":"Feature","geometry":{"type":"Point","coordinates":[111.18989139916049,36.1467879519458]},"properties":{"full_address":"山西省临汾市尧都区河底村居民一组外环路三号全院"}},{"type":"Feature","geometry":{"type":"Point","coordinates":[111.53482669497033,36.12822212764878]},"properties":{"full_address":"山西省临汾市尧都区尧都区屯里镇山西焦煤霍州煤电临汾宏大矿业有限责任公司"}},{"type":"Feature","geometry":{"type":"Point","coordinates":[111.47686167464865,36.13179811971773]},"properties":{"full_address":"山西省临汾市尧都区刘村镇临大线东高堆村"}},{"type":"Feature","geometry":{"type":"Point","coordinates":[111.663712,36.498791]},"properties":{"full_address":"山西省临汾市尧都区尧都区刘村镇高铁社汾西县团柏乡下团柏村僧小线团柏段枣坪桥至下团柏村牌楼以东、邢辛线下团柏村牌楼至村委会门口以北、古村落主线以西内区域区西华公馆1号楼2单元303室、1603室，2号楼1单元403室、1003室、2603室"}},{"type":"Feature","geometry":{"type":"Point","coordinates":[111.324699,36.133263]},"properties":{"full_address":"山西省临汾市尧都区枕头乡桑岔村除（桑岔组西片、岭南组、西庄组、东庄组、河里组、毛沟畔组、关家庄组、前米居组、黄老坡组、背后庄组）以外区域"}},{"type":"Feature","geometry":{"type":"Point","coordinates":[110.73484268964008,36.459281618942754]},"properties":{"full_address":"山西省临汾市大宁县古乡村桥沟渠（东至水泥路，西至桥沟渠，南至第二胡同）"}},{"type":"Feature","geometry":{"type":"Point","coordinates":[110.73803842096738,36.464779523007856]},"properties":{"full_address":"山西省临汾市大宁县古乡村东滩（南至丰产坊路，北至外环路，西至检察院靠西第一胡同，东至检察院靠西第二胡同）"}},{"type":"Feature","geometry":{"type":"Point","coordinates":[111.50628005425217,36.7580468960972]},"properties":{"full_address":"山西省临汾市汾西县对竹自然村东至潺峪路、南至外环路、西至外环路、北至对白线内区域"}},{"type":"Feature","geometry":{"type":"Point","coordinates":[111.56300012797006,36.65289914494736]},"properties":{"full_address":"山西省临汾市汾西县下庄自然村东至村委旧水库、南至涧对线下庄段、西至小沟堰以东、北至村委会内"}},{"type":"Feature","geometry":{"type":"Point","coordinates":[111.663712,36.498791]},"properties":{"full_address":"山西省临汾市汾西县汾西县团柏乡下团柏村僧小线团柏段枣坪桥至下团柏村牌楼以东、邢辛线下团柏村牌楼至村委会门口以北、古村落主线以西内区域"}},{"type":"Feature","geometry":{"type":"Point","coordinates":[111.52067855081417,36.7554620536635]},"properties":{"full_address":"山西省临汾市汾西县对竹镇对白线沿线村庄（西河村委、王堤村委、对竹村、下庄村、北掌村委"}},{"type":"Feature","geometry":{"type":"Point","coordinates":[111.62501503817516,36.482502441889466]},"properties":{"full_address":"山西省临汾市汾西县汾西县团柏乡厚义村"}},{"type":"Feature","geometry":{"type":"Point","coordinates":[111.45074294219297,36.71570406044405]},"properties":{"full_address":"山西省临汾市汾西县对竹镇李高沟自然村东至梨树垣、南至圪塔—本家庄公路、西至小坪沟、北至洞子沟内区域"}},{"type":"Feature","geometry":{"type":"Point","coordinates":[111.14273628375604,37.54582055792102]},"properties":{"full_address":"山西省吕梁市离石区凤山街道办：袁家庄七巷书香名苑2单元"}},{"type":"Feature","geometry":{"type":"Point","coordinates":[111.16919865365581,37.52386627504969]},"properties":{"full_address":"山西省吕梁市离石区滨河街道办：港宁装饰城附近四中背后第二排"}},{"type":"Feature","geometry":{"type":"Point","coordinates":[111.17617400447234,37.525722377053754]},"properties":{"full_address":"山西省吕梁市离石区滨河街道办：第四排散户区"}},{"type":"Feature","geometry":{"type":"Point","coordinates":[111.14584128786309,38.000352366145]},"properties":{"full_address":"山西省吕梁市临县霍州煤电集团吕临能化有限公司"}},{"type":"Feature","geometry":{"type":"Point","coordinates":[106.72985749150482,39.498062673247794]},"properties":{"full_address":"内蒙古自治区乌海市乌达区凯旋城6号楼三单元"}},{"type":"Feature","geometry":{"type":"Point","coordinates":[109.98760116266055,39.81847418947637]},"properties":{"full_address":"内蒙古自治区鄂尔多斯市东胜区交通街道微家公寓5-7层"}},{"type":"Feature","geometry":{"type":"Point","coordinates":[106.98599906784031,39.33842716799762]},"properties":{"full_address":"内蒙古自治区鄂尔多斯市鄂托克旗鄂托克旗棋盘井镇建元煤焦化红色宿舍楼5楼"}},{"type":"Feature","geometry":{"type":"Point","coordinates":[108.95048438766949,38.466639360177254]},"properties":{"full_address":"内蒙古自治区鄂尔多斯市乌审旗鄂尔多斯市营盘壕煤炭有限公司"}},{"type":"Feature","geometry":{"type":"Point","coordinates":[117.68852664055609,49.47113209445032]},"properties":{"full_address":"内蒙古自治区呼伦贝尔市扎赉诺尔区新兴小区7号楼5单元401"}},{"type":"Feature","geometry":{"type":"Point","coordinates":[117.70202128501782,49.47251303744579]},"properties":{"full_address":"内蒙古自治区呼伦贝尔市扎赉诺尔区七中新北街209号"}},{"type":"Feature","geometry":{"type":"Point","coordinates":[117.70104974064401,49.479462134253744]},"properties":{"full_address":"内蒙古自治区呼伦贝尔市扎赉诺尔区强盛家园4号楼5单元501"}},{"type":"Feature","geometry":{"type":"Point","coordinates":[117.6776103477473,49.50360765618002]},"properties":{"full_address":"内蒙古自治区呼伦贝尔市扎赉诺尔区温馨家园2号楼4单元302"}},{"type":"Feature","geometry":{"type":"Point","coordinates":[117.68800026004975,49.461799454889686]},"properties":{"full_address":"内蒙古自治区呼伦贝尔市扎赉诺尔区菜地楼14号楼2单元305"}},{"type":"Feature","geometry":{"type":"Point","coordinates":[117.69302996232793,49.46600013227968]},"properties":{"full_address":"内蒙古自治区呼伦贝尔市扎赉诺尔区欣园小区运管楼2单元302"}},{"type":"Feature","geometry":{"type":"Point","coordinates":[117.68088717870194,49.5134352549835]},"properties":{"full_address":"内蒙古自治区呼伦贝尔市扎赉诺尔区团结小区10号楼3单元201"}},{"type":"Feature","geometry":{"type":"Point","coordinates":[117.68852664055609,49.47113209445032]},"properties":{"full_address":"内蒙古自治区呼伦贝尔市扎赉诺尔区新兴小区12号楼3单元501"}},{"type":"Feature","geometry":{"type":"Point","coordinates":[117.68242994504904,49.509859233566985]},"properties":{"full_address":"内蒙古自治区呼伦贝尔市扎赉诺尔区天和小区6号楼2单元"}},{"type":"Feature","geometry":{"type":"Point","coordinates":[117.68971913305408,49.46670863512279]},"properties":{"full_address":"内蒙古自治区呼伦贝尔市扎赉诺尔区嘉禾美地二期1-2号门市"}},{"type":"Feature","geometry":{"type":"Point","coordinates":[117.68997022953614,49.46546961198178]},"properties":{"full_address":"内蒙古自治区呼伦贝尔市扎赉诺尔区嘉禾美地16号楼1单元"}},{"type":"Feature","geometry":{"type":"Point","coordinates":[117.68421718278474,49.46751833726313]},"properties":{"full_address":"内蒙古自治区呼伦贝尔市扎赉诺尔区华远小区36号楼1单元"}},{"type":"Feature","geometry":{"type":"Point","coordinates":[117.68800026004975,49.461799454889686]},"properties":{"full_address":"内蒙古自治区呼伦贝尔市扎赉诺尔区胜福楼1号楼4单元"}},{"type":"Feature","geometry":{"type":"Point","coordinates":[123.45773109438701,48.10729697860118]},"properties":{"full_address":"内蒙古自治区呼伦贝尔市阿荣旗那吉镇鼎润商务宾馆"}},{"type":"Feature","geometry":{"type":"Point","coordinates":[123.46028104097135,48.110553440099515]},"properties":{"full_address":"内蒙古自治区呼伦贝尔市阿荣旗九旭牧羊饭店"}},{"type":"Feature","geometry":{"type":"Point","coordinates":[123.57863358627307,48.07345929092337]},"properties":{"full_address":"内蒙古自治区呼伦贝尔市阿荣旗新发乡大有庄村西组"}},{"type":"Feature","geometry":{"type":"Point","coordinates":[123.71389980262387,48.636362533491585]},"properties":{"full_address":"内蒙古自治区呼伦贝尔市阿荣旗得力其尔乡马河村杨维沟组和亚东镇尖山村二组"}},{"type":"Feature","geometry":{"type":"Point","coordinates":[123.71389980262387,48.636362533491585]},"properties":{"full_address":"内蒙古自治区呼伦贝尔市阿荣旗得力其尔乡马河村杨维沟组"}},{"type":"Feature","geometry":{"type":"Point","coordinates":[123.58339931984393,48.57009144867505]},"properties":{"full_address":"内蒙古自治区呼伦贝尔市阿荣旗亚东镇尖山村二组"}},{"type":"Feature","geometry":{"type":"Point","coordinates":[120.57948971059108,49.242771169619616]},"properties":{"full_address":"内蒙古自治区呼伦贝尔市鄂温克族自治旗大雁镇向华社区顺民委新31号楼1单元"}},{"type":"Feature","geometry":{"type":"Point","coordinates":[120.57948971059108,49.242771169619616]},"properties":{"full_address":"内蒙古自治区呼伦贝尔市鄂温克族自治旗大雁镇永安新家园A3号楼3单元"}},{"type":"Feature","geometry":{"type":"Point","coordinates":[116.81032927480825,48.6641416779073]},"properties":{"full_address":"内蒙古自治区呼伦贝尔市新巴尔虎右旗阿拉坦额莫勒镇双兰小区喜相迎旅店"}},{"type":"Feature","geometry":{"type":"Point","coordinates":[116.82399989293089,48.67140010646356]},"properties":{"full_address":"内蒙古自治区呼伦贝尔市新巴尔虎右旗恒泰楼金港KTV"}},{"type":"Feature","geometry":{"type":"Point","coordinates":[116.82399989293089,48.67140010646356]},"properties":{"full_address":"内蒙古自治区呼伦贝尔市新巴尔虎右旗安居一号楼二单元202室"}},{"type":"Feature","geometry":{"type":"Point","coordinates":[117.44693516746555,49.593467492579975]},"properties":{"full_address":"内蒙古自治区呼伦贝尔市满洲里市满洲里市安信国际酒店615"}},{"type":"Feature","geometry":{"type":"Point","coordinates":[117.49611199318457,49.58789883129425]},"properties":{"full_address":"内蒙古自治区呼伦贝尔市满洲里市金地家园3号楼4单元402"}},{"type":"Feature","geometry":{"type":"Point","coordinates":[117.49611199318457,49.58789883129425]},"properties":{"full_address":"内蒙古自治区呼伦贝尔市满洲里市金地家园2号楼3单元601"}},{"type":"Feature","geometry":{"type":"Point","coordinates":[117.4745383814415,49.5906879916873]},"properties":{"full_address":"内蒙古自治区呼伦贝尔市满洲里市万象城B区29号楼5单元502"}},{"type":"Feature","geometry":{"type":"Point","coordinates":[117.49221993762313,49.58603702095451]},"properties":{"full_address":"内蒙古自治区呼伦贝尔市满洲里市口岸家园17号楼4单元101"}},{"type":"Feature","geometry":{"type":"Point","coordinates":[117.52309055018337,49.57247853544161]},"properties":{"full_address":"内蒙古自治区呼伦贝尔市满洲里市经济合作区进出口资源加工园区内，胪膑大街北、滨七路东龙福源商店"}},{"type":"Feature","geometry":{"type":"Point","coordinates":[117.44890983546112,49.57424963071413]},"properties":{"full_address":"内蒙古自治区呼伦贝尔市满洲里市满城新世界A区1号楼4单元501"}},{"type":"Feature","geometry":{"type":"Point","coordinates":[117.45056408594414,49.57804571511745]},"properties":{"full_address":"内蒙古自治区呼伦贝尔市满洲里市满城新世界B区11号楼2号门市"}},{"type":"Feature","geometry":{"type":"Point","coordinates":[117.3790005242629,49.597898981526775]},"properties":{"full_address":"内蒙古自治区呼伦贝尔市满洲里市海关小区70户6号楼6单元602"}},{"type":"Feature","geometry":{"type":"Point","coordinates":[117.43144937325542,49.60436639229708]},"properties":{"full_address":"内蒙古自治区呼伦贝尔市满洲里市尚都国际东区12号楼6单元302"}},{"type":"Feature","geometry":{"type":"Point","coordinates":[117.4832700306271,49.58310648498395]},"properties":{"full_address":"内蒙古自治区呼伦贝尔市满洲里市东兴花园6号楼3单元301"}},{"type":"Feature","geometry":{"type":"Point","coordinates":[117.46840539377841,49.59474704667984]},"properties":{"full_address":"内蒙古自治区呼伦贝尔市满洲里市湖东小区16号楼4单元501"}},{"type":"Feature","geometry":{"type":"Point","coordinates":[117.44286148883386,49.592523677243776]},"properties":{"full_address":"内蒙古自治区呼伦贝尔市满洲里市佳润金城4号楼7单元302"}},{"type":"Feature","geometry":{"type":"Point","coordinates":[113.91609055900122,40.88938998498977]},"properties":{"full_address":"内蒙古自治区乌兰察布市兴和县城关镇幸福社区兴风巷"}},{"type":"Feature","geometry":{"type":"Point","coordinates":[113.90265056362146,40.89624529666352]},"properties":{"full_address":"内蒙古自治区乌兰察布市兴和县城关镇东城外社区兴新街"}},{"type":"Feature","geometry":{"type":"Point","coordinates":[113.84146213085161,40.87587131855488]},"properties":{"full_address":"内蒙古自治区乌兰察布市兴和县城关镇京东快递"}},{"type":"Feature","geometry":{"type":"Point","coordinates":[113.84707141107992,40.868441241301255]},"properties":{"full_address":"内蒙古自治区乌兰察布市兴和县城关镇碧海嘉源（2号楼、17号楼4单元）"}},{"type":"Feature","geometry":{"type":"Point","coordinates":[113.84382258698231,40.875082097408374]},"properties":{"full_address":"内蒙古自治区乌兰察布市兴和县城关镇福康小区小二楼"}},{"type":"Feature","geometry":{"type":"Point","coordinates":[113.84409014511708,40.86707806690843]},"properties":{"full_address":"内蒙古自治区乌兰察布市兴和县城关镇和华丽苑4号楼"}},{"type":"Feature","geometry":{"type":"Point","coordinates":[113.83682355876462,40.87538093491646]},"properties":{"full_address":"内蒙古自治区乌兰察布市兴和县城关镇宏祥小区(2号楼、3号楼、4号楼、5号楼、7号楼)"}},{"type":"Feature","geometry":{"type":"Point","coordinates":[113.85806868947665,40.875212037344085]},"properties":{"full_address":"内蒙古自治区乌兰察布市兴和县城关镇惠民小区B区门脸房"}},{"type":"Feature","geometry":{"type":"Point","coordinates":[113.84831002256091,40.86372992578813]},"properties":{"full_address":"内蒙古自治区乌兰察布市兴和县城关镇吉祥苑3号楼"}},{"type":"Feature","geometry":{"type":"Point","coordinates":[113.82263871545395,40.871356785549196]},"properties":{"full_address":"内蒙古自治区乌兰察布市兴和县城关镇福兴苑南门脸房"}},{"type":"Feature","geometry":{"type":"Point","coordinates":[113.84831002256091,40.86372992578813]},"properties":{"full_address":"内蒙古自治区乌兰察布市兴和县城关镇福景小区后门脸房"}},{"type":"Feature","geometry":{"type":"Point","coordinates":[113.84831002256091,40.86372992578813]},"properties":{"full_address":"内蒙古自治区乌兰察布市兴和县城关镇康乐小区1号楼"}},{"type":"Feature","geometry":{"type":"Point","coordinates":[113.846549035549,40.87360677764432]},"properties":{"full_address":"内蒙古自治区乌兰察布市兴和县城关镇昱欣小区南S楼"}},{"type":"Feature","geometry":{"type":"Point","coordinates":[113.84831002256091,40.86372992578813]},"properties":{"full_address":"内蒙古自治区乌兰察布市兴和县城关镇阳光一期11号楼"}},{"type":"Feature","geometry":{"type":"Point","coordinates":[113.83849287766925,40.875622409463205]},"properties":{"full_address":"内蒙古自治区乌兰察布市兴和县城关镇计生小区北楼（5号楼、6号楼）"}},{"type":"Feature","geometry":{"type":"Point","coordinates":[113.81989570111712,40.87198890296173]},"properties":{"full_address":"内蒙古自治区乌兰察布市兴和县城关镇利民小区3号楼"}},{"type":"Feature","geometry":{"type":"Point","coordinates":[113.82255171995227,40.87392915321119]},"properties":{"full_address":"内蒙古自治区乌兰察布市兴和县城关镇西苑丽景4号楼"}},{"type":"Feature","geometry":{"type":"Point","coordinates":[113.85235399496456,40.8140950327495]},"properties":{"full_address":"内蒙古自治区乌兰察布市兴和县城关镇南官村委会南官村"}},{"type":"Feature","geometry":{"type":"Point","coordinates":[112.62758043221463,41.28780925694212]},"properties":{"full_address":"内蒙古自治区乌兰察布市察哈尔右翼中旗科布尔镇荣祥小区一号楼"}},{"type":"Feature","geometry":{"type":"Point","coordinates":[112.62758043221463,41.28780925694212]},"properties":{"full_address":"内蒙古自治区乌兰察布市察哈尔右翼中旗科布尔镇荣祥小区三号楼"}},{"type":"Feature","geometry":{"type":"Point","coordinates":[112.62758043221463,41.28780925694212]},"properties":{"full_address":"内蒙古自治区乌兰察布市察哈尔右翼中旗科布尔镇荣祥小区四号楼"}},{"type":"Feature","geometry":{"type":"Point","coordinates":[122.90009835542297,46.71753127219857]},"properties":{"full_address":"内蒙古自治区兴安盟扎赉特旗旗党群服务中心华天安居二期9-1-501"}},{"type":"Feature","geometry":{"type":"Point","coordinates":[122.87024987781541,46.72595881866842]},"properties":{"full_address":"内蒙古自治区兴安盟扎赉特旗旗党群服务中心兴才小区1-2-502"}},{"type":"Feature","geometry":{"type":"Point","coordinates":[122.90000045544049,46.722998782397454]},"properties":{"full_address":"内蒙古自治区兴安盟扎赉特旗旗党群服务中心巴彦路那日松巷13组9号"}},{"type":"Feature","geometry":{"type":"Point","coordinates":[122.89049658764024,46.722185644618186]},"properties":{"full_address":"内蒙古自治区兴安盟扎赉特旗旗党群服务中心交通局南第三胡同第三家平房"}},{"type":"Feature","geometry":{"type":"Point","coordinates":[122.8752450943638,46.72691764879758]},"properties":{"full_address":"内蒙古自治区兴安盟扎赉特旗旗党群服务中心老通海小区3-4-601"}},{"type":"Feature","geometry":{"type":"Point","coordinates":[122.89843752306561,46.73104326660141]},"properties":{"full_address":"内蒙古自治区兴安盟扎赉特旗旗党群服务中心乌兰小区4-1-202"}},{"type":"Feature","geometry":{"type":"Point","coordinates":[122.9170351366799,46.72363472984406]},"properties":{"full_address":"内蒙古自治区兴安盟扎赉特旗旗党群服务中心裕国社区裕国花园北门10号门市蔬菜调料批发"}},{"type":"Feature","geometry":{"type":"Point","coordinates":[124.3966991379606,40.14079848553329]},"properties":{"full_address":"辽宁省丹东市元宝区广济街道县前街73号3单元"}},{"type":"Feature","geometry":{"type":"Point","coordinates":[124.38964470184969,40.14005586131609]},"properties":{"full_address":"辽宁省丹东市元宝区广济街道平安街24号2单元"}},{"type":"Feature","geometry":{"type":"Point","coordinates":[124.40347906939648,40.15519354836569]},"properties":{"full_address":"辽宁省丹东市元宝区九道街道北府花园35号楼4单元"}},{"type":"Feature","geometry":{"type":"Point","coordinates":[124.34492308630533,40.10270179454679]},"properties":{"full_address":"辽宁省丹东市振兴区帽盔山街道益荣家园小区53号楼一单元"}},{"type":"Feature","geometry":{"type":"Point","coordinates":[124.36852959542456,40.107271255529184]},"properties":{"full_address":"辽宁省丹东市振兴区临江街道青年大街124号一单元"}},{"type":"Feature","geometry":{"type":"Point","coordinates":[124.36966231296088,40.10625664851618]},"properties":{"full_address":"辽宁省丹东市振兴区临江街道韩国城小区17号楼二单元"}},{"type":"Feature","geometry":{"type":"Point","coordinates":[124.32556154112606,40.059983250402915]},"properties":{"full_address":"辽宁省丹东市振兴区纤维街道地质路300号"}},{"type":"Feature","geometry":{"type":"Point","coordinates":[124.32837884788728,40.054428596294564]},"properties":{"full_address":"辽宁省丹东市振兴区纤维街道地质路与致富路交汇处右侧第二列第二排平房"}},{"type":"Feature","geometry":{"type":"Point","coordinates":[124.36028269660905,40.09544439405243]},"properties":{"full_address":"辽宁省丹东市振兴区纤维街道春六路4号一单元"}},{"type":"Feature","geometry":{"type":"Point","coordinates":[124.27277308891293,40.01414577101673]},"properties":{"full_address":"辽宁省丹东市振兴区汤池镇洋子新村小区1号楼一单元"}},{"type":"Feature","geometry":{"type":"Point","coordinates":[124.39966418432778,40.129611820295324]},"properties":{"full_address":"辽宁省丹东市振兴区站前街道宝石花小区12号楼一单元"}},{"type":"Feature","geometry":{"type":"Point","coordinates":[124.3526607636263,40.10496675810323]},"properties":{"full_address":"辽宁省丹东市振兴区帽盔山街道福寿西路1号三单元"}},{"type":"Feature","geometry":{"type":"Point","coordinates":[124.32422999986113,40.1009095982906]},"properties":{"full_address":"辽宁省丹东市振安区同兴镇变电村3组761号"}},{"type":"Feature","geometry":{"type":"Point","coordinates":[124.41623686102493,40.14883395518965]},"properties":{"full_address":"辽宁省丹东市振安区珍珠街道丹建新时代A区1单元1层、2层、3层"}},{"type":"Feature","geometry":{"type":"Point","coordinates":[127.47961642120626,42.17026607085469]},"properties":{"full_address":"吉林省白山市抚松县松江河镇天池圣景小区C2区8栋"}},{"type":"Feature","geometry":{"type":"Point","coordinates":[127.48429929064858,42.16947318912008]},"properties":{"full_address":"吉林省白山市抚松县松江河镇绿园小区D2栋2单元"}},{"type":"Feature","geometry":{"type":"Point","coordinates":[127.49230278344658,42.1666664065046]},"properties":{"full_address":"吉林省白山市抚松县松江河镇书香园C区53栋2单元"}},{"type":"Feature","geometry":{"type":"Point","coordinates":[127.48440938318711,42.175441109873034]},"properties":{"full_address":"吉林省白山市抚松县松江河镇怡景小区12号楼2单元"}},{"type":"Feature","geometry":{"type":"Point","coordinates":[127.2734553430958,42.328985844742895]},"properties":{"full_address":"吉林省白山市抚松县抚松镇南关社区建成胡同35号-1及东、西2户（2层楼）"}},{"type":"Feature","geometry":{"type":"Point","coordinates":[127.28168825992535,42.338490243153394]},"properties":{"full_address":"吉林省白山市抚松县抚松镇乐民小区A14栋2单元"}},{"type":"Feature","geometry":{"type":"Point","coordinates":[127.29515980072425,42.43827087101931]},"properties":{"full_address":"吉林省白山市抚松县万良镇三期市场后院物流园独栋楼"}},{"type":"Feature","geometry":{"type":"Point","coordinates":[127.27817168825634,42.33542151169957]},"properties":{"full_address":"吉林省白山市抚松县抚松镇阳光A区A2栋东2单元"}},{"type":"Feature","geometry":{"type":"Point","coordinates":[127.2735405323934,42.33359888041691]},"properties":{"full_address":"吉林省白山市抚松县抚松镇大连鑫诚A4栋4单元"}},{"type":"Feature","geometry":{"type":"Point","coordinates":[127.2735405323934,42.33359888041691]},"properties":{"full_address":"吉林省白山市抚松县抚松镇大连鑫诚B区2单元"}},{"type":"Feature","geometry":{"type":"Point","coordinates":[127.27401878455001,42.32871773990018]},"properties":{"full_address":"吉林省白山市抚松县抚松镇粮食局家属楼西侧单元"}},{"type":"Feature","geometry":{"type":"Point","coordinates":[127.28041019336769,42.32585813572761]},"properties":{"full_address":"吉林省白山市抚松县抚松镇敖东佳苑5号楼3单元"}},{"type":"Feature","geometry":{"type":"Point","coordinates":[127.2735405323934,42.33359888041691]},"properties":{"full_address":"吉林省白山市抚松县抚松镇东岗楼水果蔬菜批发市场北侧1、3、4号门市，南侧5、6、12号门市"}},{"type":"Feature","geometry":{"type":"Point","coordinates":[127.27591997206865,42.33382381524796]},"properties":{"full_address":"吉林省白山市抚松县抚松镇关东客栈院西平房"}},{"type":"Feature","geometry":{"type":"Point","coordinates":[127.2735405323934,42.33359888041691]},"properties":{"full_address":"吉林省白山市抚松县抚松镇供销社家属楼西单元"}},{"type":"Feature","geometry":{"type":"Point","coordinates":[127.27950927098475,42.32994605803054]},"properties":{"full_address":"吉林省白山市抚松县抚松镇鑫田小区南楼7单元"}},{"type":"Feature","geometry":{"type":"Point","coordinates":[127.29515980072425,42.43827087101931]},"properties":{"full_address":"吉林省白山市抚松县万良镇万盛胡同鹿家院"}},{"type":"Feature","geometry":{"type":"Point","coordinates":[127.28041019336769,42.32585813572761]},"properties":{"full_address":"吉林省白山市抚松县抚松镇山东会敖东佳苑1号楼2单元"}},{"type":"Feature","geometry":{"type":"Point","coordinates":[127.27710582537897,42.33237150397527]},"properties":{"full_address":"吉林省白山市抚松县抚松镇松城苑14号楼一单元"}},{"type":"Feature","geometry":{"type":"Point","coordinates":[127.48262134368942,42.172375126091595]},"properties":{"full_address":"吉林省白山市抚松县松江河镇贵宾小区13号楼3单元601室"}},{"type":"Feature","geometry":{"type":"Point","coordinates":[127.48440938318711,42.175441109873034]},"properties":{"full_address":"吉林省白山市抚松县松江河镇怡景小区12号楼2单元401室"}},{"type":"Feature","geometry":{"type":"Point","coordinates":[127.48186125343123,42.16759397068174]},"properties":{"full_address":"吉林省白山市抚松县松江河镇万豪第一城1号楼3单元801室"}},{"type":"Feature","geometry":{"type":"Point","coordinates":[127.28202936501339,42.34336521779869]},"properties":{"full_address":"吉林省白山市抚松县抚松镇民政家属楼2单元601室"}},{"type":"Feature","geometry":{"type":"Point","coordinates":[127.2820384027412,42.34336505346617]},"properties":{"full_address":"吉林省白山市抚松县抚松镇石油家属楼东1门5楼501室"}},{"type":"Feature","geometry":{"type":"Point","coordinates":[127.55124432093332,42.36184480714192]},"properties":{"full_address":"吉林省白山市抚松县泉阳镇宝地小区3号楼4单元202室"}},{"type":"Feature","geometry":{"type":"Point","coordinates":[127.27943225103502,42.33732893973836]},"properties":{"full_address":"吉林省白山市抚松县抚松镇大连鑫城A6号楼二单元302室"}},{"type":"Feature","geometry":{"type":"Point","coordinates":[127.27332080938828,42.33178270424204]},"properties":{"full_address":"吉林省白山市抚松县抚松镇天天水果超市"}},{"type":"Feature","geometry":{"type":"Point","coordinates":[127.27943225103502,42.33732893973836]},"properties":{"full_address":"吉林省白山市抚松县抚松镇大连鑫城小区A5二单元501室"}},{"type":"Feature","geometry":{"type":"Point","coordinates":[127.27943225103502,42.33732893973836]},"properties":{"full_address":"吉林省白山市抚松县抚松镇大连鑫城Ｂ区三单元302室"}},{"type":"Feature","geometry":{"type":"Point","coordinates":[128.42212876919885,43.57277298194411]},"properties":{"full_address":"吉林省延边朝鲜族自治州敦化市官地镇北村政府东侧平房所在村组"}},{"type":"Feature","geometry":{"type":"Point","coordinates":[128.42361834704914,43.560636239880345]},"properties":{"full_address":"吉林省延边朝鲜族自治州敦化市官地镇南村所在村组"}},{"type":"Feature","geometry":{"type":"Point","coordinates":[128.31830675678574,43.525953727696454]},"properties":{"full_address":"吉林省延边朝鲜族自治州敦化市官地镇福兴村所在村组"}},{"type":"Feature","geometry":{"type":"Point","coordinates":[128.28606309404537,43.51638218092724]},"properties":{"full_address":"吉林省延边朝鲜族自治州敦化市官地镇前红石村所在村组"}},{"type":"Feature","geometry":{"type":"Point","coordinates":[128.39875131382735,43.50190037487789]},"properties":{"full_address":"吉林省延边朝鲜族自治州敦化市官地镇黑背村一组"}},{"type":"Feature","geometry":{"type":"Point","coordinates":[128.47720646594493,43.30081904639551]},"properties":{"full_address":"吉林省延边朝鲜族自治州敦化市大石头镇长青村四社"}},{"type":"Feature","geometry":{"type":"Point","coordinates":[128.24432028530978,43.3615080033961]},"properties":{"full_address":"吉林省延边朝鲜族自治州敦化市丹江街鸿德蓝湾小区11号楼"}},{"type":"Feature","geometry":{"type":"Point","coordinates":[126.09681449370817,47.61277104276529]},"properties":{"full_address":"黑龙江省齐齐哈尔市拜泉县拜泉镇阳光嘉园三期85单元"}},{"type":"Feature","geometry":{"type":"Point","coordinates":[131.1663167565489,46.62677271756928]},"properties":{"full_address":"黑龙江省双鸭山市尖山区富安街道13号地块11号楼2单元"}},{"type":"Feature","geometry":{"type":"Point","coordinates":[131.1489885923721,46.64928396137592]},"properties":{"full_address":"黑龙江省双鸭山市尖山区康安家园2号楼5单元、6单元"}},{"type":"Feature","geometry":{"type":"Point","coordinates":[131.4008717683758,46.576498240118624]},"properties":{"full_address":"黑龙江省双鸭山市宝山区文南C区14号楼2单元"}},{"type":"Feature","geometry":{"type":"Point","coordinates":[131.4009997598843,46.57719922919669]},"properties":{"full_address":"黑龙江省双鸭山市宝山区仁和小区6号楼1单元"}},{"type":"Feature","geometry":{"type":"Point","coordinates":[131.4009997598843,46.57719922919669]},"properties":{"full_address":"黑龙江省双鸭山市宝山区日日鲜超市"}},{"type":"Feature","geometry":{"type":"Point","coordinates":[130.39699046090746,48.88795879573619]},"properties":{"full_address":"黑龙江省伊春市嘉荫县朝阳镇龙翔二期3号楼3单元"}},{"type":"Feature","geometry":{"type":"Point","coordinates":[130.38951322025076,48.89235711554384]},"properties":{"full_address":"黑龙江省伊春市嘉荫县朝阳镇启运小区3号楼3单元"}},{"type":"Feature","geometry":{"type":"Point","coordinates":[130.39699046090746,48.88795879573619]},"properties":{"full_address":"黑龙江省伊春市嘉荫县朝阳镇农税楼8单元602室"}},{"type":"Feature","geometry":{"type":"Point","coordinates":[130.39699046090746,48.88795879573619]},"properties":{"full_address":"黑龙江省伊春市嘉荫县朝阳镇信合家属楼6单元"}},{"type":"Feature","geometry":{"type":"Point","coordinates":[130.4040003472934,48.889099450589455]},"properties":{"full_address":"黑龙江省伊春市嘉荫县农场农垦社区5委一组33号"}},{"type":"Feature","geometry":{"type":"Point","coordinates":[132.50734822998388,47.6564181474983]},"properties":{"full_address":"黑龙江省佳木斯市同江市中心花园6号楼二单元"}},{"type":"Feature","geometry":{"type":"Point","coordinates":[130.9978083175963,45.76897429530187]},"properties":{"full_address":"黑龙江省七台河市桃山区教师公寓6号楼6单元"}},{"type":"Feature","geometry":{"type":"Point","coordinates":[127.51351538189206,50.23867807307803]},"properties":{"full_address":"黑龙江省黑河市爱辉区花园街道长海社区国税小区联通家属楼1号楼1单元701室"}},{"type":"Feature","geometry":{"type":"Point","coordinates":[125.31444761894421,49.250698012283316]},"properties":{"full_address":"黑龙江省黑河市嫩江市海江镇五星村四队新立屯072号"}},{"type":"Feature","geometry":{"type":"Point","coordinates":[125.21260781216448,49.17867324158415]},"properties":{"full_address":"黑龙江省黑河市嫩江市公园道1号小区1号楼二单元402室"}},{"type":"Feature","geometry":{"type":"Point","coordinates":[125.21260781216448,49.17867324158415]},"properties":{"full_address":"黑龙江省黑河市嫩江市公园道1号小区2号楼六单元602室"}},{"type":"Feature","geometry":{"type":"Point","coordinates":[125.23646737735936,49.18067882092146]},"properties":{"full_address":"黑龙江省黑河市嫩江市学府名城小区3号楼22号车库"}},{"type":"Feature","geometry":{"type":"Point","coordinates":[125.3031754526469,49.1539698187029]},"properties":{"full_address":"黑龙江省黑河市嫩江市长福镇长庆村邮局道北西数第六家"}},{"type":"Feature","geometry":{"type":"Point","coordinates":[125.21111989523848,49.167942160196034]},"properties":{"full_address":"黑龙江省黑河市嫩江市荣耀尚城A7号楼二单元501室"}},{"type":"Feature","geometry":{"type":"Point","coordinates":[125.22981180021277,49.16256164287671]},"properties":{"full_address":"黑龙江省黑河市嫩江市金城小区20号楼北107号车库"}},{"type":"Feature","geometry":{"type":"Point","coordinates":[125.21123361614579,49.183568714682586]},"properties":{"full_address":"黑龙江省黑河市嫩江市颐江园高层4号楼三单元2603室"}},{"type":"Feature","geometry":{"type":"Point","coordinates":[125.2138228448289,49.16999784688079]},"properties":{"full_address":"黑龙江省黑河市嫩江市文苑华庭小区18号楼三单元902室划"}},{"type":"Feature","geometry":{"type":"Point","coordinates":[125.22058185487936,49.15864017820743]},"properties":{"full_address":"黑龙江省黑河市嫩江市环卫处家属楼3号楼三单元202室"}},{"type":"Feature","geometry":{"type":"Point","coordinates":[125.2138228448289,49.16999784688079]},"properties":{"full_address":"黑龙江省黑河市嫩江市文苑华庭小区13号楼五单元201室"}},{"type":"Feature","geometry":{"type":"Point","coordinates":[125.24806134156331,49.17634431906749]},"properties":{"full_address":"黑龙江省黑河市嫩江市站前大街16号"}},{"type":"Feature","geometry":{"type":"Point","coordinates":[125.22395304381587,49.165194846765495]},"properties":{"full_address":"黑龙江省黑河市嫩江市新客运站小区3号楼二单元603室"}},{"type":"Feature","geometry":{"type":"Point","coordinates":[125.2287525062677,49.183267432787055]},"properties":{"full_address":"黑龙江省黑河市嫩江市江湾国际小区15号楼10号车库"}},{"type":"Feature","geometry":{"type":"Point","coordinates":[125.21845368577439,49.1581224625197]},"properties":{"full_address":"黑龙江省黑河市嫩江市怡馨家园小区4号楼二单元203室"}},{"type":"Feature","geometry":{"type":"Point","coordinates":[125.22981180021277,49.16256164287671]},"properties":{"full_address":"黑龙江省黑河市嫩江市金诚小区4号楼七单元602室"}},{"type":"Feature","geometry":{"type":"Point","coordinates":[125.21260781216448,49.17867324158415]},"properties":{"full_address":"黑龙江省黑河市嫩江市公园道1号小区23号楼一单元203室"}},{"type":"Feature","geometry":{"type":"Point","coordinates":[125.21845368577439,49.1581224625197]},"properties":{"full_address":"黑龙江省黑河市嫩江市怡馨家园小区3号楼二单元501室"}},{"type":"Feature","geometry":{"type":"Point","coordinates":[125.22012023966998,49.18146038721904]},"properties":{"full_address":"黑龙江省黑河市嫩江市民政局家属南楼七单元301室"}},{"type":"Feature","geometry":{"type":"Point","coordinates":[125.22063423089497,49.178707285843316]},"properties":{"full_address":"黑龙江省黑河市嫩江市农行家属楼三单元802室"}},{"type":"Feature","geometry":{"type":"Point","coordinates":[125.22688633964204,49.174785116993036]},"properties":{"full_address":"黑龙江省黑河市嫩江市新生产资料楼北楼二单元402室"}},{"type":"Feature","geometry":{"type":"Point","coordinates":[125.24791292072493,49.182285979426474]},"properties":{"full_address":"黑龙江省黑河市嫩江市福源泉小区5号楼四单元301室"}},{"type":"Feature","geometry":{"type":"Point","coordinates":[125.21825702580577,49.16080372926326]},"properties":{"full_address":"黑龙江省黑河市嫩江市林业家园小 9号楼南12号车库"}},{"type":"Feature","geometry":{"type":"Point","coordinates":[125.21441516335538,49.18072392214546]},"properties":{"full_address":"黑龙江省黑河市嫩江市清河家园2号楼西数南4号车库"}},{"type":"Feature","geometry":{"type":"Point","coordinates":[125.23299917861083,49.18479038848151]},"properties":{"full_address":"黑龙江省黑河市嫩江市庆丰家园6号楼二单元502室"}},{"type":"Feature","geometry":{"type":"Point","coordinates":[126.85767030951438,47.53744050772697]},"properties":{"full_address":"黑龙江省绥化市海伦市长发镇长华村"}},{"type":"Feature","geometry":{"type":"Point","coordinates":[124.40033046459392,51.67356806040152]},"properties":{"full_address":"黑龙江省大兴安岭地区新林区(虚拟)新林镇立新小区3号楼1单元"}},{"type":"Feature","geometry":{"type":"Point","coordinates":[124.15193710228935,50.42272817873028]},"properties":{"full_address":"黑龙江省大兴安岭地区加格达奇区(虚拟)东山街道铁路北小区29号楼东一单元"}},{"type":"Feature","geometry":{"type":"Point","coordinates":[118.79112346726941,31.986292041477583]},"properties":{"full_address":"江苏省南京市雨花台区雨花街道君子兰花园88栋（雨花街道郁金香路22号）"}},{"type":"Feature","geometry":{"type":"Point","coordinates":[117.16172236426588,34.276714404229054]},"properties":{"full_address":"江苏省徐州市鼓楼区铜沛街道沈场社区沈场村（二组）"}},{"type":"Feature","geometry":{"type":"Point","coordinates":[117.30775356131224,34.20924418570765]},"properties":{"full_address":"江苏省徐州市云龙区汉风街道万科昆仑项目工地"}},{"type":"Feature","geometry":{"type":"Point","coordinates":[117.27315952221207,34.213906734924514]},"properties":{"full_address":"江苏省徐州市云龙区汉风街道上海家树项目生活区"}},{"type":"Feature","geometry":{"type":"Point","coordinates":[117.3452798872206,34.115301802442225]},"properties":{"full_address":"江苏省徐州市铜山区张集镇二陈村二陈自然村"}},{"type":"Feature","geometry":{"type":"Point","coordinates":[117.3452798872206,34.115301802442225]},"properties":{"full_address":"江苏省徐州市铜山区张集镇二陈村杨庄自然村"}},{"type":"Feature","geometry":{"type":"Point","coordinates":[117.42812009926051,34.1214781973459]},"properties":{"full_address":"江苏省徐州市铜山区张集镇李村村郝庄自然村"}},{"type":"Feature","geometry":{"type":"Point","coordinates":[119.18467399317878,34.58406880840724]},"properties":{"full_address":"江苏省连云港市海州区新南街道海宁社区陇园新村13号楼2单元1-3层"}},{"type":"Feature","geometry":{"type":"Point","coordinates":[119.16020975580982,34.585179864030835]},"properties":{"full_address":"江苏省连云港市海州区新海街道幸福社区幸福花园B5号楼二单元1-2层"}},{"type":"Feature","geometry":{"type":"Point","coordinates":[119.23122013808745,34.60132886078075]},"properties":{"full_address":"江苏省连云港市海州区花果山街道新华社区金鹰国际花园小区4号楼二单元23-25层"}},{"type":"Feature","geometry":{"type":"Point","coordinates":[119.22972593382354,34.6130159867143]},"properties":{"full_address":"江苏省连云港市海州区花果山街道玉兰社区恒大名都11号楼8-10层"}},{"type":"Feature","geometry":{"type":"Point","coordinates":[119.1478550165712,34.57031106132553]},"properties":{"full_address":"江苏省连云港市海州区朐阳街道朐海社区石棚名居小区19号楼一单元2-4层"}},{"type":"Feature","geometry":{"type":"Point","coordinates":[119.16762265444065,34.57912855112275]},"properties":{"full_address":"江苏省连云港市海州区朐阳街道朐海社区中茵名都小区25号楼二单元1-3层"}},{"type":"Feature","geometry":{"type":"Point","coordinates":[119.15571363500865,34.568987456481004]},"properties":{"full_address":"江苏省连云港市海州区朐阳街道香江社区梧桐蓝山小区二期1号楼三单元4-6层"}},{"type":"Feature","geometry":{"type":"Point","coordinates":[119.1845476664139,34.57980224125548]},"properties":{"full_address":"江苏省连云港市海州区新南街道玉带社区玉带新村小区桂苑9号楼四单元5-6层"}},{"type":"Feature","geometry":{"type":"Point","coordinates":[119.181406354277,34.60796482976689]},"properties":{"full_address":"江苏省连云港市海州区新浦街道建国社区东新绿苑A组团1号楼一单元3-4层"}},{"type":"Feature","geometry":{"type":"Point","coordinates":[119.1923138869382,34.61645825761416]},"properties":{"full_address":"江苏省连云港市海州区新浦街道浦东社区蓝天华侨城10号楼一单元15-17层"}},{"type":"Feature","geometry":{"type":"Point","coordinates":[119.15093267311362,34.59297337770485]},"properties":{"full_address":"江苏省连云港市海州区新海街道幸福社区明珠万福新城小区3号楼一单元12-14层"}},{"type":"Feature","geometry":{"type":"Point","coordinates":[119.1716203181359,34.58715817048056]},"properties":{"full_address":"江苏省连云港市海州区新海街道新潮社区名豪天台苑小区5号楼二单元18-20层"}},{"type":"Feature","geometry":{"type":"Point","coordinates":[119.2010679821991,34.60870485424838]},"properties":{"full_address":"江苏省连云港市海州区新东街道刘艞社区万和园小区三单元1-3层"}},{"type":"Feature","geometry":{"type":"Point","coordinates":[119.20748914148905,34.64184754789693]},"properties":{"full_address":"江苏省连云港市海州区花果山街道宋艞社区旺旺家园67号楼8-10层"}},{"type":"Feature","geometry":{"type":"Point","coordinates":[119.16887231087082,34.59859439800713]},"properties":{"full_address":"江苏省连云港市海州区新海街道海连社区新海花园B6号楼一单元2-4层"}},{"type":"Feature","geometry":{"type":"Point","coordinates":[119.44550167257557,32.082340682209214]},"properties":{"full_address":"江苏省镇江市丹徒区谷阳镇金河村昆鹏有限公司"}},{"type":"Feature","geometry":{"type":"Point","coordinates":[118.3475742349131,33.90753020191057]},"properties":{"full_address":"江苏省宿迁市宿豫区陆集街道好又多超市西北角门面房7-1"}},{"type":"Feature","geometry":{"type":"Point","coordinates":[118.38708273704312,33.882345190146964]},"properties":{"full_address":"江苏省宿迁市宿豫区府前雅居门面房魏胜路13号"}},{"type":"Feature","geometry":{"type":"Point","coordinates":[118.32980784265911,33.898704809170184]},"properties":{"full_address":"江苏省宿迁市宿豫区下相街道御江山工地"}},{"type":"Feature","geometry":{"type":"Point","coordinates":[118.35959468907997,33.8747531507851]},"properties":{"full_address":"江苏省宿迁市宿豫区下相街道南苑星城46幢"}},{"type":"Feature","geometry":{"type":"Point","coordinates":[118.33284432917152,33.88492473899951]},"properties":{"full_address":"江苏省宿迁市宿豫区下相街道江苏广新重工有限公司"}},{"type":"Feature","geometry":{"type":"Point","coordinates":[118.34678618175522,33.90712164821968]},"properties":{"full_address":"江苏省宿迁市宿豫区下相街道罗桥小区30号楼"}},{"type":"Feature","geometry":{"type":"Point","coordinates":[118.66238255515978,33.72335290088216]},"properties":{"full_address":"江苏省宿迁市泗阳县众兴街道西康社区西康佳苑二期6号楼4单元"}},{"type":"Feature","geometry":{"type":"Point","coordinates":[118.6588736358,33.72493568768052]},"properties":{"full_address":"江苏省宿迁市泗阳县众兴街道西康佳苑1栋3单元"}},{"type":"Feature","geometry":{"type":"Point","coordinates":[118.66128566227523,33.72448608301481]},"properties":{"full_address":"江苏省宿迁市泗阳县众兴街道西康佳苑2栋2单元"}},{"type":"Feature","geometry":{"type":"Point","coordinates":[118.65877368875645,33.72386272520367]},"properties":{"full_address":"江苏省宿迁市泗阳县众兴街道西康佳苑8栋3单元"}},{"type":"Feature","geometry":{"type":"Point","coordinates":[118.6671214504867,33.72038589981391]},"properties":{"full_address":"江苏省宿迁市泗阳县众兴街道雅典花园13号楼1单元"}},{"type":"Feature","geometry":{"type":"Point","coordinates":[118.33849190037088,34.010305460793376]},"properties":{"full_address":"江苏省宿迁市湖滨新区井头街道马窑小区2号楼3单元"}},{"type":"Feature","geometry":{"type":"Point","coordinates":[119.31454003746903,26.042600361615627]},"properties":{"full_address":"福建省福州市仓山区仓前街道麦园路41号02梯位"}},{"type":"Feature","geometry":{"type":"Point","coordinates":[119.36947979873649,25.99203015050879]},"properties":{"full_address":"福建省福州市仓山区城门镇黄山村中街258号房屋"}},{"type":"Feature","geometry":{"type":"Point","coordinates":[119.29871307266919,26.025466082725202]},"properties":{"full_address":"福建省福州市仓山区湖边村41号、79-8号"}},{"type":"Feature","geometry":{"type":"Point","coordinates":[119.37884973191153,25.8947808752049]},"properties":{"full_address":"福建省福州市闽侯县青口镇陈蛟弄3号、陈蛟弄12号、塔井弄10号"}},{"type":"Feature","geometry":{"type":"Point","coordinates":[119.30940758196842,25.701215841629846]},"properties":{"full_address":"福建省福州市福清市宏路街道锦绣御珑湾5号楼"}},{"type":"Feature","geometry":{"type":"Point","coordinates":[119.3090609758154,25.701627291741406]},"properties":{"full_address":"福建省福州市福清市宏路街道锦绣御珑湾1号楼一单元"}},{"type":"Feature","geometry":{"type":"Point","coordinates":[119.30940758196842,25.701215841629846]},"properties":{"full_address":"福建省福州市福清市宏路街道锦绣御珑湾2号楼一单元"}},{"type":"Feature","geometry":{"type":"Point","coordinates":[119.27345,26.04769]},"properties":{"full_address":"福建省福州市高新区两园安置房一期12#楼16层"}},{"type":"Feature","geometry":{"type":"Point","coordinates":[119.22547437265949,25.928973637699613]},"properties":{"full_address":"福建省福州市高新区窗厦村村后自然村138号、黄岸自然村100号、287号"}},{"type":"Feature","geometry":{"type":"Point","coordinates":[117.15513413697015,36.67368849585832]},"properties":{"full_address":"山东省济南市历下区智远街道银丰玖玺城工地A3生活区"}},{"type":"Feature","geometry":{"type":"Point","coordinates":[117.01287137655324,36.666796424979474]},"properties":{"full_address":"山东省济南市历下区泉城路街道泉城路323号环卫公寓"}},{"type":"Feature","geometry":{"type":"Point","coordinates":[117.14620498685183,36.697025075661266]},"properties":{"full_address":"山东省济南市历下区智远街道义和宾馆"}},{"type":"Feature","geometry":{"type":"Point","coordinates":[117.03287994527942,36.670510030039026]},"properties":{"full_address":"山东省济南市历下区大明湖街道明湖南区西配电室西侧院1单元"}},{"type":"Feature","geometry":{"type":"Point","coordinates":[117.03105948058408,36.66889394703088]},"properties":{"full_address":"山东省济南市历下区大明湖街道尹家巷19号2单元"}},{"type":"Feature","geometry":{"type":"Point","coordinates":[117.02377782900645,36.665673758542994]},"properties":{"full_address":"山东省济南市历下区泉城路街道芙蓉巷39号院"}},{"type":"Feature","geometry":{"type":"Point","coordinates":[117.0296100625748,36.6707927090952]},"properties":{"full_address":"山东省济南市历下区大明湖街道明湖小区东五区4号楼2单元"}},{"type":"Feature","geometry":{"type":"Point","coordinates":[117.04183362131374,36.67190166550685]},"properties":{"full_address":"山东省济南市历下区解放路街道青后二区1号楼1单元"}},{"type":"Feature","geometry":{"type":"Point","coordinates":[117.04116355349962,36.670214664394685]},"properties":{"full_address":"山东省济南市历下区解放路街道青后三区30号院11号楼4单元"}},{"type":"Feature","geometry":{"type":"Point","coordinates":[117.02233543069728,36.66856731821746]},"properties":{"full_address":"山东省济南市历下区泉城路街道贡院墙根街30号院2户"}},{"type":"Feature","geometry":{"type":"Point","coordinates":[117.02038446622811,36.667440049987334]},"properties":{"full_address":"山东省济南市历下区泉城路街道省府前街5号玉森连锁宾馆"}},{"type":"Feature","geometry":{"type":"Point","coordinates":[117.04256546676287,36.66392873943281]},"properties":{"full_address":"山东省济南市历下区解放路街道历山路98号2号楼1单元"}},{"type":"Feature","geometry":{"type":"Point","coordinates":[117.04116355349962,36.670214664394685]},"properties":{"full_address":"山东省济南市历下区解放路街道青后三区30号院51号楼1单元"}},{"type":"Feature","geometry":{"type":"Point","coordinates":[117.0392305867796,36.65853472865235]},"properties":{"full_address":"山东省济南市历下区解放路街道文华园4号楼1单元"}},{"type":"Feature","geometry":{"type":"Point","coordinates":[117.01906666301703,36.66833629528848]},"properties":{"full_address":"山东省济南市历下区泉城路街道慈林院街18号"}},{"type":"Feature","geometry":{"type":"Point","coordinates":[117.17032366794047,36.68123760799279]},"properties":{"full_address":"山东省济南市历下区智远街道凤岐路2999号"}},{"type":"Feature","geometry":{"type":"Point","coordinates":[117.01880077887998,36.66332442886317]},"properties":{"full_address":"山东省济南市历下区泉城路街道龙泉商城5楼"}},{"type":"Feature","geometry":{"type":"Point","coordinates":[116.92036955108073,36.523296987017034]},"properties":{"full_address":"山东省济南市市中区党家街道东渴马村"}},{"type":"Feature","geometry":{"type":"Point","coordinates":[116.94535032997368,36.58002050637949]},"properties":{"full_address":"山东省济南市市中区党家街道展东村"}},{"type":"Feature","geometry":{"type":"Point","coordinates":[116.94543246968564,36.58003840675473]},"properties":{"full_address":"山东省济南市市中区党家街道展西村"}},{"type":"Feature","geometry":{"type":"Point","coordinates":[116.83455482704726,36.62408327995457]},"properties":{"full_address":"山东省济南市市中区陡沟街道布诺花园A5-10"}},{"type":"Feature","geometry":{"type":"Point","coordinates":[116.97233989396024,36.55060333434752]},"properties":{"full_address":"山东省济南市市中区十六里河街道吴家庄村"}},{"type":"Feature","geometry":{"type":"Point","coordinates":[116.98305486312819,36.550585131169875]},"properties":{"full_address":"山东省济南市市中区十六里河街道西仙村"}},{"type":"Feature","geometry":{"type":"Point","coordinates":[116.99925048956648,36.58553434232089]},"properties":{"full_address":"山东省济南市市中区十六里河街道柏石峪小区5号楼"}},{"type":"Feature","geometry":{"type":"Point","coordinates":[116.95744781053608,36.6196318610888]},"properties":{"full_address":"山东省济南市市中区六里山街道英雄路54号如家酒店"}},{"type":"Feature","geometry":{"type":"Point","coordinates":[117.01115242607429,36.59673794513938]},"properties":{"full_address":"山东省济南市市中区十六里河街道领秀城17区21号楼"}},{"type":"Feature","geometry":{"type":"Point","coordinates":[116.9617613811209,36.62787283726315]},"properties":{"full_address":"山东省济南市市中区王官庄街道青龙山社区7号楼3单元"}},{"type":"Feature","geometry":{"type":"Point","coordinates":[116.8947402187264,36.60348888849289]},"properties":{"full_address":"山东省济南市市中区陡沟街道济南大骐机械科技有限公司"}},{"type":"Feature","geometry":{"type":"Point","coordinates":[116.86877651005382,36.615818671752]},"properties":{"full_address":"山东省济南市市中区陡沟街道郑庄村3区143号独立院落"}},{"type":"Feature","geometry":{"type":"Point","coordinates":[116.94588055613747,36.5135694474107]},"properties":{"full_address":"山东省济南市市中区党家街道宅科村113号"}},{"type":"Feature","geometry":{"type":"Point","coordinates":[116.9951700475978,36.659150527432885]},"properties":{"full_address":"山东省济南市市中区大观园街道经一纬三9号海岱宾馆"}},{"type":"Feature","geometry":{"type":"Point","coordinates":[116.9094209024596,36.63405116074601]},"properties":{"full_address":"山东省济南市市中区陡沟街道陡沟西山仓库"}},{"type":"Feature","geometry":{"type":"Point","coordinates":[116.90575907699427,36.549267823593425]},"properties":{"full_address":"山东省济南市市中区党家街道刘家林村东北角3户"}},{"type":"Feature","geometry":{"type":"Point","coordinates":[116.94543246968564,36.58003840675473]},"properties":{"full_address":"山东省济南市市中区党家街道展村西村272号4户住宅"}},{"type":"Feature","geometry":{"type":"Point","coordinates":[116.9916111359125,36.61407881098402]},"properties":{"full_address":"山东省济南市市中区六里山街道城南雅苑2号楼2单元"}},{"type":"Feature","geometry":{"type":"Point","coordinates":[117.01186387905177,36.66321404315662]},"properties":{"full_address":"山东省济南市市中区泺源街道共青团路28号南牛羊肉店"}},{"type":"Feature","geometry":{"type":"Point","coordinates":[117.04135478938866,36.60962292078404]},"properties":{"full_address":"山东省济南市市中区兴隆街道华润仰山1期3204栋别墅"}},{"type":"Feature","geometry":{"type":"Point","coordinates":[116.94543246968564,36.58003840675473]},"properties":{"full_address":"山东省济南市市中区党家街道展村西村292号及周边3户"}},{"type":"Feature","geometry":{"type":"Point","coordinates":[116.94543246968564,36.58003840675473]},"properties":{"full_address":"山东省济南市市中区党家街道展村西村334号及周边3户"}},{"type":"Feature","geometry":{"type":"Point","coordinates":[116.86877651005382,36.615818671752]},"properties":{"full_address":"山东省济南市市中区陡沟街道郑庄村三区26号1户、二区74号1户"}},{"type":"Feature","geometry":{"type":"Point","coordinates":[117.01082558935657,36.661361059006175]},"properties":{"full_address":"山东省济南市市中区泺源街道回民小区36号楼2单元"}},{"type":"Feature","geometry":{"type":"Point","coordinates":[117.00222216593161,36.659007157258685]},"properties":{"full_address":"山东省济南市市中区魏家庄街道林祥南街160号1户"}},{"type":"Feature","geometry":{"type":"Point","coordinates":[117.09691171517132,36.56718788763709]},"properties":{"full_address":"山东省济南市市中区兴隆街道涝坡村306号1户"}},{"type":"Feature","geometry":{"type":"Point","coordinates":[116.91247009441086,36.51775223608561]},"properties":{"full_address":"山东省济南市市中区党家街道土屋村107号周围3户区域"}},{"type":"Feature","geometry":{"type":"Point","coordinates":[116.89644110427223,36.601092894917514]},"properties":{"full_address":"山东省济南市市中区陡沟街道陡沟村一区80号、三区107号、三区179号周围9户区域"}},{"type":"Feature","geometry":{"type":"Point","coordinates":[117.00351518155196,36.59905377176905]},"properties":{"full_address":"山东省济南市市中区十六里河街道东河村267号、398号、444号、550号4户"}},{"type":"Feature","geometry":{"type":"Point","coordinates":[116.94271005144347,36.633549582463004]},"properties":{"full_address":"山东省济南市市中区白马山街道白马花园北区1号楼4单元"}},{"type":"Feature","geometry":{"type":"Point","coordinates":[116.94524604501821,36.63789324820044]},"properties":{"full_address":"山东省济南市市中区白马山街道白马家园南区7号楼2单元"}},{"type":"Feature","geometry":{"type":"Point","coordinates":[116.94724596119204,36.62189561283969]},"properties":{"full_address":"山东省济南市市中区白马山街道白马山啤酒厂10号楼2单元"}},{"type":"Feature","geometry":{"type":"Point","coordinates":[116.93880879370772,36.63840798467032]},"properties":{"full_address":"山东省济南市市中区白马山街道东红庙社区114号1单元"}},{"type":"Feature","geometry":{"type":"Point","coordinates":[116.93880879370772,36.63840798467032]},"properties":{"full_address":"山东省济南市市中区白马山街道东红庙社区20号1单元"}},{"type":"Feature","geometry":{"type":"Point","coordinates":[116.93980231450291,36.63935284151949]},"properties":{"full_address":"山东省济南市市中区白马山街道谷庄居东韩路5-1号1单元"}},{"type":"Feature","geometry":{"type":"Point","coordinates":[116.9484601937219,36.6340855684017]},"properties":{"full_address":"山东省济南市市中区白马山街道金润花园9号楼2单元"}},{"type":"Feature","geometry":{"type":"Point","coordinates":[116.9249594489633,36.6421210778541]},"properties":{"full_address":"山东省济南市市中区白马山街道明珠西苑南区8号楼3单元"}},{"type":"Feature","geometry":{"type":"Point","coordinates":[116.93125546664226,36.64562673267871]},"properties":{"full_address":"山东省济南市市中区白马山街道普照园北区3号楼1单元"}},{"type":"Feature","geometry":{"type":"Point","coordinates":[116.9415583438801,36.62431052621348]},"properties":{"full_address":"山东省济南市市中区白马山街道铁路新村19号楼3单元"}},{"type":"Feature","geometry":{"type":"Point","coordinates":[116.9415583438801,36.62431052621348]},"properties":{"full_address":"山东省济南市市中区白马山街道铁路新村5号楼4单元"}},{"type":"Feature","geometry":{"type":"Point","coordinates":[116.94623331787481,36.624065183947316]},"properties":{"full_address":"山东省济南市市中区白马山街道原山首府10号楼1单元"}},{"type":"Feature","geometry":{"type":"Point","coordinates":[116.94623331787481,36.624065183947316]},"properties":{"full_address":"山东省济南市市中区白马山街道原山首府3号楼1单元"}},{"type":"Feature","geometry":{"type":"Point","coordinates":[116.99125496832637,36.664190493854996]},"properties":{"full_address":"山东省济南市市中区大观园街道经二路220号季风酒店3楼"}},{"type":"Feature","geometry":{"type":"Point","coordinates":[116.98814625862866,36.660346898489685]},"properties":{"full_address":"山东省济南市市中区大观园街道经四路411号东单元"}},{"type":"Feature","geometry":{"type":"Point","coordinates":[116.99168573883316,36.65968060320133]},"properties":{"full_address":"山东省济南市市中区大观园街道三里庄小区3号楼3单元"}},{"type":"Feature","geometry":{"type":"Point","coordinates":[116.9951700475978,36.659150527432885]},"properties":{"full_address":"山东省济南市市中区大观园街道同福街12号楼5单元"}},{"type":"Feature","geometry":{"type":"Point","coordinates":[116.99037501951408,36.665564886286205]},"properties":{"full_address":"山东省济南市市中区大观园街道万紫巷东街93号院3户"}},{"type":"Feature","geometry":{"type":"Point","coordinates":[116.99203752648718,36.663727851649725]},"properties":{"full_address":"山东省济南市市中区大观园街道望平街站南宾馆"}},{"type":"Feature","geometry":{"type":"Point","coordinates":[116.90573227866513,36.549267341149935]},"properties":{"full_address":"山东省济南市市中区党家街道刘家林村一区39号2户"}},{"type":"Feature","geometry":{"type":"Point","coordinates":[116.9420491000588,36.5701557244366]},"properties":{"full_address":"山东省济南市市中区党家街道邵而庄东村一区192号3户"}},{"type":"Feature","geometry":{"type":"Point","coordinates":[116.87488578371806,36.572369496244455]},"properties":{"full_address":"山东省济南市市中区陡沟街道北桥村9号、52号"}},{"type":"Feature","geometry":{"type":"Point","coordinates":[116.91194689048324,36.61308435485906]},"properties":{"full_address":"山东省济南市市中区陡沟街道大庙屯村287号"}},{"type":"Feature","geometry":{"type":"Point","coordinates":[116.8949855030789,36.60072900906059]},"properties":{"full_address":"山东省济南市市中区陡沟街道党杨路东立东五金灯具装饰材料"}},{"type":"Feature","geometry":{"type":"Point","coordinates":[116.88303876893268,36.60084747891156]},"properties":{"full_address":"山东省济南市市中区陡沟街道东风村64号、79号"}},{"type":"Feature","geometry":{"type":"Point","coordinates":[116.83078094095909,36.62661556925947]},"properties":{"full_address":"山东省济南市市中区陡沟街道丰齐村511号"}},{"type":"Feature","geometry":{"type":"Point","coordinates":[116.88589672555341,36.600102428131635]},"properties":{"full_address":"山东省济南市市中区陡沟街道红星村84号"}},{"type":"Feature","geometry":{"type":"Point","coordinates":[116.8560819998191,36.60815811322773]},"properties":{"full_address":"山东省济南市市中区陡沟街道刘长山路与郑红路交叉口东北角洗车店"}},{"type":"Feature","geometry":{"type":"Point","coordinates":[116.8947402187264,36.60348888849289]},"properties":{"full_address":"山东省济南市市中区陡沟街道青牛山庄一期4号楼2单元"}},{"type":"Feature","geometry":{"type":"Point","coordinates":[116.86231072208876,36.62317162987181]},"properties":{"full_address":"山东省济南市市中区陡沟街道仁里村一区2号"}},{"type":"Feature","geometry":{"type":"Point","coordinates":[116.91667246460506,36.61680331629332]},"properties":{"full_address":"山东省济南市市中区陡沟街道融汇城江山5号楼1单元"}},{"type":"Feature","geometry":{"type":"Point","coordinates":[116.85289956683194,36.589890373248835]},"properties":{"full_address":"山东省济南市市中区陡沟街道杨台村176号"}},{"type":"Feature","geometry":{"type":"Point","coordinates":[116.8812828869337,36.57837052400265]},"properties":{"full_address":"山东省济南市市中区陡沟街道殷家林村40号、295号及路边果园平房共3户"}},{"type":"Feature","geometry":{"type":"Point","coordinates":[116.86877651005382,36.615818671752]},"properties":{"full_address":"山东省济南市市中区陡沟街道郑庄村3区142号"}},{"type":"Feature","geometry":{"type":"Point","coordinates":[116.89366012030494,36.61849209133432]},"properties":{"full_address":"山东省济南市市中区陡沟街道紫明山庄19号楼1单元"}},{"type":"Feature","geometry":{"type":"Point","coordinates":[116.99394223759381,36.63377896239967]},"properties":{"full_address":"山东省济南市市中区二七新村街道陈庄大街111号"}},{"type":"Feature","geometry":{"type":"Point","coordinates":[116.98575394439874,36.63146234991598]},"properties":{"full_address":"山东省济南市市中区二七新村街道建设路99号院"}},{"type":"Feature","geometry":{"type":"Point","coordinates":[116.98935008951744,36.65155072257035]},"properties":{"full_address":"山东省济南市市中区杆石桥街道爱客酒店"}},{"type":"Feature","geometry":{"type":"Point","coordinates":[116.98967505149497,36.651703687464924]},"properties":{"full_address":"山东省济南市市中区杆石桥街道岔路街1区5号楼1单元"}},{"type":"Feature","geometry":{"type":"Point","coordinates":[116.9881499789567,36.65566091330949]},"properties":{"full_address":"山东省济南市市中区杆石桥街道春元里小区10号楼3单元"}},{"type":"Feature","geometry":{"type":"Point","coordinates":[116.99977037769756,36.658756087871595]},"properties":{"full_address":"山东省济南市市中区杆石桥街道经六路27号1单元"}},{"type":"Feature","geometry":{"type":"Point","coordinates":[117.00011438137642,36.65431997822118]},"properties":{"full_address":"山东省济南市市中区杆石桥街道乐山小区南区7号楼1单元"}},{"type":"Feature","geometry":{"type":"Point","coordinates":[116.98993404817129,36.65283685336587]},"properties":{"full_address":"山东省济南市市中区杆石桥街道纬五路79号1号楼"}},{"type":"Feature","geometry":{"type":"Point","coordinates":[117.00770153411037,36.6067070588204]},"properties":{"full_address":"山东省济南市市中区六里山街道他山花园2号楼3单元"}},{"type":"Feature","geometry":{"type":"Point","coordinates":[117.00186034804646,36.628619580037444]},"properties":{"full_address":"山东省济南市市中区六里山街道英雄山路78号院5号楼3单元"}},{"type":"Feature","geometry":{"type":"Point","coordinates":[117.00177140225203,36.62814238992024]},"properties":{"full_address":"山东省济南市市中区六里山街道英雄山路80号2号路6单元"}},{"type":"Feature","geometry":{"type":"Point","coordinates":[117.01247345666681,36.611874183194416]},"properties":{"full_address":"山东省济南市市中区六里山街道玉函北区27号楼2单元"}},{"type":"Feature","geometry":{"type":"Point","coordinates":[117.01156123099096,36.6621045813085]},"properties":{"full_address":"山东省济南市市中区泺源街道回民小区13号楼1单元"}},{"type":"Feature","geometry":{"type":"Point","coordinates":[116.98969979704735,36.629365631292046]},"properties":{"full_address":"山东省济南市市中区七里山街道二七南路14号院13号楼2单元"}},