{"type":"FeatureCollection","features":[{"type":"Feature","geometry":{"type":"Point","coordinates":[108.965902,34.225632]},"properties":{"province":"陕西省","city":"西安市","county":"雁塔区","community":"大雁塔街道","full_address":"陕西省西安市雁塔区大雁塔街道","info":""}},{"type":"Feature","geometry":{"type":"Point","coordinates":[109.01825,34.230691]},"properties":{"province":"陕西省","city":"西安市","county":"雁塔区","community":"等驾坡街道","full_address":"陕西省西安市雁塔区等驾坡街道","info":""}},{"type":"Feature","geometry":{"type":"Point","coordinates":[108.920463,34.221531]},"properties":{"province":"陕西省","city":"西安市","county":"雁塔区","community":"电子城街道","full_address":"陕西省西安市雁塔区电子城街道","info":""}},{"type":"Feature","geometry":{"type":"Point","coordinates":[108.927741,34.185934]},"properties":{"province":"陕西省","city":"西安市","county":"雁塔区","community":"杜城街道","full_address":"陕西省西安市雁塔区杜城街道","info":""}},{"type":"Feature","geometry":{"type":"Point","coordinates":[108.926998,34.230598]},"properties":{"province":"陕西省","city":"西安市","county":"雁塔区","community":"小寨路街道（不含长安大学社区）","full_address":"陕西省西安市雁塔区小寨路街道（不含长安大学社区）","info":""}},{"type":"Feature","geometry":{"type":"Point","coordinates":[108.842269,34.21312]},"properties":{"province":"陕西省","city":"西安市","county":"雁塔区","community":"漳浒寨街道","full_address":"陕西省西安市雁塔区漳浒寨街道","info":""}},{"type":"Feature","geometry":{"type":"Point","coordinates":[108.965486,34.254914]},"properties":{"province":"陕西省","city":"西安市","county":"碑林区","community":"柏树林街道","full_address":"陕西省西安市碑林区柏树林街道","info":""}},{"type":"Feature","geometry":{"type":"Point","coordinates":[108.969575,34.245966]},"properties":{"province":"陕西省","city":"西安市","county":"碑林区","community":"太乙路街道","full_address":"陕西省西安市碑林区太乙路街道","info":""}},{"type":"Feature","geometry":{"type":"Point","coordinates":[108.95231,34.244901]},"properties":{"province":"陕西省","city":"西安市","county":"碑林区","community":"文艺路街道","full_address":"陕西省西安市碑林区文艺路街道","info":""}},{"type":"Feature","geometry":{"type":"Point","coordinates":[108.935451,34.247264]},"properties":{"province":"陕西省","city":"西安市","county":"碑林区","community":"张家村街道","full_address":"陕西省西安市碑林区张家村街道","info":""}},{"type":"Feature","geometry":{"type":"Point","coordinates":[108.947364,34.238509]},"properties":{"province":"陕西省","city":"西安市","county":"碑林区","community":"长安路街道","full_address":"陕西省西安市碑林区长安路街道","info":""}},{"type":"Feature","geometry":{"type":"Point","coordinates":[109.081423,34.313129]},"properties":{"province":"陕西省","city":"西安市","county":"灞桥区","community":"灞桥街道","full_address":"陕西省西安市灞桥区灞桥街道","info":""}},{"type":"Feature","geometry":{"type":"Point","coordinates":[109.064461,34.268599]},"properties":{"province":"陕西省","city":"西安市","county":"灞桥区","community":"纺织城街道","full_address":"陕西省西安市灞桥区纺织城街道","info":""}},{"type":"Feature","geometry":{"type":"Point","coordinates":[109.05566,34.24263]},"properties":{"province":"陕西省","city":"西安市","county":"灞桥区","community":"红旗街道","full_address":"陕西省西安市灞桥区红旗街道","info":""}},{"type":"Feature","geometry":{"type":"Point","coordinates":[109.117756,34.304467]},"properties":{"province":"陕西省","city":"西安市","county":"灞桥区","community":"洪庆街道","full_address":"陕西省西安市灞桥区洪庆街道","info":""}},{"type":"Feature","geometry":{"type":"Point","coordinates":[109.063447,34.287901]},"properties":{"province":"陕西省","city":"西安市","county":"灞桥区","community":"席王街道","full_address":"陕西省西安市灞桥区席王街道","info":""}},{"type":"Feature","geometry":{"type":"Point","coordinates":[109.008851,34.255499]},"properties":{"province":"陕西省","city":"西安市","county":"新城区","community":"韩森寨街道","full_address":"陕西省西安市新城区韩森寨街道","info":""}},{"type":"Feature","geometry":{"type":"Point","coordinates":[109.014181,34.287143]},"properties":{"province":"陕西省","city":"西安市","county":"新城区","community":"胡家庙街道","full_address":"陕西省西安市新城区胡家庙街道","info":""}},{"type":"Feature","geometry":{"type":"Point","coordinates":[108.974869,34.287897]},"properties":{"province":"陕西省","city":"西安市","county":"新城区","community":"太华路街道","full_address":"陕西省西安市新城区太华路街道","info":""}},{"type":"Feature","geometry":{"type":"Point","coordinates":[108.958216,34.2617]},"properties":{"province":"陕西省","city":"西安市","county":"新城区","community":"西一路街道","full_address":"陕西省西安市新城区西一路街道","info":""}},{"type":"Feature","geometry":{"type":"Point","coordinates":[108.947571,34.282589]},"properties":{"province":"陕西省","city":"西安市","county":"莲湖区","community":"北关街道","full_address":"陕西省西安市莲湖区北关街道","info":""}},{"type":"Feature","geometry":{"type":"Point","coordinates":[108.928126,34.286536]},"properties":{"province":"陕西省","city":"西安市","county":"莲湖区","community":"红庙坡街道","full_address":"陕西省西安市莲湖区红庙坡街道","info":""}},{"type":"Feature","geometry":{"type":"Point","coordinates":[108.888829,34.259178]},"properties":{"province":"陕西省","city":"西安市","county":"莲湖区","community":"土门街道","full_address":"陕西省西安市莲湖区土门街道","info":""}},{"type":"Feature","geometry":{"type":"Point","coordinates":[108.872139,34.274355]},"properties":{"province":"陕西省","city":"西安市","county":"莲湖区","community":"枣园街道","full_address":"陕西省西安市莲湖区枣园街道","info":""}},{"type":"Feature","geometry":{"type":"Point","coordinates":[109.211614,34.631958]},"properties":{"province":"陕西省","city":"西安市","county":"阎良区","community":"航空学院）","full_address":"陕西省西安市阎良区航空学院）","info":""}},{"type":"Feature","geometry":{"type":"Point","coordinates":[108.966124,34.341654]},"properties":{"province":"陕西省","city":"西安市","county":"未央区","community":"谭家街道","full_address":"陕西省西安市未央区谭家街道","info":""}},{"type":"Feature","geometry":{"type":"Point","coordinates":[108.906628,34.300551]},"properties":{"province":"陕西省","city":"西安市","county":"未央区","community":"未央宫街道","full_address":"陕西省西安市未央区未央宫街道","info":""}},{"type":"Feature","geometry":{"type":"Point","coordinates":[108.964425,34.347232]},"properties":{"province":"陕西省","city":"西安市","county":"未央区","community":"徐家湾街道","full_address":"陕西省西安市未央区徐家湾街道","info":""}},{"type":"Feature","geometry":{"type":"Point","coordinates":[108.869257,34.159957]},"properties":{"province":"陕西省","city":"西安市","county":"长安区","community":"郭杜街道","full_address":"陕西省西安市长安区郭杜街道","info":""}},{"type":"Feature","geometry":{"type":"Point","coordinates":[108.934632,34.158892]},"properties":{"province":"陕西省","city":"西安市","county":"长安区","community":"韦曲街道","full_address":"陕西省西安市长安区韦曲街道","info":""}},{"type":"Feature","geometry":{"type":"Point","coordinates":[108.860762,34.2332]},"properties":{"province":"陕西省","city":"西安市","county":"雁塔区","community":"高新区鱼化寨街道","full_address":"陕西省西安市雁塔区高新区鱼化寨街道","info":""}},{"type":"Feature","geometry":{"type":"Point","coordinates":[108.873871,34.207554]},"properties":{"province":"陕西省","city":"西安市","county":"雁塔区","community":"丈八街道","full_address":"陕西省西安市雁塔区丈八街道","info":""}},{"type":"Feature","geometry":{"type":"Point","coordinates":[108.570971,34.094993]},"properties":{"province":"陕西省","city":"西安市","county":"鄠邑区","community":"鄠邑区玉蝉街道","full_address":"陕西省西安市鄠邑区鄠邑区玉蝉街道","info":""}},{"type":"Feature","geometry":{"type":"Point","coordinates":[108.6023,34.10783]},"properties":{"province":"陕西省","city":"西安市","county":"鄠邑区","community":"甘亭街道","full_address":"陕西省西安市鄠邑区甘亭街道","info":""}},{"type":"Feature","geometry":{"type":"Point","coordinates":[108.787148,34.083111]},"properties":{"province":"陕西省","city":"西安市","county":"长安区","community":"五星街道","full_address":"陕西省西安市长安区五星街道","info":""}},{"type":"Feature","geometry":{"type":"Point","coordinates":[108.790006,34.157158]},"properties":{"province":"陕西省","city":"西安市","county":"长安区","community":"细柳街道","full_address":"陕西省西安市长安区细柳街道","info":""}},{"type":"Feature","geometry":{"type":"Point","coordinates":[108.654631,34.102633]},"properties":{"province":"陕西省","city":"西安市","county":"鄠邑区","community":"五竹街道","full_address":"陕西省西安市鄠邑区五竹街道","info":""}},{"type":"Feature","geometry":{"type":"Point","coordinates":[108.81236,34.302455]},"properties":{"province":"陕西省","city":"西安市","county":"未央区","community":"西咸新区沣东新城三桥街道","full_address":"陕西省西安市未央区西咸新区沣东新城三桥街道","info":""}},{"type":"Feature","geometry":{"type":"Point","coordinates":[108.953075,34.271492]},"properties":{"province":"陕西省","city":"西安市","county":"新城区","community":"上林街道","full_address":"陕西省西安市新城区上林街道","info":""}},{"type":"Feature","geometry":{"type":"Point","coordinates":[108.789099,34.258264]},"properties":{"province":"陕西省","city":"西安市","county":"长安区","community":"王寺街道","full_address":"陕西省西安市长安区王寺街道","info":""}},{"type":"Feature","geometry":{"type":"Point","coordinates":[108.715413,34.24725]},"properties":{"province":"陕西省","city":"西安市","county":"长安区","community":"沣西新城马王街道","full_address":"陕西省西安市长安区沣西新城马王街道","info":""}},{"type":"Feature","geometry":{"type":"Point","coordinates":[108.887502,34.22302]},"properties":{"province":"陕西省","city":"西安市","county":"西咸新区","community":"秦汉新城渭城街道","full_address":"陕西省西安市西咸新区秦汉新城渭城街道","info":""}},{"type":"Feature","geometry":{"type":"Point","coordinates":[108.81236,34.302455]},"properties":{"province":"陕西省","city":"西安市","county":"未央区","community":"沣东新城斗门街道","full_address":"陕西省西安市未央区沣东新城斗门街道","info":""}},{"type":"Feature","geometry":{"type":"Point","coordinates":[108.960741,34.21178]},"properties":{"province":"陕西省","city":"西安市","county":"雁塔区","community":"曲江新区保利春天里社区","full_address":"陕西省西安市雁塔区曲江新区保利春天里社区","info":""}},{"type":"Feature","geometry":{"type":"Point","coordinates":[108.961963,34.212383]},"properties":{"province":"陕西省","city":"西安市","county":"雁塔区","community":"曲江中心社区","full_address":"陕西省西安市雁塔区曲江中心社区","info":""}},{"type":"Feature","geometry":{"type":"Point","coordinates":[108.984699,34.184887]},"properties":{"province":"陕西省","city":"西安市","county":"雁塔区","community":"曲江香都社区","full_address":"陕西省西安市雁塔区曲江香都社区","info":""}},{"type":"Feature","geometry":{"type":"Point","coordinates":[109.001152,34.208811]},"properties":{"province":"陕西省","city":"西安市","county":"雁塔区","community":"中铁国际城社区","full_address":"陕西省西安市雁塔区中铁国际城社区","info":""}},{"type":"Feature","geometry":{"type":"Point","coordinates":[109.039484,34.251067]},"properties":{"province":"陕西省","city":"西安市","county":"雁塔区","community":"浐灞生态区田家湾社区","full_address":"陕西省西安市雁塔区浐灞生态区田家湾社区","info":""}},{"type":"Feature","geometry":{"type":"Point","coordinates":[109.015406,34.323774]},"properties":{"province":"陕西省","city":"西安市","county":"未央区","community":"浐灞二路社区","full_address":"陕西省西安市未央区浐灞二路社区","info":""}},{"type":"Feature","geometry":{"type":"Point","coordinates":[109.029621,34.26797]},"properties":{"province":"陕西省","city":"西安市","county":"灞桥区","community":"长乐坡社区","full_address":"陕西省西安市灞桥区长乐坡社区","info":""}},{"type":"Feature","geometry":{"type":"Point","coordinates":[109.005913,34.304136]},"properties":{"province":"陕西省","city":"西安市","county":"未央区","community":"华远海蓝城社区","full_address":"陕西省西安市未央区华远海蓝城社区","info":""}},{"type":"Feature","geometry":{"type":"Point","coordinates":[109.047467,34.230968]},"properties":{"province":"陕西省","city":"西安市","county":"雁塔区","community":"绿地国际生态城社区","full_address":"陕西省西安市雁塔区绿地国际生态城社区","info":""}},{"type":"Feature","geometry":{"type":"Point","coordinates":[109.042519,34.278752]},"properties":{"province":"陕西省","city":"西安市","county":"灞桥区","community":"御锦城社区","full_address":"陕西省西安市灞桥区御锦城社区","info":""}},{"type":"Feature","geometry":{"type":"Point","coordinates":[108.960612,34.344232]},"properties":{"province":"陕西省","city":"西安市","county":"未央区","community":"经开区海荣豪佳社区","full_address":"陕西省西安市未央区经开区海荣豪佳社区","info":""}},{"type":"Feature","geometry":{"type":"Point","coordinates":[108.960612,34.344232]},"properties":{"province":"陕西省","city":"西安市","county":"未央区","community":"白桦林居社区","full_address":"陕西省西安市未央区白桦林居社区","info":""}},{"type":"Feature","geometry":{"type":"Point","coordinates":[108.960612,34.344232]},"properties":{"province":"陕西省","city":"西安市","county":"未央区","community":"尚宏社区","full_address":"陕西省西安市未央区尚宏社区","info":""}},{"type":"Feature","geometry":{"type":"Point","coordinates":[108.95058,34.169373]},"properties":{"province":"陕西省","city":"西安市","county":"长安区","community":"航天基地航天六院社区","full_address":"陕西省西安市长安区航天基地航天六院社区","info":""}},{"type":"Feature","geometry":{"type":"Point","coordinates":[108.957733,34.158991]},"properties":{"province":"陕西省","city":"西安市","county":"长安区","community":"上元郡社区","full_address":"陕西省西安市长安区上元郡社区","info":""}},{"type":"Feature","geometry":{"type":"Point","coordinates":[108.980367,34.153515]},"properties":{"province":"陕西省","city":"西安市","county":"长安区","community":"神州五路社区","full_address":"陕西省西安市长安区神州五路社区","info":""}},{"type":"Feature","geometry":{"type":"Point","coordinates":[109.050656,34.363979]},"properties":{"province":"陕西省","city":"西安市","county":"灞桥区","community":"国际港务区新筑街道","full_address":"陕西省西安市灞桥区国际港务区新筑街道","info":""}},{"type":"Feature","geometry":{"type":"Point","coordinates":[109.512872,36.607703]},"properties":{"province":"陕西省","city":"延安市","county":"宝塔区","community":"桥沟街道东苑社区","full_address":"陕西省延安市宝塔区桥沟街道东苑社区","info":""}},{"type":"Feature","geometry":{"type":"Point","coordinates":[109.508979,36.609992]},"properties":{"province":"陕西省","city":"延安市","county":"宝塔区","community":"向阳社区","full_address":"陕西省延安市宝塔区向阳社区","info":""}},{"type":"Feature","geometry":{"type":"Point","coordinates":[110.001362,36.585776]},"properties":{"province":"陕西省","city":"延安市","county":"延长县","community":"桥沟社区","full_address":"陕西省延安市延长县桥沟社区","info":""}},{"type":"Feature","geometry":{"type":"Point","coordinates":[109.496914,36.598793]},"properties":{"province":"陕西省","city":"延安市","county":"宝塔区","community":"南寨砭村美满国际小区","full_address":"陕西省延安市宝塔区南寨砭村美满国际小区","info":""}},{"type":"Feature","geometry":{"type":"Point","coordinates":[109.502341,36.6073]},"properties":{"province":"陕西省","city":"延安市","county":"宝塔区","community":"宝塔山街道东风社区","full_address":"陕西省延安市宝塔区宝塔山街道东风社区","info":""}},{"type":"Feature","geometry":{"type":"Point","coordinates":[109.510482,36.607389]},"properties":{"province":"陕西省","city":"延安市","county":"宝塔区","community":"嘉陵社区","full_address":"陕西省延安市宝塔区嘉陵社区","info":""}},{"type":"Feature","geometry":{"type":"Point","coordinates":[109.516667,36.769272]},"properties":{"province":"陕西省","city":"延安市","county":"宝塔区","community":"冯庄乡首头庄村","full_address":"陕西省延安市宝塔区冯庄乡首头庄村","info":""}},{"type":"Feature","geometry":{"type":"Point","coordinates":[109.680346,37.141809]},"properties":{"province":"陕西省","city":"延安市","county":"宝塔区","community":"宝塔采油厂丰富川联合站","full_address":"陕西省延安市宝塔区宝塔采油厂丰富川联合站","info":""}},{"type":"Feature","geometry":{"type":"Point","coordinates":[121.814299,29.929308]},"properties":{"province":"浙江省","city":"宁波市","county":"北仑区","community":"新碶街道沿海村","full_address":"浙江省宁波市北仑区新碶街道沿海村","info":""}},{"type":"Feature","geometry":{"type":"Point","coordinates":[121.800114,29.930366]},"properties":{"province":"浙江省","city":"宁波市","county":"北仑区","community":"申洲公司三部厂区及宿舍区","full_address":"浙江省宁波市北仑区申洲公司三部厂区及宿舍区","info":""}},{"type":"Feature","geometry":{"type":"Point","coordinates":[120.027124,28.85328]},"properties":{"province":"浙江省","city":"金华市","county":"永康市","community":"石柱镇前锦村下陈自然村","full_address":"浙江省金华市永康市石柱镇前锦村下陈自然村","info":""}},{"type":"Feature","geometry":{"type":"Point","coordinates":[119.95563,28.924292]},"properties":{"province":"浙江省","city":"金华市","county":"永康市","community":"增杰衡器厂","full_address":"浙江省金华市永康市增杰衡器厂","info":""}},{"type":"Feature","geometry":{"type":"Point","coordinates":[112.164717,34.725604]},"properties":{"province":"河南省","city":"洛阳市","county":"新安县","community":"正村镇正村社区","full_address":"河南省洛阳市新安县正村镇正村社区","info":""}},{"type":"Feature","geometry":{"type":"Point","coordinates":[112.077907,33.981768]},"properties":{"province":"河南省","city":"洛阳市","county":"嵩县","community":"西沟村","full_address":"河南省洛阳市嵩县西沟村","info":""}},{"type":"Feature","geometry":{"type":"Point","coordinates":[113.482289,34.142908]},"properties":{"province":"河南省","city":"许昌市","county":"禹州市","community":"颍川街道（塔湾村安泰煤业公司家属院&回族小学北5街&开元小区&尹庄&禹王大道113号以外的区域）","full_address":"河南省许昌市禹州市颍川街道（塔湾村安泰煤业公司家属院&回族小学北5街&开元小区&尹庄&禹王大道113号以外的区域）","info":""}},{"type":"Feature","geometry":{"type":"Point","coordinates":[113.466037,34.174501]},"properties":{"province":"河南省","city":"许昌市","county":"禹州市","community":"钧台街道（四季花城（西院）以外的区域）","full_address":"河南省许昌市禹州市钧台街道（四季花城（西院）以外的区域）","info":""}},{"type":"Feature","geometry":{"type":"Point","coordinates":[113.586611,34.250878]},"properties":{"province":"河南省","city":"许昌市","county":"禹州市","community":"韩城街道（焦寨社区以外的区域）","full_address":"河南省许昌市禹州市韩城街道（焦寨社区以外的区域）","info":""}},{"type":"Feature","geometry":{"type":"Point","coordinates":[113.385396,34.142435]},"properties":{"province":"河南省","city":"许昌市","county":"禹州市","community":"火龙镇（刘沟村&郭楼村以外的区域）","full_address":"河南省许昌市禹州市火龙镇（刘沟村&郭楼村以外的区域）","info":""}},{"type":"Feature","geometry":{"type":"Point","coordinates":[113.42825,34.090461]},"properties":{"province":"河南省","city":"许昌市","county":"禹州市","community":"张得镇（寨外村以外的区域）","full_address":"河南省许昌市禹州市张得镇（寨外村以外的区域）","info":""}},{"type":"Feature","geometry":{"type":"Point","coordinates":[113.611843,34.740275]},"properties":{"province":"河南省","city":"郑州市","county":"中原区","community":"绿东村办事处电缆社区69号院","full_address":"河南省郑州市中原区绿东村办事处电缆社区69号院","info":""}},{"type":"Feature","geometry":{"type":"Point","coordinates":[113.601573,34.745272]},"properties":{"province":"河南省","city":"郑州市","county":"中原区","community":"中原西路街道万达社区中原万达小区东院","full_address":"河南省郑州市中原区中原西路街道万达社区中原万达小区东院","info":""}},{"type":"Feature","geometry":{"type":"Point","coordinates":[113.65622,34.731693]},"properties":{"province":"河南省","city":"郑州市","county":"二七区","community":"建中街办事处永安社区保全街28号院","full_address":"河南省郑州市二七区建中街办事处永安社区保全街28号院","info":""}}]}