{"type":"FeatureCollection","features":[{"type":"Feature","geometry":{"type":"Point","coordinates":[116.494264,39.853492]},"properties":{"province":"北京市","city":"朝阳区","county":"十八里店（地区）乡","community":"小武基村","full_address":"北京市朝阳区十八里店（地区）乡小武基村","info":""}},{"type":"Feature","geometry":{"type":"Point","coordinates":[116.529868,40.013332]},"properties":{"province":"北京市","city":"朝阳区","county":"崔各庄（地区）乡","community":"京旺家园第二社区","full_address":"北京市朝阳区崔各庄（地区）乡京旺家园第二社区","info":""}},{"type":"Feature","geometry":{"type":"Point","coordinates":[116.499028,39.321794]},"properties":{"province":"河北省","city":"廊坊市","county":"永清县","community":"海森威工业小区","full_address":"河北省廊坊市永清县海森威工业小区","info":""}},{"type":"Feature","geometry":{"type":"Point","coordinates":[118.04728,43.61224]},"properties":{"province":"内蒙古自治区","city":"赤峰市","county":"林西县","community":"城北街道佳顺社区","full_address":"内蒙古自治区赤峰市林西县城北街道佳顺社区","info":""}},{"type":"Feature","geometry":{"type":"Point","coordinates":[118.040004,43.600507]},"properties":{"province":"内蒙古自治区","city":"赤峰市","county":"林西县","community":"城北街道金海社区","full_address":"内蒙古自治区赤峰市林西县城北街道金海社区","info":""}},{"type":"Feature","geometry":{"type":"Point","coordinates":[118.05129,43.60368]},"properties":{"province":"内蒙古自治区","city":"赤峰市","county":"林西县","community":"城南街道学府社区","full_address":"内蒙古自治区赤峰市林西县城南街道学府社区","info":""}},{"type":"Feature","geometry":{"type":"Point","coordinates":[124.391185,40.148824]},"properties":{"province":"辽宁省","city":"丹东市","county":"元宝区","community":"御景苑回迁楼区（御景苑41号楼、42号楼）","full_address":"辽宁省丹东市元宝区御景苑回迁楼区（御景苑41号楼、42号楼）","info":""}},{"type":"Feature","geometry":{"type":"Point","coordinates":[124.372119,40.113344]},"properties":{"province":"辽宁省","city":"丹东市","county":"振兴区","community":"锦绣花园三期","full_address":"辽宁省丹东市振兴区锦绣花园三期","info":""}},{"type":"Feature","geometry":{"type":"Point","coordinates":[121.458228,31.220173]},"properties":{"province":"上海市","city":"上海市","county":"黄浦区","community":"瑞金二路街道13街坊（巨鹿路以南，进贤路以北，茂名南路以西，陕西南路以东合围地块）","full_address":"上海市上海市黄浦区瑞金二路街道13街坊（巨鹿路以南，进贤路以北，茂名南路以西，陕西南路以东合围地块）","info":""}},{"type":"Feature","geometry":{"type":"Point","coordinates":[121.456028,31.218306]},"properties":{"province":"上海市","city":"上海市","county":"徐汇区","community":"湖南路街道新乐路58弄","full_address":"上海市上海市徐汇区湖南路街道新乐路58弄","info":""}},{"type":"Feature","geometry":{"type":"Point","coordinates":[121.458881,31.209483]},"properties":{"province":"上海市","city":"上海市","county":"徐汇区","community":"天平路街道永嘉路172弄住宅小区（含永嘉路172弄、170号、166弄1-3号）","full_address":"上海市上海市徐汇区天平路街道永嘉路172弄住宅小区（含永嘉路172弄、170号、166弄1-3号）","info":""}},{"type":"Feature","geometry":{"type":"Point","coordinates":[121.42593,31.171479]},"properties":{"province":"上海市","city":"上海市","county":"徐汇区","community":"田林街道田林十一村（多层住宅区）","full_address":"上海市上海市徐汇区田林街道田林十一村（多层住宅区）","info":""}},{"type":"Feature","geometry":{"type":"Point","coordinates":[121.449146,31.212266]},"properties":{"province":"上海市","city":"上海市","county":"徐汇区","community":"湖南路街道淮海中路1352号-1372号","full_address":"上海市上海市徐汇区湖南路街道淮海中路1352号-1372号","info":""}},{"type":"Feature","geometry":{"type":"Point","coordinates":[121.455827,31.219029]},"properties":{"province":"上海市","city":"上海市","county":"徐汇区","community":"湖南路街道长乐路335号—339弄","full_address":"上海市上海市徐汇区湖南路街道长乐路335号—339弄","info":""}},{"type":"Feature","geometry":{"type":"Point","coordinates":[121.43573,31.226361]},"properties":{"province":"上海市","city":"上海市","county":"静安区","community":"曹家渡街道武定西路1189号","full_address":"上海市上海市静安区曹家渡街道武定西路1189号","info":""}},{"type":"Feature","geometry":{"type":"Point","coordinates":[121.454844,31.256438]},"properties":{"province":"上海市","city":"上海市","county":"静安区","community":"天目西路街道芷江西路593弄","full_address":"上海市上海市静安区天目西路街道芷江西路593弄","info":""}},{"type":"Feature","geometry":{"type":"Point","coordinates":[121.455026,31.291183]},"properties":{"province":"上海市","city":"上海市","county":"静安区","community":"大宁路街道广延路1188弄","full_address":"上海市上海市静安区大宁路街道广延路1188弄","info":""}},{"type":"Feature","geometry":{"type":"Point","coordinates":[121.450611,31.259871]},"properties":{"province":"上海市","city":"上海市","county":"静安区","community":"共和新路街道谈家桥路163弄","full_address":"上海市上海市静安区共和新路街道谈家桥路163弄","info":""}},{"type":"Feature","geometry":{"type":"Point","coordinates":[121.437598,31.235119]},"properties":{"province":"上海市","city":"上海市","county":"静安区","community":"曹家渡街道余姚路327号","full_address":"上海市上海市静安区曹家渡街道余姚路327号","info":""}},{"type":"Feature","geometry":{"type":"Point","coordinates":[121.459235,31.263687]},"properties":{"province":"上海市","city":"上海市","county":"静安区","community":"共和新路街道共和新路1302号","full_address":"上海市上海市静安区共和新路街道共和新路1302号","info":""}},{"type":"Feature","geometry":{"type":"Point","coordinates":[121.470744,31.259851]},"properties":{"province":"上海市","city":"上海市","county":"静安区","community":"宝山路街道芷江中路413弄","full_address":"上海市上海市静安区宝山路街道芷江中路413弄","info":""}},{"type":"Feature","geometry":{"type":"Point","coordinates":[121.49604,31.288]},"properties":{"province":"上海市","city":"上海市","county":"虹口区","community":"江湾镇街道池沟路60弄小区","full_address":"上海市上海市虹口区江湾镇街道池沟路60弄小区","info":""}},{"type":"Feature","geometry":{"type":"Point","coordinates":[121.49936,31.25216]},"properties":{"province":"上海市","city":"上海市","county":"虹口区","community":"北外滩街道昆明路56号","full_address":"上海市上海市虹口区北外滩街道昆明路56号","info":""}},{"type":"Feature","geometry":{"type":"Point","coordinates":[121.495728,31.275737]},"properties":{"province":"上海市","city":"上海市","county":"虹口区","community":"欧阳路街道大连西路165弄","full_address":"上海市上海市虹口区欧阳路街道大连西路165弄","info":""}},{"type":"Feature","geometry":{"type":"Point","coordinates":[121.484845,31.264706]},"properties":{"province":"上海市","city":"上海市","county":"虹口区","community":"四川北路街道山阴路55号所在小区","full_address":"上海市上海市虹口区四川北路街道山阴路55号所在小区","info":""}},{"type":"Feature","geometry":{"type":"Point","coordinates":[121.514558,31.299111]},"properties":{"province":"上海市","city":"上海市","county":"杨浦区","community":"五角场街道邯郸路585号","full_address":"上海市上海市杨浦区五角场街道邯郸路585号","info":""}},{"type":"Feature","geometry":{"type":"Point","coordinates":[121.46665,31.041281]},"properties":{"province":"上海市","city":"上海市","county":"闵行区","community":"吴泾镇剑川路165号","full_address":"上海市上海市闵行区吴泾镇剑川路165号","info":""}},{"type":"Feature","geometry":{"type":"Point","coordinates":[121.38722,31.125379]},"properties":{"province":"上海市","city":"上海市","county":"闵行区","community":"莘庄镇报春路388弄新梅花苑小区","full_address":"上海市上海市闵行区莘庄镇报春路388弄新梅花苑小区","info":""}},{"type":"Feature","geometry":{"type":"Point","coordinates":[121.540238,31.055446]},"properties":{"province":"上海市","city":"上海市","county":"闵行区","community":"浦江镇召楼路2056弄博雅苑小区","full_address":"上海市上海市闵行区浦江镇召楼路2056弄博雅苑小区","info":""}},{"type":"Feature","geometry":{"type":"Point","coordinates":[121.42122,31.11816]},"properties":{"province":"上海市","city":"上海市","county":"闵行区","community":"梅陇镇普乐路665弄","full_address":"上海市上海市闵行区梅陇镇普乐路665弄","info":""}},{"type":"Feature","geometry":{"type":"Point","coordinates":[121.416721,31.286835]},"properties":{"province":"上海市","city":"上海市","county":"宝山区","community":"大场镇乾溪一村小区","full_address":"上海市上海市宝山区大场镇乾溪一村小区","info":""}},{"type":"Feature","geometry":{"type":"Point","coordinates":[121.425261,31.360868]},"properties":{"province":"上海市","city":"上海市","county":"宝山区","community":"杨行镇蕰川路1498弄","full_address":"上海市上海市宝山区杨行镇蕰川路1498弄","info":""}},{"type":"Feature","geometry":{"type":"Point","coordinates":[121.48376,31.322017]},"properties":{"province":"上海市","city":"上海市","county":"宝山区","community":"高境镇逸仙路1588弄","full_address":"上海市上海市宝山区高境镇逸仙路1588弄","info":""}},{"type":"Feature","geometry":{"type":"Point","coordinates":[121.451776,31.337927]},"properties":{"province":"上海市","city":"上海市","county":"宝山区","community":"张庙街道泗塘一村四号地块","full_address":"上海市上海市宝山区张庙街道泗塘一村四号地块","info":""}},{"type":"Feature","geometry":{"type":"Point","coordinates":[121.76146,31.05088]},"properties":{"province":"上海市","city":"上海市","county":"浦东新区","community":"惠南镇梅花新邨","full_address":"上海市上海市浦东新区惠南镇梅花新邨","info":""}},{"type":"Feature","geometry":{"type":"Point","coordinates":[121.559255,31.212756]},"properties":{"province":"上海市","city":"上海市","county":"浦东新区","community":"花木街道银霄路39弄","full_address":"上海市上海市浦东新区花木街道银霄路39弄","info":""}},{"type":"Feature","geometry":{"type":"Point","coordinates":[121.559809,31.209157]},"properties":{"province":"上海市","city":"上海市","county":"浦东新区","community":"花木街道樱花路801弄","full_address":"上海市上海市浦东新区花木街道樱花路801弄","info":""}},{"type":"Feature","geometry":{"type":"Point","coordinates":[121.518298,31.207376]},"properties":{"province":"上海市","city":"上海市","county":"浦东新区","community":"塘桥街道浦建路60弄","full_address":"上海市上海市浦东新区塘桥街道浦建路60弄","info":""}},{"type":"Feature","geometry":{"type":"Point","coordinates":[121.205715,31.041095]},"properties":{"province":"上海市","city":"上海市","county":"松江区","community":"方松街道滨湖路585弄","full_address":"上海市上海市松江区方松街道滨湖路585弄","info":""}},{"type":"Feature","geometry":{"type":"Point","coordinates":[121.462119,30.918242]},"properties":{"province":"上海市","city":"上海市","county":"奉贤区","community":"南桥镇新建中路394号小区","full_address":"上海市上海市奉贤区南桥镇新建中路394号小区","info":""}}]}