{"type":"FeatureCollection","features":[{"type":"Feature","geometry":{"type":"Point","coordinates":[116.536507,40.089915]},"properties":{"full_address":"北京市顺义区空港街道祥云小镇弗萨塔可墨西哥餐厅"}},{"type":"Feature","geometry":{"type":"Point","coordinates":[116.536274,40.08964]},"properties":{"full_address":"北京市顺义区空港街道祥云小镇橙天嘉禾影城"}},{"type":"Feature","geometry":{"type":"Point","coordinates":[116.536507,40.089915]},"properties":{"full_address":"北京市顺义区空港街道祥云小镇红筷子牛肉面"}},{"type":"Feature","geometry":{"type":"Point","coordinates":[116.536507,40.089915]},"properties":{"full_address":"北京市顺义区空港街道祥云小镇知嘛健康店"}},{"type":"Feature","geometry":{"type":"Point","coordinates":[117.248631,39.125914]},"properties":{"full_address":"天津市天津市河东区上杭路街道来安里小区除高风险区之外的其他楼"}},{"type":"Feature","geometry":{"type":"Point","coordinates":[117.268133,39.066292]},"properties":{"full_address":"天津市天津市河西区陈塘庄街昆仑里除高风险区之外的其他楼门"}},{"type":"Feature","geometry":{"type":"Point","coordinates":[117.25928,39.079127]},"properties":{"full_address":"天津市天津市河西区陈塘庄街世芳园除高风险区之外的其他楼门"}},{"type":"Feature","geometry":{"type":"Point","coordinates":[117.258981,39.054473]},"properties":{"full_address":"天津市天津市河西区东海街华江里除高风险区之外的其他楼门"}},{"type":"Feature","geometry":{"type":"Point","coordinates":[117.143122,39.125208]},"properties":{"full_address":"天津市天津市南开区嘉陵道街罗江西里（除4、5、6号楼外）"}},{"type":"Feature","geometry":{"type":"Point","coordinates":[117.156637,39.132737]},"properties":{"full_address":"天津市天津市南开区长虹街武乡里1、2、3号楼"}},{"type":"Feature","geometry":{"type":"Point","coordinates":[117.11328,39.130985]},"properties":{"full_address":"天津市天津市西青区中北镇中铁十八局宿舍1号楼"}},{"type":"Feature","geometry":{"type":"Point","coordinates":[117.272628,39.045138]},"properties":{"full_address":"天津市天津市津南区双林街泓沪园除5号楼、6号楼、7号楼、8号楼以外区域"}},{"type":"Feature","geometry":{"type":"Point","coordinates":[117.659324,39.052082]},"properties":{"full_address":"天津市天津市滨海新区新北街道首创国际小区36-44号楼"}},{"type":"Feature","geometry":{"type":"Point","coordinates":[124.309649,39.984767]},"properties":{"full_address":"辽宁省丹东市振兴区浪头镇文斌村群平路3001号-3007号"}},{"type":"Feature","geometry":{"type":"Point","coordinates":[126.56391,44.828079]},"properties":{"full_address":"吉林省长春市榆树市东郡府小区"}},{"type":"Feature","geometry":{"type":"Point","coordinates":[121.468143,31.248294]},"properties":{"full_address":"上海市上海市静安区芷江西路街道新马路258弄"}},{"type":"Feature","geometry":{"type":"Point","coordinates":[121.450748,31.309338]},"properties":{"full_address":"上海市上海市静安区彭浦新村街道彭三小区二期"}},{"type":"Feature","geometry":{"type":"Point","coordinates":[121.414749,31.256393]},"properties":{"full_address":"上海市上海市普陀区石泉路街道礼泉路140号甲"}},{"type":"Feature","geometry":{"type":"Point","coordinates":[121.425529,31.2395]},"properties":{"full_address":"上海市上海市普陀区长寿路街道东新路115弄武宁一村"}},{"type":"Feature","geometry":{"type":"Point","coordinates":[121.3856,31.286431]},"properties":{"full_address":"上海市上海市普陀区桃浦镇古浪路518弄396-402号安祁古浪新苑"}},{"type":"Feature","geometry":{"type":"Point","coordinates":[121.514711,31.255577]},"properties":{"full_address":"上海市上海市虹口区广中路街道宝山路888弄（3号）"}},{"type":"Feature","geometry":{"type":"Point","coordinates":[121.474461,31.313071]},"properties":{"full_address":"上海市上海市虹口区江湾镇街道虹湾路86弄(14-16号)"}},{"type":"Feature","geometry":{"type":"Point","coordinates":[121.514711,31.255577]},"properties":{"full_address":"上海市上海市虹口区江湾镇街道逸仙路446号、448号"}},{"type":"Feature","geometry":{"type":"Point","coordinates":[121.480044,31.279559]},"properties":{"full_address":"上海市上海市虹口区广中路街道广秀路66号（配电所）"}},{"type":"Feature","geometry":{"type":"Point","coordinates":[121.540204,31.274392]},"properties":{"full_address":"上海市上海市杨浦区大桥街道双阳支路28弄"}},{"type":"Feature","geometry":{"type":"Point","coordinates":[121.538845,31.266902]},"properties":{"full_address":"上海市上海市杨浦区大桥街道锦州湾路169弄"}},{"type":"Feature","geometry":{"type":"Point","coordinates":[121.534576,31.25961]},"properties":{"full_address":"上海市上海市杨浦区大桥街道沈阳路148、150、152号"}},{"type":"Feature","geometry":{"type":"Point","coordinates":[121.524898,31.28513]},"properties":{"full_address":"上海市上海市杨浦区控江路街道控江四村（第一居委）"}},{"type":"Feature","geometry":{"type":"Point","coordinates":[121.521925,31.280328]},"properties":{"full_address":"上海市上海市杨浦区控江路街道延吉西路81弄1、2、5号"}},{"type":"Feature","geometry":{"type":"Point","coordinates":[121.539625,31.328877]},"properties":{"full_address":"上海市上海市杨浦区殷行街道殷行路296弄小区"}},{"type":"Feature","geometry":{"type":"Point","coordinates":[121.506131,31.305702]},"properties":{"full_address":"上海市上海市杨浦区五角场街道政立路580弄（国定一居委管辖部分）"}},{"type":"Feature","geometry":{"type":"Point","coordinates":[121.539378,31.258329]},"properties":{"full_address":"上海市上海市杨浦区大桥街道渭南路43-47号"}},{"type":"Feature","geometry":{"type":"Point","coordinates":[121.492738,31.309728]},"properties":{"full_address":"上海市上海市杨浦区五角场街道三门路358弄"}},{"type":"Feature","geometry":{"type":"Point","coordinates":[121.524639,31.280769]},"properties":{"full_address":"上海市上海市杨浦区控江路街道黄兴小区"}},{"type":"Feature","geometry":{"type":"Point","coordinates":[121.550725,31.26846]},"properties":{"full_address":"上海市上海市杨浦区定海路街道隆昌路66号"}},{"type":"Feature","geometry":{"type":"Point","coordinates":[121.423026,31.264293]},"properties":{"full_address":"上海市上海市宝山区大场镇涵青路100弄学府阳光"}},{"type":"Feature","geometry":{"type":"Point","coordinates":[121.475323,31.317288]},"properties":{"full_address":"上海市上海市宝山区高境镇云西路168弄西区"}},{"type":"Feature","geometry":{"type":"Point","coordinates":[121.494502,31.317118]},"properties":{"full_address":"上海市上海市宝山区高境镇国权北路290弄"}},{"type":"Feature","geometry":{"type":"Point","coordinates":[121.488842,31.349091]},"properties":{"full_address":"上海市上海市宝山区高境镇三门路555弄煤气公司自管房"}},{"type":"Feature","geometry":{"type":"Point","coordinates":[121.33847,31.385902]},"properties":{"full_address":"上海市上海市宝山区罗店镇美平路745弄美罗家园宝欣苑二村"}},{"type":"Feature","geometry":{"type":"Point","coordinates":[121.470084,31.334804]},"properties":{"full_address":"上海市上海市宝山区淞南镇通南路368弄86号"}},{"type":"Feature","geometry":{"type":"Point","coordinates":[121.425548,31.386923]},"properties":{"full_address":"上海市上海市宝山区杨行镇蕰川路2226号苏鑫仓库"}},{"type":"Feature","geometry":{"type":"Point","coordinates":[121.447326,31.320281]},"properties":{"full_address":"上海市上海市宝山区高境镇共和新路4719弄惠民公寓"}},{"type":"Feature","geometry":{"type":"Point","coordinates":[121.450621,31.317995]},"properties":{"full_address":"上海市上海市宝山区高境镇共和新路4703弄（51号-82号、88号-97号、101号-107号）"}},{"type":"Feature","geometry":{"type":"Point","coordinates":[121.499156,31.401491]},"properties":{"full_address":"上海市上海市宝山区友谊路街道宝杨路250号宝杨市场"}},{"type":"Feature","geometry":{"type":"Point","coordinates":[121.481603,31.4041]},"properties":{"full_address":"上海市上海市宝山区友谊路街道密山路101号宝山市场"}},{"type":"Feature","geometry":{"type":"Point","coordinates":[121.447326,31.320281]},"properties":{"full_address":"上海市上海市宝山区高境镇共和新路4719弄（除惠民公寓）"}},{"type":"Feature","geometry":{"type":"Point","coordinates":[121.40908,31.36314]},"properties":{"full_address":"上海市上海市宝山区顾村镇宝安公路859号"}},{"type":"Feature","geometry":{"type":"Point","coordinates":[121.391,31.33987]},"properties":{"full_address":"上海市上海市宝山区顾村镇白杨村赵家宅1号-32号、37号-42号"}},{"type":"Feature","geometry":{"type":"Point","coordinates":[121.471977,31.323758]},"properties":{"full_address":"上海市上海市宝山区高境镇高境路477弄一期B区"}},{"type":"Feature","geometry":{"type":"Point","coordinates":[121.438351,31.373029]},"properties":{"full_address":"上海市上海市宝山区杨行镇杨桃路185弄杨泰苑"}},{"type":"Feature","geometry":{"type":"Point","coordinates":[121.461522,31.342461]},"properties":{"full_address":"上海市上海市宝山区淞南镇江杨南路2058号"}},{"type":"Feature","geometry":{"type":"Point","coordinates":[121.439815,31.348929]},"properties":{"full_address":"上海市上海市宝山区杨行镇联谊路190号"}},{"type":"Feature","geometry":{"type":"Point","coordinates":[121.346214,31.41707]},"properties":{"full_address":"上海市上海市宝山区罗店镇赵巷街96弄2-15号"}},{"type":"Feature","geometry":{"type":"Point","coordinates":[121.488842,31.349091]},"properties":{"full_address":"上海市上海市宝山区高境镇三门路555弄（除煤气公司自管房）"}},{"type":"Feature","geometry":{"type":"Point","coordinates":[121.487598,31.315631]},"properties":{"full_address":"上海市上海市宝山区高境镇逸仙路1321弄"}},{"type":"Feature","geometry":{"type":"Point","coordinates":[121.34678,31.329889]},"properties":{"full_address":"上海市上海市宝山区顾村镇陈家行村花家桥34号、35号、38号、42号"}},{"type":"Feature","geometry":{"type":"Point","coordinates":[121.410947,31.389055]},"properties":{"full_address":"上海市上海市宝山区杨行镇北宗村严江巷"}},{"type":"Feature","geometry":{"type":"Point","coordinates":[121.424253,31.387366]},"properties":{"full_address":"上海市上海市宝山区杨行镇湄浦村华宝五金厂"}},{"type":"Feature","geometry":{"type":"Point","coordinates":[121.450319,31.333449]},"properties":{"full_address":"上海市上海市宝山区张庙街道长江西路1568号通河二村4号"}},{"type":"Feature","geometry":{"type":"Point","coordinates":[121.149872,31.30476]},"properties":{"full_address":"上海市上海市嘉定区安亭镇新源路1025弄澳丽映象嘉园小区"}},{"type":"Feature","geometry":{"type":"Point","coordinates":[121.573876,31.236661]},"properties":{"full_address":"上海市上海市浦东新区花木街道碧云路199弄爱建园"}},{"type":"Feature","geometry":{"type":"Point","coordinates":[121.5647,31.21776]},"properties":{"full_address":"上海市上海市浦东新区花木街道花木路1883弄御翠园"}},{"type":"Feature","geometry":{"type":"Point","coordinates":[121.690152,31.17225]},"properties":{"full_address":"上海市上海市浦东新区川沙新镇心圆西苑小区"}},{"type":"Feature","geometry":{"type":"Point","coordinates":[121.592784,31.278712]},"properties":{"full_address":"上海市上海市浦东新区浦兴路街道东陆新村五街坊"}},{"type":"Feature","geometry":{"type":"Point","coordinates":[117.198579,32.955818]},"properties":{"full_address":"安徽省蚌埠市怀远县荆山镇卞和社区禹城小区（含附属门面）"}},{"type":"Feature","geometry":{"type":"Point","coordinates":[117.202662,32.958329]},"properties":{"full_address":"安徽省蚌埠市怀远县荆山镇顺河社区江山御景小区"}},{"type":"Feature","geometry":{"type":"Point","coordinates":[117.195189,32.959679]},"properties":{"full_address":"安徽省蚌埠市怀远县荆山镇文昌社区三清财富城（含附属门面）"}},{"type":"Feature","geometry":{"type":"Point","coordinates":[117.199067,32.954377]},"properties":{"full_address":"安徽省蚌埠市怀远县荆山镇卞和社区南大街沿路门面"}},{"type":"Feature","geometry":{"type":"Point","coordinates":[117.219385,33.030064]},"properties":{"full_address":"安徽省蚌埠市怀远县榴城镇曹河村"}},{"type":"Feature","geometry":{"type":"Point","coordinates":[117.218802,32.97571]},"properties":{"full_address":"安徽省蚌埠市怀远县榴城镇新河杰座小区"}},{"type":"Feature","geometry":{"type":"Point","coordinates":[117.2454,32.97009]},"properties":{"full_address":"安徽省蚌埠市怀远县经开区银锐智能科技股份有限公司"}},{"type":"Feature","geometry":{"type":"Point","coordinates":[117.19373,32.958789]},"properties":{"full_address":"安徽省蚌埠市怀远县荆山镇卞和社区"}},{"type":"Feature","geometry":{"type":"Point","coordinates":[117.196374,32.983295]},"properties":{"full_address":"安徽省蚌埠市怀远县榴城镇榴城社区"}},{"type":"Feature","geometry":{"type":"Point","coordinates":[117.196374,32.983295]},"properties":{"full_address":"安徽省蚌埠市怀远县榴城镇双墩社区"}},{"type":"Feature","geometry":{"type":"Point","coordinates":[117.2209,32.971193]},"properties":{"full_address":"安徽省蚌埠市怀远县榴城镇新河社区"}},{"type":"Feature","geometry":{"type":"Point","coordinates":[117.167677,32.957405]},"properties":{"full_address":"安徽省蚌埠市怀远县荆山镇梅郢社区华地紫园小区"}},{"type":"Feature","geometry":{"type":"Point","coordinates":[117.166595,32.963165]},"properties":{"full_address":"安徽省蚌埠市怀远县荆山镇梅郢社区嘉富新城小区"}},{"type":"Feature","geometry":{"type":"Point","coordinates":[117.201433,32.957496]},"properties":{"full_address":"安徽省蚌埠市怀远县荆山镇望月社区城关医院附近门面（区域范围西至新民路、北至禹王路、南至健康路、东至东大街单行道）"}},{"type":"Feature","geometry":{"type":"Point","coordinates":[117.25686,32.970137]},"properties":{"full_address":"安徽省蚌埠市怀远县经开区怀远工业园区台丽包装厂"}},{"type":"Feature","geometry":{"type":"Point","coordinates":[117.211561,32.976662]},"properties":{"full_address":"安徽省蚌埠市怀远县榴城镇双墩社区书香门第小区"}},{"type":"Feature","geometry":{"type":"Point","coordinates":[117.120504,33.16387]},"properties":{"full_address":"安徽省蚌埠市怀远县包集镇南严村"}},{"type":"Feature","geometry":{"type":"Point","coordinates":[116.77022,33.083486]},"properties":{"full_address":"安徽省蚌埠市怀远县徐圩乡钞湖村"}},{"type":"Feature","geometry":{"type":"Point","coordinates":[117.029124,32.81765]},"properties":{"full_address":"安徽省蚌埠市怀远县常坟镇邹庙村"}},{"type":"Feature","geometry":{"type":"Point","coordinates":[117.135505,33.099723]},"properties":{"full_address":"安徽省蚌埠市怀远县古城镇水海村"}},{"type":"Feature","geometry":{"type":"Point","coordinates":[117.194848,32.96766]},"properties":{"full_address":"安徽省蚌埠市怀远县榴城镇新怀社区"}},{"type":"Feature","geometry":{"type":"Point","coordinates":[117.216117,32.964542]},"properties":{"full_address":"安徽省蚌埠市怀远县榴城镇引凤社区"}},{"type":"Feature","geometry":{"type":"Point","coordinates":[117.218303,32.966044]},"properties":{"full_address":"安徽省蚌埠市怀远县榴城镇屾河社区新月小区"}},{"type":"Feature","geometry":{"type":"Point","coordinates":[117.200892,32.951379]},"properties":{"full_address":"安徽省蚌埠市怀远县榴城镇新河社区凯旋城小区"}},{"type":"Feature","geometry":{"type":"Point","coordinates":[117.173313,32.985822]},"properties":{"full_address":"安徽省蚌埠市怀远县荆山镇建强社区"}},{"type":"Feature","geometry":{"type":"Point","coordinates":[117.191073,32.959847]},"properties":{"full_address":"安徽省蚌埠市怀远县荆山镇圣泉社区"}},{"type":"Feature","geometry":{"type":"Point","coordinates":[117.215274,32.966756]},"properties":{"full_address":"安徽省蚌埠市怀远县榴城镇望淮社区"}},{"type":"Feature","geometry":{"type":"Point","coordinates":[117.096765,32.988018]},"properties":{"full_address":"安徽省蚌埠市怀远县荆山镇沈郢村"}},{"type":"Feature","geometry":{"type":"Point","coordinates":[117.208417,32.968209]},"properties":{"full_address":"安徽省蚌埠市怀远县榴城镇望淮社区铭居小区"}},{"type":"Feature","geometry":{"type":"Point","coordinates":[116.992925,33.63267]},"properties":{"full_address":"安徽省宿州市埇桥区东关街道东昌路以东、胜利路以南、京沪铁路以西、汴河路以北合围区域（铁路社区除外）"}},{"type":"Feature","geometry":{"type":"Point","coordinates":[117.062538,33.595903]},"properties":{"full_address":"安徽省宿州市埇桥区（京沪铁路以东、汴河东路以北、沱河路以西以南）合围区域（上述高风险区及中煤矿建总医院除外）"}},{"type":"Feature","geometry":{"type":"Point","coordinates":[116.182093,33.4961]},"properties":{"full_address":"安徽省亳州市涡阳县星园街道潘寨社区"}},{"type":"Feature","geometry":{"type":"Point","coordinates":[116.257845,33.462429]},"properties":{"full_address":"安徽省亳州市涡阳县公吉寺镇马寨行政村"}},{"type":"Feature","geometry":{"type":"Point","coordinates":[116.055502,33.516969]},"properties":{"full_address":"安徽省亳州市涡阳县花沟镇花沟社区"}},{"type":"Feature","geometry":{"type":"Point","coordinates":[116.125339,33.49395]},"properties":{"full_address":"安徽省亳州市涡阳县花沟镇孙小桥行政村"}},{"type":"Feature","geometry":{"type":"Point","coordinates":[116.197463,33.511323]},"properties":{"full_address":"安徽省亳州市涡阳县城关街道孙楼社区"}},{"type":"Feature","geometry":{"type":"Point","coordinates":[116.240384,33.482773]},"properties":{"full_address":"安徽省亳州市涡阳县城关街道新安社区阳光医院"}},{"type":"Feature","geometry":{"type":"Point","coordinates":[116.215198,33.495995]},"properties":{"full_address":"安徽省亳州市涡阳县星园街道福宁社区好邻居炒鸡店（雪枫路与龙山路交口向北50米路西）"}},{"type":"Feature","geometry":{"type":"Point","coordinates":[116.219362,33.508333]},"properties":{"full_address":"安徽省亳州市涡阳县城关街道团结社区"}},{"type":"Feature","geometry":{"type":"Point","coordinates":[116.120666,33.362246]},"properties":{"full_address":"安徽省亳州市利辛县纪王场乡三和社区"}},{"type":"Feature","geometry":{"type":"Point","coordinates":[116.111031,33.321405]},"properties":{"full_address":"安徽省亳州市利辛县纪王场乡纪大寨村"}},{"type":"Feature","geometry":{"type":"Point","coordinates":[116.166665,33.185396]},"properties":{"full_address":"安徽省亳州市利辛县西潘楼镇桥西村"}},{"type":"Feature","geometry":{"type":"Point","coordinates":[116.258062,33.257592]},"properties":{"full_address":"安徽省亳州市利辛县城北镇陆桃园村"}},{"type":"Feature","geometry":{"type":"Point","coordinates":[116.214082,33.136363]},"properties":{"full_address":"安徽省亳州市利辛县城关镇新河社区大张庄"}},{"type":"Feature","geometry":{"type":"Point","coordinates":[116.22087,33.135162]},"properties":{"full_address":"安徽省亳州市利辛县城关镇宝璋医院对面一品香包子铺"}},{"type":"Feature","geometry":{"type":"Point","coordinates":[116.234662,33.204608]},"properties":{"full_address":"安徽省亳州市利辛县城北镇陈营村"}},{"type":"Feature","geometry":{"type":"Point","coordinates":[115.877653,33.167077]},"properties":{"full_address":"安徽省亳州市利辛县城北镇街南头老粮站面粉加工店"}},{"type":"Feature","geometry":{"type":"Point","coordinates":[116.21252,33.142485]},"properties":{"full_address":"安徽省亳州市利辛县城北镇街上李萍粮油店"}},{"type":"Feature","geometry":{"type":"Point","coordinates":[116.100549,33.331045]},"properties":{"full_address":"安徽省亳州市利辛县纪王场乡纪王场社区审美日化店"}},{"type":"Feature","geometry":{"type":"Point","coordinates":[116.206937,33.155989]},"properties":{"full_address":"安徽省亳州市利辛县城关镇春店社区二队皇家置业小区商住楼南楼"}},{"type":"Feature","geometry":{"type":"Point","coordinates":[116.208909,33.159574]},"properties":{"full_address":"安徽省亳州市利辛县城关镇金龙商贸港D区（6栋、7栋、8栋、9栋和10栋）"}},{"type":"Feature","geometry":{"type":"Point","coordinates":[116.30727,33.24606]},"properties":{"full_address":"安徽省亳州市利辛县望疃镇玉光村"}},{"type":"Feature","geometry":{"type":"Point","coordinates":[116.221263,33.350034]},"properties":{"full_address":"安徽省亳州市利辛县旧城镇盛新村"}},{"type":"Feature","geometry":{"type":"Point","coordinates":[116.237837,33.236467]},"properties":{"full_address":"安徽省亳州市利辛县城北镇陆楼村"}},{"type":"Feature","geometry":{"type":"Point","coordinates":[115.88448,28.68464]},"properties":{"full_address":"江西省南昌市东湖区八一桥街道半步街46号1-6单元区域"}},{"type":"Feature","geometry":{"type":"Point","coordinates":[115.88437,28.685501]},"properties":{"full_address":"江西省南昌市东湖区八一桥街道大士院半步街88号"}},{"type":"Feature","geometry":{"type":"Point","coordinates":[115.890124,28.677153]},"properties":{"full_address":"江西省南昌市东湖区民德路以南，中山路以北，象山北路以西，胜利路以东（含胜利路2-68号）合围区域（不含百盛B馆、江西银保监局、南昌三中）"}},{"type":"Feature","geometry":{"type":"Point","coordinates":[115.885667,28.678123]},"properties":{"full_address":"江西省南昌市东湖区民德路以北、民巷以西（含民巷东侧区域）、后墙路以南（含原市人才市场、省歌）以及滕王阁东广场以南、抚河路以东的合围区域"}},{"type":"Feature","geometry":{"type":"Point","coordinates":[115.896876,28.67027]},"properties":{"full_address":"江西省南昌市西湖区南海行宫社区干家大屋27号"}},{"type":"Feature","geometry":{"type":"Point","coordinates":[115.877823,28.671594]},"properties":{"full_address":"江西省南昌市西湖区中山西路66号桃花源居小区B2栋1单元"}},{"type":"Feature","geometry":{"type":"Point","coordinates":[115.89255,28.66637]},"properties":{"full_address":"江西省南昌市西湖区南浦街道石头街64—68号及外延的三家店面"}},{"type":"Feature","geometry":{"type":"Point","coordinates":[115.89255,28.66637]},"properties":{"full_address":"江西省南昌市西湖区二郎庙社区石头街64号、68号、70号、104号、106号"}},{"type":"Feature","geometry":{"type":"Point","coordinates":[115.89205,28.66648]},"properties":{"full_address":"江西省南昌市西湖区船山路198号、船山路200号"}},{"type":"Feature","geometry":{"type":"Point","coordinates":[115.895412,28.664765]},"properties":{"full_address":"江西省南昌市西湖区西书院社区西书院1号1栋1单元、2单元，2栋1单元、2单元、3单元，3栋1单元、2单元、4单元"}},{"type":"Feature","geometry":{"type":"Point","coordinates":[115.89224,28.66555]},"properties":{"full_address":"江西省南昌市西湖区船山社区惠民门一区1栋、2栋、3栋、4栋、5栋"}},{"type":"Feature","geometry":{"type":"Point","coordinates":[115.89145,28.66598]},"properties":{"full_address":"江西省南昌市西湖区里洲路34号"}},{"type":"Feature","geometry":{"type":"Point","coordinates":[115.899095,28.670582]},"properties":{"full_address":"江西省南昌市西湖区南海行宫社区干家大屋22、23、26号"}},{"type":"Feature","geometry":{"type":"Point","coordinates":[115.890634,28.668714]},"properties":{"full_address":"江西省南昌市西湖区船山路以东，象山南路以西，南浦路以南的三角合围区域"}},{"type":"Feature","geometry":{"type":"Point","coordinates":[115.890634,28.668714]},"properties":{"full_address":"江西省南昌市西湖区船山路、象山南路以西，抚河中路以东，南浦路以南，站前西路以北的合围区域（不含南昌市第三医院抚河院区）"}},{"type":"Feature","geometry":{"type":"Point","coordinates":[115.896054,28.664387]},"properties":{"full_address":"江西省南昌市西湖区永叔路、象山南路、东书院街（部分）、系马桩街至沐英城街路段合围区域"}},{"type":"Feature","geometry":{"type":"Point","coordinates":[115.886019,28.670387]},"properties":{"full_address":"江西省南昌市西湖区广润门街道广润门三区9-37栋（抚河幼儿园除外）"}},{"type":"Feature","geometry":{"type":"Point","coordinates":[115.895866,28.669864]},"properties":{"full_address":"江西省南昌市西湖区系马桩街道象山南路、孺子路、校厂北路、干家前街合围区域"}},{"type":"Feature","geometry":{"type":"Point","coordinates":[115.89278,28.663935]},"properties":{"full_address":"江西省南昌市西湖区绿地井象商业街，象山南路227号"}},{"type":"Feature","geometry":{"type":"Point","coordinates":[115.895899,28.665813]},"properties":{"full_address":"江西省南昌市西湖区新四军军部旧址陈列馆，象山南路119号"}},{"type":"Feature","geometry":{"type":"Point","coordinates":[115.890016,28.672165]},"properties":{"full_address":"江西省南昌市西湖区孺子路、下塘塍上街、珠宝街、陈家桥巷，马家园巷合围区域"}},{"type":"Feature","geometry":{"type":"Point","coordinates":[115.894718,28.670065]},"properties":{"full_address":"江西省南昌市西湖区孺子路社区除校厂北4、5、6栋、干家前街155、157号、西湖区人民检察院以外区域"}},{"type":"Feature","geometry":{"type":"Point","coordinates":[115.899549,28.670502]},"properties":{"full_address":"江西省南昌市西湖区南海行宫社区（系马桩街独立楼院、财投大厦、南昌市税务局稽查分局除外）"}},{"type":"Feature","geometry":{"type":"Point","coordinates":[115.896692,28.667915]},"properties":{"full_address":"江西省南昌市西湖区六眼井社区三眼井街以北片区"}},{"type":"Feature","geometry":{"type":"Point","coordinates":[115.899549,28.670502]},"properties":{"full_address":"江西省南昌市西湖区系马桩社区（系马桩街独立楼院除外）"}},{"type":"Feature","geometry":{"type":"Point","coordinates":[115.899391,28.670003]},"properties":{"full_address":"江西省南昌市西湖区系马桩街道应天寺社区、松柏巷社区（省委党校及宿舍区、南昌电信除外）"}},{"type":"Feature","geometry":{"type":"Point","coordinates":[115.945391,28.65018]},"properties":{"full_address":"江西省南昌市西湖区南站街道井冈山大道以东、站前路以南、天佑路以西、解放西路以北的合围区域（不含站南街19号、27号、33号、35号）"}},{"type":"Feature","geometry":{"type":"Point","coordinates":[115.91983,28.642751]},"properties":{"full_address":"江西省南昌市青云谱区洪都热心村3排14号"}},{"type":"Feature","geometry":{"type":"Point","coordinates":[115.904296,28.646125]},"properties":{"full_address":"江西省南昌市青云谱区京山街道建祥社区建设路225号3栋"}},{"type":"Feature","geometry":{"type":"Point","coordinates":[115.903145,28.645191]},"properties":{"full_address":"江西省南昌市青云谱区京山街道建祥社区建设路223号1栋、2栋、3栋、4栋、5栋、6栋、7栋、8栋、9栋、12栋、瑞亚实业有限公司"}},{"type":"Feature","geometry":{"type":"Point","coordinates":[115.93072,28.6782]},"properties":{"full_address":"江西省南昌市青山湖区上坊路342号科学院宿舍小区（除3栋外）"}},{"type":"Feature","geometry":{"type":"Point","coordinates":[115.92864,28.667475]},"properties":{"full_address":"江西省南昌市青山湖区顺化门社区洪都中大道167号南区宿舍"}},{"type":"Feature","geometry":{"type":"Point","coordinates":[115.93945,28.657695]},"properties":{"full_address":"江西省南昌市新建区长堎镇集贸社区新民巷住宅区7号楼"}},{"type":"Feature","geometry":{"type":"Point","coordinates":[115.812,28.680472]},"properties":{"full_address":"江西省南昌市经开区万科金域传奇小区"}},{"type":"Feature","geometry":{"type":"Point","coordinates":[113.645739,34.796568]},"properties":{"full_address":"河南省郑州市金水区东风路街道办事处同乐花园社区天伦锦城小区"}},{"type":"Feature","geometry":{"type":"Point","coordinates":[114.887152,34.942182]},"properties":{"full_address":"河南省开封市兰考县考城镇城西村"}},{"type":"Feature","geometry":{"type":"Point","coordinates":[115.253626,34.832405]},"properties":{"full_address":"河南省开封市兰考县许河乡赵楼村"}},{"type":"Feature","geometry":{"type":"Point","coordinates":[115.037151,34.834426]},"properties":{"full_address":"河南省开封市兰考县葡萄架乡韩湘坡村"}},{"type":"Feature","geometry":{"type":"Point","coordinates":[113.580446,33.360657]},"properties":{"full_address":"河南省平顶山市舞钢市枣林镇栗林铺村"}},{"type":"Feature","geometry":{"type":"Point","coordinates":[113.589945,33.371668]},"properties":{"full_address":"河南省平顶山市舞钢市枣林镇迎宾大道至瑞森鲜易进出口有限公司之间道路两侧沿街商铺、居民区及工厂"}},{"type":"Feature","geometry":{"type":"Point","coordinates":[113.078395,33.855376]},"properties":{"full_address":"河南省平顶山市舞钢市枣林镇镇区（枣徐路与迎宾大道交叉口以南至信誉超市以北区域）沿街商铺、居民区"}},{"type":"Feature","geometry":{"type":"Point","coordinates":[113.541736,33.379188]},"properties":{"full_address":"河南省平顶山市舞钢市八台镇小唐村"}},{"type":"Feature","geometry":{"type":"Point","coordinates":[114.779064,35.516732]},"properties":{"full_address":"河南省安阳市滑县八里营镇姚家寨村"}},{"type":"Feature","geometry":{"type":"Point","coordinates":[114.729098,32.375106]},"properties":{"full_address":"河南省信阳市息县淮河办事处大何社区陈大庄西队"}},{"type":"Feature","geometry":{"type":"Point","coordinates":[113.327894,32.731456]},"properties":{"full_address":"河南省驻马店市泌阳县付庄乡范庄村委付庄街"}},{"type":"Feature","geometry":{"type":"Point","coordinates":[113.496165,32.969043]},"properties":{"full_address":"河南省驻马店市泌阳县付庄乡范庄村委马下庄自然村"}},{"type":"Feature","geometry":{"type":"Point","coordinates":[113.506116,32.974861]},"properties":{"full_address":"河南省驻马店市泌阳县付庄乡李岗村委李岗自然村"}},{"type":"Feature","geometry":{"type":"Point","coordinates":[113.506116,32.974861]},"properties":{"full_address":"河南省驻马店市泌阳县付庄乡李岗村委土桥自然村"}},{"type":"Feature","geometry":{"type":"Point","coordinates":[113.328476,32.732037]},"properties":{"full_address":"河南省驻马店市泌阳县县城文化路与花园巷南交叉口以南、自该交叉口沿花园巷向南50米处巷西第一条居民出入道口以北、沿巷西第一条居民出入口向西100米处一条南北通道以东、花园巷东侧大门朝西的住户及门面以西的合围区域"}},{"type":"Feature","geometry":{"type":"Point","coordinates":[114.1416,22.581026]},"properties":{"full_address":"广东省深圳市罗湖区东湖街道观山祥苑临近05、06生活区"}},{"type":"Feature","geometry":{"type":"Point","coordinates":[114.175252,22.55854]},"properties":{"full_address":"广东省深圳市罗湖区莲塘街道港莲二村第12栋"}},{"type":"Feature","geometry":{"type":"Point","coordinates":[114.145592,22.575004]},"properties":{"full_address":"广东省深圳市罗湖区黄贝街道水库社区爱国路4006号宿舍E栋"}},{"type":"Feature","geometry":{"type":"Point","coordinates":[114.105899,22.549918]},"properties":{"full_address":"广东省深圳市罗湖区桂园街道松园社区锦程国际三栋"}},{"type":"Feature","geometry":{"type":"Point","coordinates":[114.106966,22.547644]},"properties":{"full_address":"广东省深圳市罗湖区桂园街道红宝路38号大院1、2、5、8、9、10、11、12、13、20栋及红宝路28号办公楼围合区域（除高风险区外）"}},{"type":"Feature","geometry":{"type":"Point","coordinates":[114.16905,22.558465]},"properties":{"full_address":"广东省深圳市罗湖区莲塘街道鹏兴花园五期"}},{"type":"Feature","geometry":{"type":"Point","coordinates":[114.174326,22.559597]},"properties":{"full_address":"广东省深圳市罗湖区莲塘街道桐景花园帝景阁"}},{"type":"Feature","geometry":{"type":"Point","coordinates":[114.172401,22.562597]},"properties":{"full_address":"广东省深圳市罗湖区莲塘街道莲塘花园小区围合区域（除高风险区外）"}},{"type":"Feature","geometry":{"type":"Point","coordinates":[114.167978,22.558902]},"properties":{"full_address":"广东省深圳市罗湖区莲塘街道鹏莲花园"}},{"type":"Feature","geometry":{"type":"Point","coordinates":[114.114141,22.564839]},"properties":{"full_address":"广东省深圳市罗湖区笋岗街道“宝岗路以东、梅园路以南、广深铁路线以西（除笋岗村及桃园路86号综合楼外）、河西一路以北”围合区域（除高风险区外）"}},{"type":"Feature","geometry":{"type":"Point","coordinates":[114.114142,22.565759]},"properties":{"full_address":"广东省深圳市罗湖区笋岗街道笋岗村141至163栋、165至167栋、177至181栋"}},{"type":"Feature","geometry":{"type":"Point","coordinates":[114.111676,22.559997]},"properties":{"full_address":"广东省深圳市罗湖区笋岗街道粤华楼、桃园路100号"}},{"type":"Feature","geometry":{"type":"Point","coordinates":[114.11186,22.56721]},"properties":{"full_address":"广东省深圳市罗湖区笋岗街道“梅园新村1至8栋、裕华大厦、裕华单身公寓、裕华宿舍楼、银山楼C座”围合区域"}},{"type":"Feature","geometry":{"type":"Point","coordinates":[114.045722,22.522223]},"properties":{"full_address":"广东省深圳市福田区沙头街道新洲社区祠堂村文化广场以南区域（新洲二街—新洲六街—祠堂村一街—祠堂村文化广场南侧围合区域）"}},{"type":"Feature","geometry":{"type":"Point","coordinates":[114.085915,22.531252]},"properties":{"full_address":"广东省深圳市福田区福田街道福田南路34号小区（综合楼、生活区篮球场除外）"}},{"type":"Feature","geometry":{"type":"Point","coordinates":[114.060899,22.510482]},"properties":{"full_address":"广东省深圳市福田区福保街道福保社区丽港湾丽湾阁"}},{"type":"Feature","geometry":{"type":"Point","coordinates":[114.060171,22.509937]},"properties":{"full_address":"广东省深圳市福田区福保街道福保社区宝瑞轩福宏阁3单元"}},{"type":"Feature","geometry":{"type":"Point","coordinates":[114.054744,22.508623]},"properties":{"full_address":"广东省深圳市福田区福保街道福保社区福源花园三期（高风险区除外）"}},{"type":"Feature","geometry":{"type":"Point","coordinates":[114.061817,22.513617]},"properties":{"full_address":"广东省深圳市福田区福保街道的圆梦园（高风险区除外），菩提路118号宿舍B单元、C单元"}},{"type":"Feature","geometry":{"type":"Point","coordinates":[114.053071,22.508343]},"properties":{"full_address":"广东省深圳市福田区福保街道福源花园一期、二期（高风险区除外）"}},{"type":"Feature","geometry":{"type":"Point","coordinates":[114.059678,22.509425]},"properties":{"full_address":"广东省深圳市福田区福保街道宝瑞轩（福宏阁3单元除外）、长宝大厦"}},{"type":"Feature","geometry":{"type":"Point","coordinates":[114.044108,22.55427]},"properties":{"full_address":"广东省深圳市福田区莲花街道万科金色家园小区（高风险区除外）"}},{"type":"Feature","geometry":{"type":"Point","coordinates":[114.04175,22.519586]},"properties":{"full_address":"广东省深圳市福田区沙头街道沙尾社区沙尾东路—五号路—东村一路围合区域（高风险区、电房1除外）"}},{"type":"Feature","geometry":{"type":"Point","coordinates":[114.091544,22.538228]},"properties":{"full_address":"广东省深圳市福田区南园街道南园社区统建商住楼甲栋、乙栋、丙栋及全体裙楼"}},{"type":"Feature","geometry":{"type":"Point","coordinates":[114.092888,22.537251]},"properties":{"full_address":"广东省深圳市福田区南园街道沙埔头村东第40号-44号、第46号-56号、第59号A、第59号B、第60号、第65号-68号、第70号-74号、第76号-78号、第79号A、第79号B、第80号、第82号-86号、第88号-89号"}},{"type":"Feature","geometry":{"type":"Point","coordinates":[113.951011,22.522271]},"properties":{"full_address":"广东省深圳市南山区粤海街道岸芷汀兰1栋"}},{"type":"Feature","geometry":{"type":"Point","coordinates":[113.955786,22.583881]},"properties":{"full_address":"广东省深圳市南山区西丽街道九祥岭村西区第13、14A、14B、15、16、17栋，九祥岭村东区第89、90、91、97、98、99栋"}},{"type":"Feature","geometry":{"type":"Point","coordinates":[113.956232,22.584516]},"properties":{"full_address":"广东省深圳市南山区西丽街道九祥岭村（除高风险区外）"}},{"type":"Feature","geometry":{"type":"Point","coordinates":[113.957759,22.584511]},"properties":{"full_address":"广东省深圳市南山区西丽街道九祥岭工业区（除高风险区外）"}},{"type":"Feature","geometry":{"type":"Point","coordinates":[113.969281,22.532188]},"properties":{"full_address":"广东省深圳市南山区沙河街道白石洲村（除高风险区外）"}},{"type":"Feature","geometry":{"type":"Point","coordinates":[113.933541,22.52455]},"properties":{"full_address":"广东省深圳市南山区粤海街道锦隆花园小区（除高风险区外）"}},{"type":"Feature","geometry":{"type":"Point","coordinates":[113.955295,22.559367]},"properties":{"full_address":"广东省深圳市南山区西丽街道松坪村三期西区"}},{"type":"Feature","geometry":{"type":"Point","coordinates":[113.936279,22.541708]},"properties":{"full_address":"广东省深圳市南山区粤海街道帝景园（除高风险区外）"}},{"type":"Feature","geometry":{"type":"Point","coordinates":[113.945963,22.556271]},"properties":{"full_address":"广东省深圳市南山区西丽街道科苑新区（除高风险区外）"}},{"type":"Feature","geometry":{"type":"Point","coordinates":[113.839431,22.609018]},"properties":{"full_address":"广东省深圳市宝安区航城街道宝安大道-内环路-盛航路-机场外排渠围合区域（除高风险区外）"}},{"type":"Feature","geometry":{"type":"Point","coordinates":[113.877791,22.56072]},"properties":{"full_address":"广东省深圳市宝安区新安街道海裕社区幸福海岸花园（8栋A、B、C座除外）"}},{"type":"Feature","geometry":{"type":"Point","coordinates":[114.112711,22.597267]},"properties":{"full_address":"广东省深圳市龙岗区布吉街道布吉社区百花一街东一巷至九巷（除高风险区外）"}},{"type":"Feature","geometry":{"type":"Point","coordinates":[114.059401,22.660476]},"properties":{"full_address":"广东省深圳市龙岗区坂田街道坂田社区黄金山六巷、七巷（除高风险区外）"}},{"type":"Feature","geometry":{"type":"Point","coordinates":[114.183304,22.649844]},"properties":{"full_address":"广东省深圳市龙岗区横岗街道怡锦社区天颂雅苑（除高风险区外）"}},{"type":"Feature","geometry":{"type":"Point","coordinates":[114.08095,22.651701]},"properties":{"full_address":"广东省深圳市龙岗区坂田街道新雪社区帝利花园、簕杜鹃幼儿园、下雪村后山（除高风险区外）"}},{"type":"Feature","geometry":{"type":"Point","coordinates":[114.415368,22.628079]},"properties":{"full_address":"广东省深圳市大鹏新区葵涌街道海语山林小区（除高风险区外）"}},{"type":"Feature","geometry":{"type":"Point","coordinates":[113.525541,22.247851]},"properties":{"full_address":"广东省珠海市香洲区前山街道中山亭社区田德花园A区11栋"}},{"type":"Feature","geometry":{"type":"Point","coordinates":[113.520113,22.257704]},"properties":{"full_address":"广东省珠海市香洲区前山街道明珠南路3092号酒珠大厦"}},{"type":"Feature","geometry":{"type":"Point","coordinates":[113.591079,22.246229]},"properties":{"full_address":"广东省珠海市香洲区吉大街道九洲大道东1066号龙园8号"}},{"type":"Feature","geometry":{"type":"Point","coordinates":[113.443639,22.201888]},"properties":{"full_address":"广东省珠海市香洲区南屏镇广昌社区其昌街13、15、17号"}},{"type":"Feature","geometry":{"type":"Point","coordinates":[113.449524,22.204579]},"properties":{"full_address":"广东省珠海市香洲区南屏镇屏西七路2号珠海新茂义齿科技有限公司"}},{"type":"Feature","geometry":{"type":"Point","coordinates":[113.558298,22.22193]},"properties":{"full_address":"广东省珠海市香洲区拱北街道高沙中街108号"}},{"type":"Feature","geometry":{"type":"Point","coordinates":[113.557486,22.223501]},"properties":{"full_address":"广东省珠海市香洲区拱北街道高沙中街111号"}},{"type":"Feature","geometry":{"type":"Point","coordinates":[113.571103,22.252459]},"properties":{"full_address":"广东省珠海市香洲区吉大街道吉祥山庄1栋"}},{"type":"Feature","geometry":{"type":"Point","coordinates":[113.572181,22.248041]},"properties":{"full_address":"广东省珠海市香洲区吉大街道吉莲新村小区71栋、73栋"}},{"type":"Feature","geometry":{"type":"Point","coordinates":[113.581876,22.251603]},"properties":{"full_address":"广东省珠海市香洲区吉大街道景园路12号"}},{"type":"Feature","geometry":{"type":"Point","coordinates":[113.129133,23.03541]},"properties":{"full_address":"广东省佛山市禅城区祖庙街道佛平路38号"}},{"type":"Feature","geometry":{"type":"Point","coordinates":[113.089453,23.08088]},"properties":{"full_address":"广东省佛山市南海区狮山镇石碣朗大道、联和大道以东，机场涌、西区14路以南，兴和路、丰岗村涌、塱新大道以西，恒桂西路、恒桂中路、中区五路、东区十一路以北"}},{"type":"Feature","geometry":{"type":"Point","coordinates":[112.995657,22.912263]},"properties":{"full_address":"广东省佛山市南海区狮山镇联和大道北西侧农场工业园"}},{"type":"Feature","geometry":{"type":"Point","coordinates":[114.325949,22.806648]},"properties":{"full_address":"广东省惠州市惠阳区新圩镇牧云溪谷（高风险区除外）"}},{"type":"Feature","geometry":{"type":"Point","coordinates":[109.123351,21.468253]},"properties":{"full_address":"广西壮族自治区北海市海城区北海大道以东，新竹路以南，向海大道以北，银海区与海城区行政界线以西，合围之处"}},{"type":"Feature","geometry":{"type":"Point","coordinates":[109.123351,21.468253]},"properties":{"full_address":"广西壮族自治区北海市海城区向海大道以南，北海大道以西，平阳路以北，排水洪渠以东，合围之处"}},{"type":"Feature","geometry":{"type":"Point","coordinates":[109.214531,21.477151]},"properties":{"full_address":"广西壮族自治区北海市海城区向海大道以南，海城区与银海区行政界线以西，规划天津路以北，北海大道以东，合围之处"}},{"type":"Feature","geometry":{"type":"Point","coordinates":[109.161849,21.506445]},"properties":{"full_address":"广西壮族自治区北海市海城区向海大道以南，高德路以西，海岸线以东，高德三街以北，合围之处"}},{"type":"Feature","geometry":{"type":"Point","coordinates":[109.156184,21.493777]},"properties":{"full_address":"广西壮族自治区北海市海城区南珠大道以西，北部湾路以南，河南路以东，湖海路以北，合围之处"}},{"type":"Feature","geometry":{"type":"Point","coordinates":[109.147289,21.480756]},"properties":{"full_address":"广西壮族自治区北海市海城区南珠大道以西，北海大道以南，西南大道以南，河南路以东，上海路以东，铁路以北，合围之处"}},{"type":"Feature","geometry":{"type":"Point","coordinates":[109.12753,21.486186]},"properties":{"full_address":"广西壮族自治区北海市海城区海岸线以南，上海路以东，北部湾路以北，茶亭路以北，德利海北海北边围墙以西，合围之处"}},{"type":"Feature","geometry":{"type":"Point","coordinates":[109.146751,21.483797]},"properties":{"full_address":"广西壮族自治区北海市海城区广东路以东，海南路以南，深圳路以西，湖海路以北，合围之处"}},{"type":"Feature","geometry":{"type":"Point","coordinates":[109.166287,21.473268]},"properties":{"full_address":"广西壮族自治区北海市海城区广东路以东，西南大道以北，北海大道以南，建材路以西，合围之处"}},{"type":"Feature","geometry":{"type":"Point","coordinates":[109.156555,21.478396]},"properties":{"full_address":"广西壮族自治区北海市海城区四川路以东，重庆路以北，北京路以西，北海大道以南，合围之处"}},{"type":"Feature","geometry":{"type":"Point","coordinates":[109.156555,21.478396]},"properties":{"full_address":"广西壮族自治区北海市海城区云南路以东，西南大道以北，贵州路以西，北海大道以南，合围之处"}},{"type":"Feature","geometry":{"type":"Point","coordinates":[109.090333,21.461762]},"properties":{"full_address":"广西壮族自治区北海市海城区北海大道（西延线）以东，成都路以南，西南大道以南，西藏路以西，铁路以北，合围之处"}},{"type":"Feature","geometry":{"type":"Point","coordinates":[109.095002,21.471475]},"properties":{"full_address":"广西壮族自治区北海市海城区海角路以南，贵州路以西，北部湾路以北，独树根东路以东，合围之处"}},{"type":"Feature","geometry":{"type":"Point","coordinates":[109.100722,21.468873]},"properties":{"full_address":"广西壮族自治区北海市海城区北海大道以西，昆明路以南，北部湾西路以南，成都路以南，与海景大道合围之处（除新营社区朱屋村）"}},{"type":"Feature","geometry":{"type":"Point","coordinates":[109.146957,21.488863]},"properties":{"full_address":"广西壮族自治区北海市海城区高德街道上海中路社区海语城小区（除6栋、11栋、17栋、19栋外）"}},{"type":"Feature","geometry":{"type":"Point","coordinates":[109.119583,21.476333]},"properties":{"full_address":"广西壮族自治区北海市海城区中街街道公园路社区文明南路二至四巷（除二巷36号、38号、40号、三巷47号、49号、51号外）"}},{"type":"Feature","geometry":{"type":"Point","coordinates":[109.112708,21.48041]},"properties":{"full_address":"广西壮族自治区北海市海城区中街街道幸福里社区担水巷51号"}},{"type":"Feature","geometry":{"type":"Point","coordinates":[109.151031,21.46956]},"properties":{"full_address":"广西壮族自治区北海市海城区驿马街道驿马村委会上海路园辉新都（除20栋外）"}},{"type":"Feature","geometry":{"type":"Point","coordinates":[109.107518,21.474292]},"properties":{"full_address":"广西壮族自治区北海市海城区海角街道北部湾西社区三中东里2栋、4栋"}},{"type":"Feature","geometry":{"type":"Point","coordinates":[109.129399,21.482326]},"properties":{"full_address":"广西壮族自治区北海市海城区东街街道政法路社区振业小区(除4栋外)"}},{"type":"Feature","geometry":{"type":"Point","coordinates":[109.120748,21.454508]},"properties":{"full_address":"广西壮族自治区北海市海城区驿马街道白屋社区格林香海（除华林居5栋、怡海轩2A外）"}},{"type":"Feature","geometry":{"type":"Point","coordinates":[109.145513,21.494473]},"properties":{"full_address":"广西壮族自治区北海市海城区高德街道上海北路社区星海湾花园（除帝海阁外）"}},{"type":"Feature","geometry":{"type":"Point","coordinates":[109.096265,21.475582]},"properties":{"full_address":"广西壮族自治区北海市海城区海角街道独树根西社区云南路碧海新城小区（除1栋外）"}},{"type":"Feature","geometry":{"type":"Point","coordinates":[109.123351,21.468253]},"properties":{"full_address":"广西壮族自治区北海市海城区中街街道塘仔里社区北海大道晏峰建材商城小区（除B栋外）"}},{"type":"Feature","geometry":{"type":"Point","coordinates":[109.157267,21.496498]},"properties":{"full_address":"广西壮族自治区北海市海城区高德街道高农村委会新业花园（除4栋外）"}},{"type":"Feature","geometry":{"type":"Point","coordinates":[109.130448,21.460987]},"properties":{"full_address":"广西壮族自治区北海市海城区驿马街道西塘社区源丰路29号大成公寓（除B栋外）"}},{"type":"Feature","geometry":{"type":"Point","coordinates":[109.153203,21.418734]},"properties":{"full_address":"广西壮族自治区北海市银海区银滩镇北背岭回建区银新西二路21-28号、39-46号、57-63号"}},{"type":"Feature","geometry":{"type":"Point","coordinates":[109.198486,21.441105]},"properties":{"full_address":"广西壮族自治区北海市银海区银滩镇龙潭村委10队24号西面40米住宅楼周边约1000平方米"}},{"type":"Feature","geometry":{"type":"Point","coordinates":[109.138122,21.448701]},"properties":{"full_address":"广西壮族自治区北海市银海区银滩镇和兴村委细垌村能远花园"}},{"type":"Feature","geometry":{"type":"Point","coordinates":[109.126193,21.424733]},"properties":{"full_address":"广西壮族自治区北海市银海区侨港镇东区1-6栋"}},{"type":"Feature","geometry":{"type":"Point","coordinates":[109.140259,21.443051]},"properties":{"full_address":"广西壮族自治区北海市银海区银滩镇新世纪大道以南、广东路以东、湘潭路以西、江苏路以北合围区（乾坤国际城、镒建世纪城）"}},{"type":"Feature","geometry":{"type":"Point","coordinates":[109.555339,21.60135]},"properties":{"full_address":"广西壮族自治区北海市铁山港区赤江华侨陶器厂宿舍区"}},{"type":"Feature","geometry":{"type":"Point","coordinates":[109.531243,21.504903]},"properties":{"full_address":"广西壮族自治区北海市铁山港区兴港镇彬定村委新村坡村"}},{"type":"Feature","geometry":{"type":"Point","coordinates":[109.161566,21.591607]},"properties":{"full_address":"广西壮族自治区北海市合浦县廉州镇马安村遂南南队"}},{"type":"Feature","geometry":{"type":"Point","coordinates":[110.324279,19.698294]},"properties":{"full_address":"海南省省直辖县级行政单位定安县定城镇文体路24号百盛精品超市及其所在楼栋"}},{"type":"Feature","geometry":{"type":"Point","coordinates":[110.371815,19.676858]},"properties":{"full_address":"海南省省直辖县级行政单位定安县定城镇定仙路54号仙沟卫生院"}},{"type":"Feature","geometry":{"type":"Point","coordinates":[106.289741,29.431784]},"properties":{"full_address":"重庆市重庆市江津区双福珊瑚大道旁兴茂北座1号楼、2号楼、3号楼"}},{"type":"Feature","geometry":{"type":"Point","coordinates":[106.29466,29.428977]},"properties":{"full_address":"重庆市重庆市江津区双福国际农贸城"}},{"type":"Feature","geometry":{"type":"Point","coordinates":[106.280489,29.42891]},"properties":{"full_address":"重庆市重庆市江津区双福街道恒大金碧天下3期672栋楼"}},{"type":"Feature","geometry":{"type":"Point","coordinates":[106.272506,29.426051]},"properties":{"full_address":"重庆市重庆市江津区双福街道恒大金碧天下2期619栋楼"}},{"type":"Feature","geometry":{"type":"Point","coordinates":[106.236229,29.273199]},"properties":{"full_address":"重庆市重庆市江津区德感街道御江山浔院28栋楼"}},{"type":"Feature","geometry":{"type":"Point","coordinates":[106.932317,28.961628]},"properties":{"full_address":"重庆市重庆市万盛经开区芙蓉丽苑2、3单元"}},{"type":"Feature","geometry":{"type":"Point","coordinates":[106.929373,28.948869]},"properties":{"full_address":"重庆市重庆市万盛经开区煤苑小区9栋2单元"}},{"type":"Feature","geometry":{"type":"Point","coordinates":[106.929373,28.948869]},"properties":{"full_address":"重庆市重庆市万盛经开区芙蓉丽苑小区外芙蓉副食店"}},{"type":"Feature","geometry":{"type":"Point","coordinates":[106.929373,28.948869]},"properties":{"full_address":"重庆市重庆市万盛经开区南天门小商店"}},{"type":"Feature","geometry":{"type":"Point","coordinates":[106.929373,28.948869]},"properties":{"full_address":"重庆市重庆市万盛经开区万盛桃子加油站超市"}},{"type":"Feature","geometry":{"type":"Point","coordinates":[104.123063,30.63297]},"properties":{"full_address":"四川省成都市锦江区沙河街道锦东庭园1-13栋（岷江路1668号），包括楼栋底层商户"}},{"type":"Feature","geometry":{"type":"Point","coordinates":[104.093341,30.636752]},"properties":{"full_address":"四川省成都市锦江区牛市口街道南府锦1栋（莲桂西路170号）"}},{"type":"Feature","geometry":{"type":"Point","coordinates":[104.082434,30.65157]},"properties":{"full_address":"四川省成都市锦江区锦官驿街道南糠市街48号大院2栋，包括楼栋底层商户"}},{"type":"Feature","geometry":{"type":"Point","coordinates":[104.073407,30.649947]},"properties":{"full_address":"四川省成都市锦江区督院街道锦兴路前卫街12号昆仑华庭"}},{"type":"Feature","geometry":{"type":"Point","coordinates":[104.103625,30.644821]},"properties":{"full_address":"四川省成都市锦江区牛市口街道大田坎街162号蜀都花园除22栋以外的其他区域（含底商）"}},{"type":"Feature","geometry":{"type":"Point","coordinates":[104.103302,30.637629]},"properties":{"full_address":"四川省成都市锦江区牛市口街道海椒市东街43号东方桂苑1—6栋（含底商）"}},{"type":"Feature","geometry":{"type":"Point","coordinates":[104.094152,30.640888]},"properties":{"full_address":"四川省成都市锦江区牛市口街道宏济新路488号晶蓝半岛A区1、2栋，包括楼栋底层商户"}},{"type":"Feature","geometry":{"type":"Point","coordinates":[104.021213,30.655452]},"properties":{"full_address":"四川省成都市青羊区光华街道怡馨花园5栋（二环路西一段89号）"}},{"type":"Feature","geometry":{"type":"Point","coordinates":[104.047417,30.662667]},"properties":{"full_address":"四川省成都市青羊区草堂街道十二桥路14号附1号、16号附2号4-9栋"}},{"type":"Feature","geometry":{"type":"Point","coordinates":[104.022931,30.680616]},"properties":{"full_address":"四川省成都市青羊区府南街道双清巷18号清水绿苑1、2栋"}},{"type":"Feature","geometry":{"type":"Point","coordinates":[104.022834,30.678022]},"properties":{"full_address":"四川省成都市青羊区府南街道清溪南街20号院10栋（清溪南街20号）"}},{"type":"Feature","geometry":{"type":"Point","coordinates":[104.082247,30.669703]},"properties":{"full_address":"四川省成都市青羊区草市街道东通顺街26号院3栋（东通顺街26号）"}},{"type":"Feature","geometry":{"type":"Point","coordinates":[103.97016,30.677091]},"properties":{"full_address":"四川省成都市青羊区黄田坝街道清江美庐1-6、8-10栋（万花一路301号）"}},{"type":"Feature","geometry":{"type":"Point","coordinates":[104.031754,30.700094]},"properties":{"full_address":"四川省成都市金牛区营门口街道首开龙湖紫宸小区（一期）3栋（花照壁西顺街198号）"}},{"type":"Feature","geometry":{"type":"Point","coordinates":[104.118168,30.7751]},"properties":{"full_address":"四川省成都市金牛区天回镇街道“金华寺西路——毗河——马觉寺路——金华寺南路——天宝路西北段——金芙蓉大道一段辅路——金华寺西路”合围区域中，除去高风险区域的其他区域"}},{"type":"Feature","geometry":{"type":"Point","coordinates":[104.067476,30.626375]},"properties":{"full_address":"四川省成都市武侯区人民南路四段15号"}},{"type":"Feature","geometry":{"type":"Point","coordinates":[104.089241,30.638268]},"properties":{"full_address":"四川省成都市武侯区望江路街道中海格林威治城 2 栋、熙美本色医疗美容(望江路1号)"}},{"type":"Feature","geometry":{"type":"Point","coordinates":[104.044666,30.638378]},"properties":{"full_address":"四川省成都市武侯区浆洗街街道一环路南四段28号小区1栋"}},{"type":"Feature","geometry":{"type":"Point","coordinates":[104.082266,30.642196]},"properties":{"full_address":"四川省成都市武侯区望江路街道江天路1号院1-2栋"}},{"type":"Feature","geometry":{"type":"Point","coordinates":[104.078236,30.642304]},"properties":{"full_address":"四川省成都市武侯区望江路街道锦宏骏苑北区1-3栋（龙江路19号）"}},{"type":"Feature","geometry":{"type":"Point","coordinates":[104.16826,30.698508]},"properties":{"full_address":"四川省成都市成华区金科天籁城2栋（成都市成华区龙港路36号），包括楼栋底层商户"}},{"type":"Feature","geometry":{"type":"Point","coordinates":[104.115333,30.662868]},"properties":{"full_address":"四川省成都市成华区海棠名居5栋、6栋、7栋、8栋(成都市杉板桥路52号) ,包括楼栋底层商户"}},{"type":"Feature","geometry":{"type":"Point","coordinates":[104.118717,30.679191]},"properties":{"full_address":"四川省成都市成华区府青路街道关家苑1栋（二仙桥桃竹路关家小区），包括楼栋底层商户"}},{"type":"Feature","geometry":{"type":"Point","coordinates":[104.181507,30.695736]},"properties":{"full_address":"四川省成都市成华区龙潭街道水乡嘉苑1-3栋、5-15栋（华裕路9号），包括楼栋底层商户"}},{"type":"Feature","geometry":{"type":"Point","coordinates":[104.181858,30.694966]},"properties":{"full_address":"四川省成都市成华区龙潭工业园区安置房5期1-8栋、10栋（华裕路26号），包括楼栋底层商户"}},{"type":"Feature","geometry":{"type":"Point","coordinates":[104.123008,30.654221]},"properties":{"full_address":"四川省成都市成华区万年场街道联合四组1-15栋、17栋、19-21栋"}},{"type":"Feature","geometry":{"type":"Point","coordinates":[104.11049,30.725632]},"properties":{"full_address":"四川省成都市成华区熊猫大道壹号院1栋、7栋、12栋、13栋、17栋、18栋、21-25栋，社区党群服务中心（熊猫大道11号）"}},{"type":"Feature","geometry":{"type":"Point","coordinates":[104.113416,30.67579]},"properties":{"full_address":"四川省成都市成华区跳蹬河街道新禧苑1-5栋、8-10栋（建设北路三段10号），包括楼栋底层商户"}},{"type":"Feature","geometry":{"type":"Point","coordinates":[104.124,30.671546]},"properties":{"full_address":"四川省成都市成华区跳蹬河街道红枫岭1期2栋、3栋、4栋、5栋（建设南路98号），包括楼栋底层商户"}},{"type":"Feature","geometry":{"type":"Point","coordinates":[104.101533,30.679358]},"properties":{"full_address":"四川省成都市成华区猛追湾街道建设北路二段5号附1号1-3栋、30-34栋、36栋，包括楼栋底层商户"}},{"type":"Feature","geometry":{"type":"Point","coordinates":[104.156841,30.702919]},"properties":{"full_address":"四川省成都市成华区龙潭街道平祥雅居1栋、2栋、4栋（龙瑞一路1号）"}},{"type":"Feature","geometry":{"type":"Point","coordinates":[104.157562,30.617233]},"properties":{"full_address":"四川省成都市龙泉驿区桃花源别墅27区10栋和28区8、9、10和11栋（东洪路416号216栋、东洪路416号226栋、东洪路416号227栋、东洪路416号228栋、东洪路416号229栋)"}},{"type":"Feature","geometry":{"type":"Point","coordinates":[104.311147,30.618263]},"properties":{"full_address":"四川省成都市龙泉驿区同安街道丽阳路208号丽阳社区D区14栋和15栋（含底商）"}},{"type":"Feature","geometry":{"type":"Point","coordinates":[104.272035,30.666583]},"properties":{"full_address":"四川省成都市龙泉驿区洪安镇长伍村二组石院坝"}},{"type":"Feature","geometry":{"type":"Point","coordinates":[104.274632,30.556507]},"properties":{"full_address":"四川省成都市龙泉驿区东安街道吾悦华府2栋、3栋、4栋、5栋、6栋、8栋、9栋、10栋（含底商）"}},{"type":"Feature","geometry":{"type":"Point","coordinates":[104.249444,30.643198]},"properties":{"full_address":"四川省成都市龙泉驿区西河街道黄泥堰路577号馨竹苑1栋、2栋、3栋、4栋、6栋、7栋和8栋（含底商）"}},{"type":"Feature","geometry":{"type":"Point","coordinates":[104.271161,30.570099]},"properties":{"full_address":"四川省成都市龙泉驿区龙泉街道文豪世苑1栋和3栋（含底商）"}},{"type":"Feature","geometry":{"type":"Point","coordinates":[104.170397,30.569057]},"properties":{"full_address":"四川省成都市龙泉驿区大面街道车城西五路99号金茂悦龙山小区1栋、2栋、3栋、4栋、5栋、6栋、7栋、8栋、10栋、11栋、12栋和13栋（含底商）"}},{"type":"Feature","geometry":{"type":"Point","coordinates":[104.185866,30.661458]},"properties":{"full_address":"四川省成都市龙泉驿区十陵街道来龙村江华路306号楼（含底商）"}},{"type":"Feature","geometry":{"type":"Point","coordinates":[104.244919,30.534204]},"properties":{"full_address":"四川省成都市龙泉驿区柏合街道黎明社区鲸龙路926号黎明小区1栋、3- 24 栋（含底商）"}},{"type":"Feature","geometry":{"type":"Point","coordinates":[104.259538,30.574599]},"properties":{"full_address":"四川省成都市龙泉驿区龙泉街道双龙路488号怡和新城E1区除8栋以外的其他区域和E4区28栋（含底商）"}},{"type":"Feature","geometry":{"type":"Point","coordinates":[104.193334,30.566071]},"properties":{"full_address":"四川省成都市龙泉驿区大面街道龙城大道816号中国电建云立方小区1-8、10-11、13-16栋（含底商）"}},{"type":"Feature","geometry":{"type":"Point","coordinates":[104.279192,30.569024]},"properties":{"full_address":"四川省成都市龙泉驿区龙泉街道文景街218号名景花园除2栋以外的其他区域（含底商）"}},{"type":"Feature","geometry":{"type":"Point","coordinates":[104.166639,30.620622]},"properties":{"full_address":"四川省成都市龙泉驿区大面街道蒲草路1688号五星嘉园小区除2栋以外的其他区域（含底商）"}},{"type":"Feature","geometry":{"type":"Point","coordinates":[104.253037,30.537578]},"properties":{"full_address":"四川省成都市龙泉驿区柏合街道鲸龙路777号东山领地1-3栋、5-6栋、8栋、东山领地一期旁长远二组自建点（含底商）"}},{"type":"Feature","geometry":{"type":"Point","coordinates":[104.229408,30.536992]},"properties":{"full_address":"四川省成都市龙泉驿区经开区南二路35号成都天屹生物科技有限公司、龙泉驿区经开区南二路33号成都市龙泉密封脂厂、龙泉驿区经开区南二路31号香港艾乐集团成都工业园、龙泉驿区经开区南二路25号中国电建、龙泉驿区经开区南二路19号成都市龙泉黎明非标制造有限公司、龙泉驿区柏合街道车城东五路133号四川万汇票证印务有限公司、龙泉驿区柏合街道车城东五路333号四川海岸电子开发有限公司、龙泉驿区柏合街道车城东五路145号成都新亿诺电器有限公司、龙泉驿区柏合街道车城东五路143号成都润信实业有限公司"}},{"type":"Feature","geometry":{"type":"Point","coordinates":[104.262197,30.572626]},"properties":{"full_address":"四川省成都市龙泉驿区龙泉街道双龙路388号怡和新城F2区9-12栋、14-15栋（含底商)"}},{"type":"Feature","geometry":{"type":"Point","coordinates":[104.27325,30.570628]},"properties":{"full_address":"四川省成都市龙泉驿区龙泉街道龙都南路756号金色逸景小区1-3栋（含底商)和5-9栋"}},{"type":"Feature","geometry":{"type":"Point","coordinates":[104.235509,30.571564]},"properties":{"full_address":"四川省成都市龙泉驿区驿都城二期7栋，包括楼栋底层商户（龙泉驿区大连北路199号）"}},{"type":"Feature","geometry":{"type":"Point","coordinates":[104.069235,30.77298]},"properties":{"full_address":"四川省成都市新都区敬城路501号圣采泊尚17栋、18栋"}},{"type":"Feature","geometry":{"type":"Point","coordinates":[104.171857,30.781946]},"properties":{"full_address":"四川省成都市新都区英路与绕城大道南一段交汇处东侧观澜鹭岛一期除7栋外的其他楼栋（含底层商铺）"}},{"type":"Feature","geometry":{"type":"Point","coordinates":[104.089461,30.755348]},"properties":{"full_address":"四川省成都市新都区甫家一路东段718号钰邸华府除2栋外的其他楼栋（含底层商铺）"}},{"type":"Feature","geometry":{"type":"Point","coordinates":[103.88592,30.675714]},"properties":{"full_address":"四川省成都市温江区涌泉街道蓝光香瑞湖9栋—49栋（成都市温江区鹏程路1099号）"}},{"type":"Feature","geometry":{"type":"Point","coordinates":[103.482178,30.788146]},"properties":{"full_address":"四川省成都市崇州市街子镇天祥小区"}},{"type":"Feature","geometry":{"type":"Point","coordinates":[104.059072,30.57311]},"properties":{"full_address":"四川省成都市高新区石羊街道南苑B区6栋（高新区锦城大道825号）"}},{"type":"Feature","geometry":{"type":"Point","coordinates":[103.880462,30.59681]},"properties":{"full_address":"四川省成都市高新区桂溪街道复地金融岛小区1-4、6-18栋（高新区环岛路1200号）"}},{"type":"Feature","geometry":{"type":"Point","coordinates":[104.080117,30.465062]},"properties":{"full_address":"四川省成都市天府新区华阳街道麓湖生态城澜语溪岸2—3栋、5—9栋（嘉州路109号）"}},{"type":"Feature","geometry":{"type":"Point","coordinates":[103.241804,29.578661]},"properties":{"full_address":"四川省眉山市洪雅县七里坪镇度假区除高风险区以外的其他地区"}},{"type":"Feature","geometry":{"type":"Point","coordinates":[103.881281,36.037774]},"properties":{"full_address":"甘肃省兰州市城关区嘉峪关路街道东岗家园"}},{"type":"Feature","geometry":{"type":"Point","coordinates":[103.829484,36.043167]},"properties":{"full_address":"甘肃省兰州市城关区五泉街道安澜小区"}},{"type":"Feature","geometry":{"type":"Point","coordinates":[103.83126,36.044423]},"properties":{"full_address":"甘肃省兰州市城关区五泉街道大公大厦"}},{"type":"Feature","geometry":{"type":"Point","coordinates":[103.865384,36.048049]},"properties":{"full_address":"甘肃省兰州市城关区渭源路街道广电小区"}},{"type":"Feature","geometry":{"type":"Point","coordinates":[103.885659,36.048142]},"properties":{"full_address":"甘肃省兰州市城关区拱星墩街道段家滩路宝影花园"}},{"type":"Feature","geometry":{"type":"Point","coordinates":[103.906131,36.039172]},"properties":{"full_address":"甘肃省兰州市城关区拱星墩街道林规院家属院"}},{"type":"Feature","geometry":{"type":"Point","coordinates":[103.821345,36.061363]},"properties":{"full_address":"甘肃省兰州市城关区临夏路街道兰东小区"}},{"type":"Feature","geometry":{"type":"Point","coordinates":[103.862806,36.03837]},"properties":{"full_address":"甘肃省兰州市城关区团结新村街道新华印刷厂家属院东南区"}},{"type":"Feature","geometry":{"type":"Point","coordinates":[103.82244,36.086461]},"properties":{"full_address":"甘肃省兰州市城关区草场街街道恒大绿洲二号院（6号、9号楼以外）片区"}},{"type":"Feature","geometry":{"type":"Point","coordinates":[103.828148,36.070729]},"properties":{"full_address":"甘肃省兰州市城关区草场街街道天诚丽舍（1号楼以外）片区"}},{"type":"Feature","geometry":{"type":"Point","coordinates":[103.926541,36.044175]},"properties":{"full_address":"甘肃省兰州市城关区东岗街道东岗世纪新村D区（4-3栋以外）片区"}},{"type":"Feature","geometry":{"type":"Point","coordinates":[103.823901,36.043471]},"properties":{"full_address":"甘肃省兰州市城关区五泉街道祁连山家属院（5号楼以外）片区"}},{"type":"Feature","geometry":{"type":"Point","coordinates":[103.824086,36.045144]},"properties":{"full_address":"甘肃省兰州市城关区五泉街道中山林54号1、3、4单元"}},{"type":"Feature","geometry":{"type":"Point","coordinates":[103.868222,36.06074]},"properties":{"full_address":"甘肃省兰州市城关区雁南街道雁南路区委家属院（2122号9号楼以外）片区"}},{"type":"Feature","geometry":{"type":"Point","coordinates":[103.834693,36.07167]},"properties":{"full_address":"甘肃省兰州市城关区草场街街道惠陇小区"}},{"type":"Feature","geometry":{"type":"Point","coordinates":[103.829526,36.071073]},"properties":{"full_address":"甘肃省兰州市城关区草场街街道铝制品厂家属院"}},{"type":"Feature","geometry":{"type":"Point","coordinates":[103.851693,36.076568]},"properties":{"full_address":"甘肃省兰州市城关区草场衔街道盐场路惠客家楼上区域"}},{"type":"Feature","geometry":{"type":"Point","coordinates":[103.880938,36.040784]},"properties":{"full_address":"甘肃省兰州市城关区嘉峪关路街道东瓯逸景"}},{"type":"Feature","geometry":{"type":"Point","coordinates":[103.866065,36.04219]},"properties":{"full_address":"甘肃省兰州市城关区嘉峪关路街道嘉峪关西路198号临街小区"}},{"type":"Feature","geometry":{"type":"Point","coordinates":[103.785071,36.07805]},"properties":{"full_address":"甘肃省兰州市城关区靖远路街道兰雅星河湾"}},{"type":"Feature","geometry":{"type":"Point","coordinates":[103.814097,36.059028]},"properties":{"full_address":"甘肃省兰州市城关区临夏路街道第六干休所"}},{"type":"Feature","geometry":{"type":"Point","coordinates":[103.813953,36.058606]},"properties":{"full_address":"甘肃省兰州市城关区临夏路街道静安门外56号小区"}},{"type":"Feature","geometry":{"type":"Point","coordinates":[103.8239,36.060149]},"properties":{"full_address":"甘肃省兰州市城关区临夏路街道益通小区"}},{"type":"Feature","geometry":{"type":"Point","coordinates":[103.905528,36.071148]},"properties":{"full_address":"甘肃省兰州市城关区青白石街道小达子坪车管所"}},{"type":"Feature","geometry":{"type":"Point","coordinates":[103.86593,36.04995]},"properties":{"full_address":"甘肃省兰州市城关区渭源路街道科技街航天和美"}},{"type":"Feature","geometry":{"type":"Point","coordinates":[103.81949,36.047408]},"properties":{"full_address":"甘肃省兰州市城关区五泉街道甘肃日报社家属院"}},{"type":"Feature","geometry":{"type":"Point","coordinates":[103.830786,36.041707]},"properties":{"full_address":"甘肃省兰州市城关区五泉街道闵家桥172号小区"}},{"type":"Feature","geometry":{"type":"Point","coordinates":[103.837997,36.09005]},"properties":{"full_address":"甘肃省兰州市城关区盐场路街道大沙坪左家湾66号自建房片区"}},{"type":"Feature","geometry":{"type":"Point","coordinates":[103.879838,36.06831]},"properties":{"full_address":"甘肃省兰州市城关区雁北街道雁滩家园B区"}},{"type":"Feature","geometry":{"type":"Point","coordinates":[103.880297,36.068392]},"properties":{"full_address":"甘肃省兰州市城关区雁北街道雁滩家园D区"}},{"type":"Feature","geometry":{"type":"Point","coordinates":[103.884174,36.056224]},"properties":{"full_address":"甘肃省兰州市城关区雁南街道天庆大道星河苑"}},{"type":"Feature","geometry":{"type":"Point","coordinates":[103.886971,36.059519]},"properties":{"full_address":"甘肃省兰州市城关区雁园街道雁滩绿苑小区"}},{"type":"Feature","geometry":{"type":"Point","coordinates":[103.909125,36.063164]},"properties":{"full_address":"甘肃省兰州市城关区雁园街道中广宜景湾尚城"}},{"type":"Feature","geometry":{"type":"Point","coordinates":[103.838006,36.081268]},"properties":{"full_address":"甘肃省兰州市城关区草场街街道大砂坪怡苑小区"}},{"type":"Feature","geometry":{"type":"Point","coordinates":[103.840691,36.033481]},"properties":{"full_address":"甘肃省兰州市城关区伏龙坪街道伏龙坪2号小区"}},{"type":"Feature","geometry":{"type":"Point","coordinates":[103.898746,36.040975]},"properties":{"full_address":"甘肃省兰州市城关区拱星墩街道东岗东路7437工厂菜市场"}},{"type":"Feature","geometry":{"type":"Point","coordinates":[103.906131,36.039172]},"properties":{"full_address":"甘肃省兰州市城关区拱星墩街道飞天大院"}},{"type":"Feature","geometry":{"type":"Point","coordinates":[103.872239,36.052658]},"properties":{"full_address":"甘肃省兰州市城关区拱星墩街道豪爽宾馆"}},{"type":"Feature","geometry":{"type":"Point","coordinates":[103.905712,36.039948]},"properties":{"full_address":"甘肃省兰州市城关区拱星墩街道深沟子自建房片区（深沟子134-168号）"}},{"type":"Feature","geometry":{"type":"Point","coordinates":[103.878559,36.044647]},"properties":{"full_address":"甘肃省兰州市城关区拱星墩街道新源大厦"}},{"type":"Feature","geometry":{"type":"Point","coordinates":[103.872383,36.039883]},"properties":{"full_address":"甘肃省兰州市城关区嘉峪关路街道城市学院东校区"}},{"type":"Feature","geometry":{"type":"Point","coordinates":[103.872162,36.038233]},"properties":{"full_address":"甘肃省兰州市城关区嘉峪关路街道民航家属院"}},{"type":"Feature","geometry":{"type":"Point","coordinates":[103.89717,36.037997]},"properties":{"full_address":"甘肃省兰州市城关区焦家湾街道焦煤厂自建房片区（1-43号)"}},{"type":"Feature","geometry":{"type":"Point","coordinates":[103.828533,36.068585]},"properties":{"full_address":"甘肃省兰州市城关区靖远路街道靖远路小区"}},{"type":"Feature","geometry":{"type":"Point","coordinates":[103.899409,36.084294]},"properties":{"full_address":"甘肃省兰州市城关区青白石街道银河国际二期"}},{"type":"Feature","geometry":{"type":"Point","coordinates":[103.831707,36.035982]},"properties":{"full_address":"甘肃省兰州市城关区五泉街道和平新村127号家属院"}},{"type":"Feature","geometry":{"type":"Point","coordinates":[103.870284,36.062729]},"properties":{"full_address":"甘肃省兰州市城关区雁北街道银雁家园"}},{"type":"Feature","geometry":{"type":"Point","coordinates":[103.869214,36.05824]},"properties":{"full_address":"甘肃省兰州市城关区雁南街道雁西路永诚宾馆"}},{"type":"Feature","geometry":{"type":"Point","coordinates":[103.83173,36.07602]},"properties":{"full_address":"甘肃省兰州市城关区草场街街道大沙坪自建房片区(1-153号)"}},{"type":"Feature","geometry":{"type":"Point","coordinates":[103.836776,36.07025]},"properties":{"full_address":"甘肃省兰州市城关区草场街街道电器厂家属院"}},{"type":"Feature","geometry":{"type":"Point","coordinates":[103.838582,36.048302]},"properties":{"full_address":"甘肃省兰州市城关区皋兰路街道大工贸家属院"}},{"type":"Feature","geometry":{"type":"Point","coordinates":[103.838697,36.048788]},"properties":{"full_address":"甘肃省兰州市城关区皋兰路街道郑家台73-75号（单号)家属院"}},{"type":"Feature","geometry":{"type":"Point","coordinates":[103.890508,36.045934]},"properties":{"full_address":"甘肃省兰州市城关区拱星墩街道财经大学家属院"}},{"type":"Feature","geometry":{"type":"Point","coordinates":[103.845931,36.060445]},"properties":{"full_address":"甘肃省兰州市城关区广武门街道大教梁15号片区"}},{"type":"Feature","geometry":{"type":"Point","coordinates":[103.865171,36.03331]},"properties":{"full_address":"甘肃省兰州市城关区团结新村街道排洪沟红星巷造纸厂120号平房区"}},{"type":"Feature","geometry":{"type":"Point","coordinates":[103.86175,36.039432]},"properties":{"full_address":"甘肃省兰州市城关区团结新村街道移动公司家属院"}},{"type":"Feature","geometry":{"type":"Point","coordinates":[103.877709,36.051031]},"properties":{"full_address":"甘肃省兰州市城关区雁南街道金盛宾馆"}},{"type":"Feature","geometry":{"type":"Point","coordinates":[103.776572,36.075822]},"properties":{"full_address":"甘肃省兰州市城关区白银路街道柏道路食品厂家属院"}},{"type":"Feature","geometry":{"type":"Point","coordinates":[103.817601,36.049279]},"properties":{"full_address":"甘肃省兰州市城关区白银路街道第一新村自建房片区38-88号（双号）"}},{"type":"Feature","geometry":{"type":"Point","coordinates":[103.835921,36.032984]},"properties":{"full_address":"甘肃省兰州市城关区白银路街道市建一公司家属院"}},{"type":"Feature","geometry":{"type":"Point","coordinates":[103.837366,36.077197]},"properties":{"full_address":"甘肃省兰州市城关区草场街街道砂坪村自建房片区(193-203号、207-258号)"}},{"type":"Feature","geometry":{"type":"Point","coordinates":[103.838441,36.042587]},"properties":{"full_address":"甘肃省兰州市城关区伏龙坪街道伏龙坪1号小区"}},{"type":"Feature","geometry":{"type":"Point","coordinates":[103.880861,36.050051]},"properties":{"full_address":"甘肃省兰州市城关区拱星墩街道荣城家园"}},{"type":"Feature","geometry":{"type":"Point","coordinates":[103.838441,36.042587]},"properties":{"full_address":"甘肃省兰州市城关区临夏路街道付家巷104-108（双号)小区"}},{"type":"Feature","geometry":{"type":"Point","coordinates":[103.859827,36.063673]},"properties":{"full_address":"甘肃省兰州市城关区雁南街道欣月湖小区"}},{"type":"Feature","geometry":{"type":"Point","coordinates":[103.833701,36.08532]},"properties":{"full_address":"甘肃省兰州市城关区草场街街道五一馨苑"}},{"type":"Feature","geometry":{"type":"Point","coordinates":[103.893597,36.052914]},"properties":{"full_address":"甘肃省兰州市城关区嘉峪关路街道嘉峪关南路242—248（双号）综合楼"}},{"type":"Feature","geometry":{"type":"Point","coordinates":[103.770865,36.072802]},"properties":{"full_address":"甘肃省兰州市城关区雁北街道738-750（双号）家属院"}},{"type":"Feature","geometry":{"type":"Point","coordinates":[103.898492,36.057889]},"properties":{"full_address":"甘肃省兰州市城关区雁园街道刘家滩自建房片区（474号、476-486号）"}},{"type":"Feature","geometry":{"type":"Point","coordinates":[103.854723,36.039981]},"properties":{"full_address":"甘肃省兰州市城关区团结新村街道南砖瓦窑自建房片区（63-101号）"}},{"type":"Feature","geometry":{"type":"Point","coordinates":[103.864518,36.056331]},"properties":{"full_address":"甘肃省兰州市城关区渭源路街道南河新村综合楼"}},{"type":"Feature","geometry":{"type":"Point","coordinates":[103.851963,36.046686]},"properties":{"full_address":"甘肃省兰州市城关区东岗西路街道福田大厦"}},{"type":"Feature","geometry":{"type":"Point","coordinates":[103.84401,36.049389]},"properties":{"full_address":"甘肃省兰州市城关区皋兰路街道榆中街市场平房区113-123（单号）"}},{"type":"Feature","geometry":{"type":"Point","coordinates":[103.878296,36.050066]},"properties":{"full_address":"甘肃省兰州市城关区拱星墩街道膜科院家属院"}},{"type":"Feature","geometry":{"type":"Point","coordinates":[103.877683,36.045852]},"properties":{"full_address":"甘肃省兰州市城关区拱星墩街道亚太城市月光"}},{"type":"Feature","geometry":{"type":"Point","coordinates":[103.839452,36.050781]},"properties":{"full_address":"甘肃省兰州市城关区皋兰路街道体育馆家属院"}},{"type":"Feature","geometry":{"type":"Point","coordinates":[103.83891,36.04861]},"properties":{"full_address":"甘肃省兰州市城关区皋兰路街道郑家台45号小区"}},{"type":"Feature","geometry":{"type":"Point","coordinates":[103.831201,36.079424]},"properties":{"full_address":"甘肃省兰州市城关区草场街街道瑞安小区"}},{"type":"Feature","geometry":{"type":"Point","coordinates":[103.857838,36.032958]},"properties":{"full_address":"甘肃省兰州市城关区火车站街道康居苑小区"}},{"type":"Feature","geometry":{"type":"Point","coordinates":[103.806629,36.062561]},"properties":{"full_address":"甘肃省兰州市七里河区南滨河中路11号广宇小区"}},{"type":"Feature","geometry":{"type":"Point","coordinates":[103.789982,36.056268]},"properties":{"full_address":"甘肃省兰州市七里河区西园街道明仁花苑小区（除16号楼1-2单元外）"}},{"type":"Feature","geometry":{"type":"Point","coordinates":[103.788986,36.058984]},"properties":{"full_address":"甘肃省兰州市七里河区西湖街道小西湖硷沟沿新华园小区（除8号楼、11号楼、12号楼、院内小二楼以外）"}},{"type":"Feature","geometry":{"type":"Point","coordinates":[103.763991,36.062008]},"properties":{"full_address":"甘肃省兰州市七里河区晏家坪街道晏家坪北路回民上沟（东至晏家坪北路216号以西，西至机车厂四区东侧围墙，南至国储五三四处货运专线，北至回民沟下沟以南)"}},{"type":"Feature","geometry":{"type":"Point","coordinates":[103.737325,36.061235]},"properties":{"full_address":"甘肃省兰州市七里河区彭家坪污水处理厂（S212路以东，陆家嘴蔬菜市场以南，S216路以西，B227路以北)"}},{"type":"Feature","geometry":{"type":"Point","coordinates":[103.79452,36.062943]},"properties":{"full_address":"甘肃省兰州市七里河区西园街道西藏佳苑（除2号楼和安课慈饭店以外区域）"}},{"type":"Feature","geometry":{"type":"Point","coordinates":[103.761113,36.075247]},"properties":{"full_address":"甘肃省兰州市七里河区敦煌路街道任家庄西街兰石润安小区（除110栋--103栋、108栋楼以外区域)"}},{"type":"Feature","geometry":{"type":"Point","coordinates":[103.858435,35.965859]},"properties":{"full_address":"甘肃省兰州市七里河区八里镇侯家峪村（东至兰阿河道边、南至狼家洼、西至慈云寺、北至洞草沟）"}},{"type":"Feature","geometry":{"type":"Point","coordinates":[103.783436,36.063064]},"properties":{"full_address":"甘肃省兰州市七里河区西湖街道小西湖民族金街"}},{"type":"Feature","geometry":{"type":"Point","coordinates":[103.777637,36.064753]},"properties":{"full_address":"甘肃省兰州市七里河区西湖街道西津桥火电工程公司家属院及周边自建房片区（东至火电工程公司家属院东围墙、西至七里河桥排洪沟、北至火电工程公司家属院北围墙、南至火电工程公司家属院南围墙）"}},{"type":"Feature","geometry":{"type":"Point","coordinates":[103.801269,36.055965]},"properties":{"full_address":"甘肃省兰州市七里河区西园街道华坪一马路、二马路、三马路所在区域（东至孙家台小区、西至华林路、南至工林路、北至华坪一马路）"}},{"type":"Feature","geometry":{"type":"Point","coordinates":[103.80511,36.046738]},"properties":{"full_address":"甘肃省兰州市七里河区八里镇五里铺村（东至兰山根、西至雷坛河、南至何家庄、北至东沟沿）"}},{"type":"Feature","geometry":{"type":"Point","coordinates":[103.625469,36.112738]},"properties":{"full_address":"甘肃省兰州市西固区西固城街道合水北路231号西固交警大队家属院及周边区域（西固城街道合水北路以西、城投公司停车场以南、环卫局特种车辆停车场以东、合水北路中国体育彩票以北）"}},{"type":"Feature","geometry":{"type":"Point","coordinates":[103.6686,36.103466]},"properties":{"full_address":"甘肃省兰州市西固区陈坪街道新滩社区北滩庄闽兴建材市场及周边区域（一支路以南、北滩油库以北、北滩庄公厕巷道以东、南滨河西路以西）"}},{"type":"Feature","geometry":{"type":"Point","coordinates":[103.663971,36.09704]},"properties":{"full_address":"甘肃省兰州市西固区陈坪街道新滩社区沿沟庄及周边区域（环形东路石化公用工程一部以南、梅陇石材以北、沿沟庄铁路沿线以东、南滨河西路以西）"}},{"type":"Feature","geometry":{"type":"Point","coordinates":[103.736412,36.107111]},"properties":{"full_address":"甘肃省兰州市安宁区培黎街道西北师范大学知行学院"}},{"type":"Feature","geometry":{"type":"Point","coordinates":[103.737356,36.101849]},"properties":{"full_address":"甘肃省兰州市安宁区培黎街道甘肃东兴铝业兰州生活小区西区"}},{"type":"Feature","geometry":{"type":"Point","coordinates":[103.741737,36.103079]},"properties":{"full_address":"甘肃省兰州市安宁区十里店街道邱家湾新村"}},{"type":"Feature","geometry":{"type":"Point","coordinates":[103.876888,36.047884]},"properties":{"full_address":"甘肃省兰州市安宁区忠和镇盐池社区保利玫瑰花语小区5号楼"}},{"type":"Feature","geometry":{"type":"Point","coordinates":[103.7523,36.0825]},"properties":{"full_address":"甘肃省兰州市安宁区孔家崖街道桃海高层商住楼"}},{"type":"Feature","geometry":{"type":"Point","coordinates":[103.724999,36.101426]},"properties":{"full_address":"甘肃省兰州市安宁区孔家崖街道桃海低层商住楼"}},{"type":"Feature","geometry":{"type":"Point","coordinates":[103.727188,36.123742]},"properties":{"full_address":"甘肃省兰州市安宁区孔家崖街道大青山片区（南至万里人防，北至安宁滑雪场和保利领秀山交界，西至蚂蚁沟，东至民政厅林场东侧）"}},{"type":"Feature","geometry":{"type":"Point","coordinates":[103.74563,36.100393]},"properties":{"full_address":"甘肃省兰州市安宁区培黎街道天合溪园小区周边区域（安宁东路深沟以西、培黎小区以南、培黎广场以北、建安东路以东）"}},{"type":"Feature","geometry":{"type":"Point","coordinates":[103.695951,36.115247]},"properties":{"full_address":"甘肃省兰州市安宁区兰州供电公司周边区域（安宁区西路街道九州通西路以北，交大科技园--蓝科嘉苑北侧院墙以南，桃林路以东，枣林路以西）"}},{"type":"Feature","geometry":{"type":"Point","coordinates":[103.87655,36.04791]},"properties":{"full_address":"甘肃省兰州市安宁区忠和镇新派小区26号楼"}},{"type":"Feature","geometry":{"type":"Point","coordinates":[102.86717,36.412308]},"properties":{"full_address":"甘肃省兰州市红古区矿区街道跃进街集贸市场"}},{"type":"Feature","geometry":{"type":"Point","coordinates":[103.965759,35.98997]},"properties":{"full_address":"甘肃省兰州市榆中县和平镇新元绿洲小区9号楼"}},{"type":"Feature","geometry":{"type":"Point","coordinates":[103.966923,35.990406]},"properties":{"full_address":"甘肃省兰州市榆中县和平镇新元绿洲小区12号楼"}},{"type":"Feature","geometry":{"type":"Point","coordinates":[103.964279,35.995506]},"properties":{"full_address":"甘肃省兰州市榆中县和平镇薇乐如意园7号楼"}},{"type":"Feature","geometry":{"type":"Point","coordinates":[103.973889,36.0091]},"properties":{"full_address":"甘肃省兰州市榆中县和平镇和平村徐家营社"}},{"type":"Feature","geometry":{"type":"Point","coordinates":[103.969916,36.00869]},"properties":{"full_address":"甘肃省兰州市榆中县和平镇和平嘉园北区7号楼"}},{"type":"Feature","geometry":{"type":"Point","coordinates":[103.969916,36.00869]},"properties":{"full_address":"甘肃省兰州市榆中县和平镇和平嘉园北区8号楼"}},{"type":"Feature","geometry":{"type":"Point","coordinates":[103.952792,36.034006]},"properties":{"full_address":"甘肃省兰州市榆中县和平镇恒大山水城全域"}},{"type":"Feature","geometry":{"type":"Point","coordinates":[103.951196,36.034489]},"properties":{"full_address":"甘肃省兰州市榆中县和平镇方家泉村上泉（除二社、三社外）"}},{"type":"Feature","geometry":{"type":"Point","coordinates":[104.686039,36.571936]},"properties":{"full_address":"甘肃省白银市靖远县若笠乡富民社区11号楼"}},{"type":"Feature","geometry":{"type":"Point","coordinates":[104.414671,36.63056]},"properties":{"full_address":"甘肃省白银市靖远县刘川镇来窑村米粮社"}},{"type":"Feature","geometry":{"type":"Point","coordinates":[104.830632,37.086935]},"properties":{"full_address":"甘肃省白银市靖远县北滩镇独山村川九酒饭馆"}},{"type":"Feature","geometry":{"type":"Point","coordinates":[104.830632,37.086935]},"properties":{"full_address":"甘肃省白银市靖远县北滩镇独山村顺仁堂大药房"}},{"type":"Feature","geometry":{"type":"Point","coordinates":[104.850685,37.1219]},"properties":{"full_address":"甘肃省白银市靖远县北滩镇中滩村砂梁社"}},{"type":"Feature","geometry":{"type":"Point","coordinates":[105.084363,36.947968]},"properties":{"full_address":"甘肃省白银市靖远县五合镇火狐狸服装城"}},{"type":"Feature","geometry":{"type":"Point","coordinates":[105.110251,36.973378]},"properties":{"full_address":"甘肃省白银市靖远县五合镇马六美味餐厅"}},{"type":"Feature","geometry":{"type":"Point","coordinates":[105.084363,36.947968]},"properties":{"full_address":"甘肃省白银市靖远县五合镇三回头烤吧"}},{"type":"Feature","geometry":{"type":"Point","coordinates":[105.084363,36.947968]},"properties":{"full_address":"甘肃省白银市靖远县五合镇世纪缘商铺"}},{"type":"Feature","geometry":{"type":"Point","coordinates":[105.084363,36.947968]},"properties":{"full_address":"甘肃省白银市靖远县五合镇兴华百货"}},{"type":"Feature","geometry":{"type":"Point","coordinates":[105.111266,36.973016]},"properties":{"full_address":"甘肃省白银市靖远县五合镇永辉超市"}},{"type":"Feature","geometry":{"type":"Point","coordinates":[105.056244,35.690553]},"properties":{"full_address":"甘肃省白银市会宁县会师镇箐华港湾李宁专卖店"}},{"type":"Feature","geometry":{"type":"Point","coordinates":[104.895192,36.230586]},"properties":{"full_address":"甘肃省白银市会宁县郭城驿镇新堡子村古城社（渡槽以北、农田玉米地以南、国巉路209线以西、祖厉河以东区域）"}},{"type":"Feature","geometry":{"type":"Point","coordinates":[105.033181,35.703452]},"properties":{"full_address":"甘肃省白银市会宁县会宁定西汽车站（含西面临街铺面）"}},{"type":"Feature","geometry":{"type":"Point","coordinates":[105.030027,35.708078]},"properties":{"full_address":"甘肃省白银市会宁县会师镇钟鼓楼社区兆烽嘉园15号楼"}},{"type":"Feature","geometry":{"type":"Point","coordinates":[105.066249,35.680966]},"properties":{"full_address":"甘肃省白银市会宁县第四中学"}},{"type":"Feature","geometry":{"type":"Point","coordinates":[105.06587,35.689472]},"properties":{"full_address":"甘肃省白银市会宁县会师镇南关通宁街51号"}},{"type":"Feature","geometry":{"type":"Point","coordinates":[104.662789,36.074055]},"properties":{"full_address":"甘肃省白银市会宁县头寨子镇双坪村牛岔组"}},{"type":"Feature","geometry":{"type":"Point","coordinates":[105.052213,35.695353]},"properties":{"full_address":"甘肃省白银市会宁县会师镇北关广场对面蜜雪冰城"}},{"type":"Feature","geometry":{"type":"Point","coordinates":[105.052213,35.695353]},"properties":{"full_address":"甘肃省白银市会宁县会师镇北关广场老潼关肉夹馍"}},{"type":"Feature","geometry":{"type":"Point","coordinates":[105.02965,35.705483]},"properties":{"full_address":"甘肃省白银市会宁县会师镇兆烽超市"}},{"type":"Feature","geometry":{"type":"Point","coordinates":[105.029309,35.707909]},"properties":{"full_address":"甘肃省白银市会宁县会师镇兆烽嘉园3号商铺快递点"}},{"type":"Feature","geometry":{"type":"Point","coordinates":[105.029309,35.707909]},"properties":{"full_address":"甘肃省白银市会宁县会师镇兆烽嘉园门口陇中大药房"}},{"type":"Feature","geometry":{"type":"Point","coordinates":[105.111042,36.31252]},"properties":{"full_address":"甘肃省白银市会宁县土高山乡中庄村中庄组（除高风险区外）"}},{"type":"Feature","geometry":{"type":"Point","coordinates":[105.70991,34.567058]},"properties":{"full_address":"甘肃省天水市秦州区石马坪街道天北小区3号楼"}},{"type":"Feature","geometry":{"type":"Point","coordinates":[105.907526,34.550147]},"properties":{"full_address":"甘肃省天水市麦积区甘泉路天水菜篮子直销店"}},{"type":"Feature","geometry":{"type":"Point","coordinates":[105.909639,34.55203]},"properties":{"full_address":"甘肃省天水市麦积区桥南仿古一条街"}},{"type":"Feature","geometry":{"type":"Point","coordinates":[105.900023,34.556142]},"properties":{"full_address":"甘肃省天水市麦积区石佛北路以东、泉湖路以西、兴陇路以南、龙园西路以北的区域"}},{"type":"Feature","geometry":{"type":"Point","coordinates":[105.089684,34.9087]},"properties":{"full_address":"甘肃省天水市甘谷县礼辛镇下街村"}},{"type":"Feature","geometry":{"type":"Point","coordinates":[105.107696,34.897387]},"properties":{"full_address":"甘肃省天水市甘谷县礼辛镇尉坪村河湾自然村"}},{"type":"Feature","geometry":{"type":"Point","coordinates":[105.282212,34.883252]},"properties":{"full_address":"甘肃省天水市甘谷县安远镇北城村一组"}},{"type":"Feature","geometry":{"type":"Point","coordinates":[105.281207,34.879683]},"properties":{"full_address":"甘肃省天水市甘谷县安远镇南城村二组"}},{"type":"Feature","geometry":{"type":"Point","coordinates":[105.080777,34.914438]},"properties":{"full_address":"甘肃省天水市甘谷县礼辛镇上街村"}},{"type":"Feature","geometry":{"type":"Point","coordinates":[106.152607,34.753713]},"properties":{"full_address":"甘肃省天水市甘谷县新兴镇甘摩社区滨河豪庭小区"}},{"type":"Feature","geometry":{"type":"Point","coordinates":[106.199344,35.028083]},"properties":{"full_address":"甘肃省天水市张家川回族自治县张家川镇查湾村（不含五组）"}},{"type":"Feature","geometry":{"type":"Point","coordinates":[106.146589,34.942549]},"properties":{"full_address":"甘肃省天水市张家川回族自治县胡川镇宁马村中东组"}},{"type":"Feature","geometry":{"type":"Point","coordinates":[102.631941,37.92834]},"properties":{"full_address":"甘肃省武威市凉州区凉州市场除高风险区外其他区域"}},{"type":"Feature","geometry":{"type":"Point","coordinates":[102.623044,37.920969]},"properties":{"full_address":"甘肃省武威市凉州区凉州城区南关西路383至389号（五粮春名门之秀威龙葡萄酒玖号商行周边）"}},{"type":"Feature","geometry":{"type":"Point","coordinates":[102.63689,37.929013]},"properties":{"full_address":"甘肃省武威市凉州区凉州城区大什字东北角东大街18号至20号-1（vivo手机中国移动5G店）"}},{"type":"Feature","geometry":{"type":"Point","coordinates":[102.649386,37.912638]},"properties":{"full_address":"甘肃省武威市凉州区凉州城区古浪街江泰格兰云尚酒店及一楼商铺"}},{"type":"Feature","geometry":{"type":"Point","coordinates":[102.630724,37.930827]},"properties":{"full_address":"甘肃省武威市凉州区凉州城区古浪街353号至373号（塞外烤肉城聚银新都店周边）"}},{"type":"Feature","geometry":{"type":"Point","coordinates":[102.846599,37.672978]},"properties":{"full_address":"甘肃省武威市凉州区凉州区黄羊镇黄羊路79号至101号（宁夏清真马师傅炒面片周边）"}},{"type":"Feature","geometry":{"type":"Point","coordinates":[102.682529,37.888245]},"properties":{"full_address":"甘肃省武威市凉州区凉州区G312沿线高坝镇牛家花园西街85号至157号（汇通汽配店周边）"}},{"type":"Feature","geometry":{"type":"Point","coordinates":[102.594812,37.954151]},"properties":{"full_address":"甘肃省武威市凉州区凉州区金沙物流园B区除高风险区以外其他区域"}},{"type":"Feature","geometry":{"type":"Point","coordinates":[103.075236,37.611294]},"properties":{"full_address":"甘肃省武威市古浪县土门镇台子村"}},{"type":"Feature","geometry":{"type":"Point","coordinates":[104.632073,35.570468]},"properties":{"full_address":"甘肃省定西市安定区永定路街道恒正华府B区16号楼、17号楼"}},{"type":"Feature","geometry":{"type":"Point","coordinates":[103.8486,35.376595]},"properties":{"full_address":"甘肃省定西市临洮县洮阳镇李范家新村社区"}},{"type":"Feature","geometry":{"type":"Point","coordinates":[103.753223,35.792029]},"properties":{"full_address":"甘肃省定西市临洮县中铺镇上铺村"}},{"type":"Feature","geometry":{"type":"Point","coordinates":[104.424605,33.189151]},"properties":{"full_address":"甘肃省陇南市文县中寨镇中寨一村除高风险区外的其他区域及中寨二村和三村"}},{"type":"Feature","geometry":{"type":"Point","coordinates":[104.459355,33.247192]},"properties":{"full_address":"甘肃省陇南市文县中寨镇大海村大桥子至寺院桥以东，四河坝路以西，寺院桥至陶术德住宅以南，大桥子路以北区域"}},{"type":"Feature","geometry":{"type":"Point","coordinates":[104.775786,32.857168]},"properties":{"full_address":"甘肃省陇南市文县丹堡镇杨杜沟村部分区域（起至丹凤桥以北，西至西山庙，东至村沟，南至张巧香门前街道）"}},{"type":"Feature","geometry":{"type":"Point","coordinates":[103.222565,35.608974]},"properties":{"full_address":"甘肃省临夏回族自治州临夏市中天健2号、3号楼南侧边际至刘临路，中天健商业5号楼（盛颐酒店所在楼栋）至城东一路区域"}},{"type":"Feature","geometry":{"type":"Point","coordinates":[103.212912,35.595035]},"properties":{"full_address":"甘肃省临夏回族自治州临夏市中心广场“蜜雪冰城”春光店、春光店二楼"}},{"type":"Feature","geometry":{"type":"Point","coordinates":[103.212912,35.595035]},"properties":{"full_address":"甘肃省临夏回族自治州临夏市中心广场“吉庆楼”"}},{"type":"Feature","geometry":{"type":"Point","coordinates":[103.213899,35.587971]},"properties":{"full_address":"甘肃省临夏回族自治州临夏市公路段下家属院6号楼、8号楼、11号楼"}},{"type":"Feature","geometry":{"type":"Point","coordinates":[103.211892,35.584624]},"properties":{"full_address":"甘肃省临夏回族自治州临夏市圣泽苑A区4号、5号、11号楼及圣泽苑A区周边商铺"}},{"type":"Feature","geometry":{"type":"Point","coordinates":[103.21201,35.610987]},"properties":{"full_address":"甘肃省临夏回族自治州临夏市天华苑小区其余12栋及城北街道天华社区、天华苑物业中心、小区内商铺"}},{"type":"Feature","geometry":{"type":"Point","coordinates":[103.168903,35.727308]},"properties":{"full_address":"甘肃省临夏回族自治州临夏县南塬乡张河西村水漫滩社"}},{"type":"Feature","geometry":{"type":"Point","coordinates":[103.211773,35.656171]},"properties":{"full_address":"甘肃省临夏回族自治州临夏县先锋乡前韩村寨五二社"}},{"type":"Feature","geometry":{"type":"Point","coordinates":[103.211191,35.62391]},"properties":{"full_address":"甘肃省临夏回族自治州临夏县达板镇崔家村"}},{"type":"Feature","geometry":{"type":"Point","coordinates":[103.637401,35.704722]},"properties":{"full_address":"甘肃省临夏回族自治州临夏县达板镇凤凰山社区"}},{"type":"Feature","geometry":{"type":"Point","coordinates":[103.458543,35.845153]},"properties":{"full_address":"甘肃省临夏回族自治州临夏县董岭乡董家岭村董岭街道"}},{"type":"Feature","geometry":{"type":"Point","coordinates":[103.415357,35.756085]},"properties":{"full_address":"甘肃省临夏回族自治州临夏县龙泉镇老庄村龙泉街道"}},{"type":"Feature","geometry":{"type":"Point","coordinates":[103.504656,35.308381]},"properties":{"full_address":"甘肃省临夏回族自治州康乐县白王乡新庄村范家崖（1社、11社）"}},{"type":"Feature","geometry":{"type":"Point","coordinates":[103.574144,35.490904]},"properties":{"full_address":"甘肃省临夏回族自治州广河县城关镇马家村"}},{"type":"Feature","geometry":{"type":"Point","coordinates":[103.605731,35.49915]},"properties":{"full_address":"甘肃省临夏回族自治州广河县城关镇李家河村"}},{"type":"Feature","geometry":{"type":"Point","coordinates":[103.600935,35.489652]},"properties":{"full_address":"甘肃省临夏回族自治州广河县城关镇潘家村"}},{"type":"Feature","geometry":{"type":"Point","coordinates":[103.566812,35.455545]},"properties":{"full_address":"甘肃省临夏回族自治州广河县城关镇李家坪村"}},{"type":"Feature","geometry":{"type":"Point","coordinates":[103.580057,35.47732]},"properties":{"full_address":"甘肃省临夏回族自治州广河县城关镇双泉村"}},{"type":"Feature","geometry":{"type":"Point","coordinates":[103.602058,35.487158]},"properties":{"full_address":"甘肃省临夏回族自治州广河县城关镇马力庄村"}},{"type":"Feature","geometry":{"type":"Point","coordinates":[103.612706,35.460411]},"properties":{"full_address":"甘肃省临夏回族自治州广河县城关镇牟家窑村"}},{"type":"Feature","geometry":{"type":"Point","coordinates":[103.597153,35.444612]},"properties":{"full_address":"甘肃省临夏回族自治州广河县城关镇十里墩村"}},{"type":"Feature","geometry":{"type":"Point","coordinates":[103.625895,35.491161]},"properties":{"full_address":"甘肃省临夏回族自治州广河县祁家集镇寺后子村"}},{"type":"Feature","geometry":{"type":"Point","coordinates":[103.662996,35.498868]},"properties":{"full_address":"甘肃省临夏回族自治州广河县祁家集镇孙家村"}},{"type":"Feature","geometry":{"type":"Point","coordinates":[103.67011,35.514749]},"properties":{"full_address":"甘肃省临夏回族自治州广河县祁家集镇朱家坪村"}},{"type":"Feature","geometry":{"type":"Point","coordinates":[103.658065,35.508741]},"properties":{"full_address":"甘肃省临夏回族自治州广河县祁家集镇谢家村"}},{"type":"Feature","geometry":{"type":"Point","coordinates":[103.63716,35.504964]},"properties":{"full_address":"甘肃省临夏回族自治州广河县祁家集镇蔡王家村"}},{"type":"Feature","geometry":{"type":"Point","coordinates":[103.622373,35.518025]},"properties":{"full_address":"甘肃省临夏回族自治州广河县祁家集镇何家湾村"}},{"type":"Feature","geometry":{"type":"Point","coordinates":[103.680684,35.541514]},"properties":{"full_address":"甘肃省临夏回族自治州广河县祁家集镇果园山村"}},{"type":"Feature","geometry":{"type":"Point","coordinates":[103.660072,35.472011]},"properties":{"full_address":"甘肃省临夏回族自治州广河县祁家集镇黄家沟村"}},{"type":"Feature","geometry":{"type":"Point","coordinates":[103.680526,35.483113]},"properties":{"full_address":"甘肃省临夏回族自治州广河县祁家集镇陈家湾村"}},{"type":"Feature","geometry":{"type":"Point","coordinates":[103.83478,35.490891]},"properties":{"full_address":"甘肃省临夏回族自治州广河县齐家镇园子坪村"}},{"type":"Feature","geometry":{"type":"Point","coordinates":[103.799409,35.49759]},"properties":{"full_address":"甘肃省临夏回族自治州广河县齐家镇王家沟村"}},{"type":"Feature","geometry":{"type":"Point","coordinates":[103.529907,35.488241]},"properties":{"full_address":"甘肃省临夏回族自治州广河县阿力麻土乡贾家村"}},{"type":"Feature","geometry":{"type":"Point","coordinates":[103.709078,35.465171]},"properties":{"full_address":"甘肃省临夏回族自治州广河县水泉乡园子村"}},{"type":"Feature","geometry":{"type":"Point","coordinates":[103.392519,35.664903]},"properties":{"full_address":"甘肃省临夏回族自治州东乡族自治县锁南镇信用社"}},{"type":"Feature","geometry":{"type":"Point","coordinates":[103.374397,35.680902]},"properties":{"full_address":"甘肃省临夏回族自治州东乡族自治县锁南镇信用社旁边移动公司营业厅"}},{"type":"Feature","geometry":{"type":"Point","coordinates":[103.392645,35.66339]},"properties":{"full_address":"甘肃省临夏回族自治州东乡族自治县锁南镇南园市场"}},{"type":"Feature","geometry":{"type":"Point","coordinates":[103.392122,35.664314]},"properties":{"full_address":"甘肃省临夏回族自治州东乡族自治县锁南镇马有布牛肉面馆"}},{"type":"Feature","geometry":{"type":"Point","coordinates":[103.374397,35.680902]},"properties":{"full_address":"甘肃省临夏回族自治州东乡族自治县锁南镇体育场对面祁师手抓馆"}},{"type":"Feature","geometry":{"type":"Point","coordinates":[103.39364,35.661276]},"properties":{"full_address":"甘肃省临夏回族自治州东乡族自治县锁南镇南大街"}},{"type":"Feature","geometry":{"type":"Point","coordinates":[103.374397,35.680902]},"properties":{"full_address":"甘肃省临夏回族自治州东乡族自治县锁南镇美食一条街"}},{"type":"Feature","geometry":{"type":"Point","coordinates":[103.374397,35.680902]},"properties":{"full_address":"甘肃省临夏回族自治州东乡族自治县锁南镇煤炭公司"}},{"type":"Feature","geometry":{"type":"Point","coordinates":[103.374397,35.680902]},"properties":{"full_address":"甘肃省临夏回族自治州东乡族自治县锁南镇牛羊肉市场"}},{"type":"Feature","geometry":{"type":"Point","coordinates":[103.374397,35.680902]},"properties":{"full_address":"甘肃省临夏回族自治州东乡族自治县锁南镇亚舟国际饭店"}},{"type":"Feature","geometry":{"type":"Point","coordinates":[103.652876,35.70204]},"properties":{"full_address":"甘肃省临夏回族自治州东乡族自治县达板镇拱北滩村"}},{"type":"Feature","geometry":{"type":"Point","coordinates":[103.271473,35.641089]},"properties":{"full_address":"甘肃省临夏回族自治州东乡族自治县东塬乡东塬加气站"}},{"type":"Feature","geometry":{"type":"Point","coordinates":[103.33261,35.680739]},"properties":{"full_address":"甘肃省临夏回族自治州东乡族自治县春台乡和岘村"}},{"type":"Feature","geometry":{"type":"Point","coordinates":[103.327804,35.719372]},"properties":{"full_address":"甘肃省临夏回族自治州东乡族自治县龙甫村"}},{"type":"Feature","geometry":{"type":"Point","coordinates":[103.437656,35.698134]},"properties":{"full_address":"甘肃省临夏回族自治州东乡族自治县北岭乡温都山"}},{"type":"Feature","geometry":{"type":"Point","coordinates":[103.415357,35.756085]},"properties":{"full_address":"甘肃省临夏回族自治州东乡族自治县龙泉镇老庄村"}},{"type":"Feature","geometry":{"type":"Point","coordinates":[103.395237,35.662182]},"properties":{"full_address":"甘肃省临夏回族自治州东乡族自治县锁南镇民族中学对面蔬菜铺"}},{"type":"Feature","geometry":{"type":"Point","coordinates":[103.290831,35.602905]},"properties":{"full_address":"甘肃省临夏回族自治州东乡族自治县锁南镇盘旋路卡派洗车店"}},{"type":"Feature","geometry":{"type":"Point","coordinates":[103.633637,35.729723]},"properties":{"full_address":"甘肃省临夏回族自治州东乡族自治县达板镇东乡六中"}},{"type":"Feature","geometry":{"type":"Point","coordinates":[102.072698,33.997712]},"properties":{"full_address":"甘肃省甘南藏族自治州玛曲县城东门桥头牧民定居点"}},{"type":"Feature","geometry":{"type":"Point","coordinates":[102.079146,33.997179]},"properties":{"full_address":"甘肃省甘南藏族自治州玛曲县城区格萨尔东街首曲宾馆楼下苹果手机专卖店"}},{"type":"Feature","geometry":{"type":"Point","coordinates":[102.074485,33.997503]},"properties":{"full_address":"甘肃省甘南藏族自治州玛曲县尼玛镇忠干路与格萨尔西街十字路至格萨尔西街与曲隆路路口"}},{"type":"Feature","geometry":{"type":"Point","coordinates":[102.076672,34.002035]},"properties":{"full_address":"甘肃省甘南藏族自治州玛曲县尼玛镇卓格社区古拉路东至赛迪路段"}},{"type":"Feature","geometry":{"type":"Point","coordinates":[102.076973,34.002878]},"properties":{"full_address":"甘肃省甘南藏族自治州玛曲县尼玛镇卓格社区古拉路西至忠干路段"}},{"type":"Feature","geometry":{"type":"Point","coordinates":[101.723868,34.076122]},"properties":{"full_address":"甘肃省甘南藏族自治州玛曲县欧拉镇镇区主街道拉章面馆"}},{"type":"Feature","geometry":{"type":"Point","coordinates":[102.077017,33.997501]},"properties":{"full_address":"甘肃省甘南藏族自治州玛曲县忠干路与格萨尔西街十字路口路段"}},{"type":"Feature","geometry":{"type":"Point","coordinates":[101.12232,34.241969]},"properties":{"full_address":"甘肃省甘南藏族自治州玛曲县欧拉秀玛乡伊兰饭店"}},{"type":"Feature","geometry":{"type":"Point","coordinates":[102.077183,34.001826]},"properties":{"full_address":"甘肃省甘南藏族自治州玛曲县尼玛镇卓格岭地酒店"}},{"type":"Feature","geometry":{"type":"Point","coordinates":[102.070801,33.997254]},"properties":{"full_address":"甘肃省甘南藏族自治州玛曲县格萨尔西街老马超市"}},{"type":"Feature","geometry":{"type":"Point","coordinates":[102.063521,33.997279]},"properties":{"full_address":"甘肃省甘南藏族自治州玛曲县尼玛镇尼玛镇西起萨日路、西曲路与格萨尔西街十字路口、东至格萨尔西街与公安局桥头段"}},{"type":"Feature","geometry":{"type":"Point","coordinates":[102.073694,34.001361]},"properties":{"full_address":"甘肃省甘南藏族自治州玛曲县尼玛镇南起嘉曲路与忠干路十字路口、北至古拉路与忠干路十字路口段"}},{"type":"Feature","geometry":{"type":"Point","coordinates":[102.077017,33.997501]},"properties":{"full_address":"甘肃省甘南藏族自治州玛曲县尼玛镇格萨尔西街与忠干路十字路口西段"}},{"type":"Feature","geometry":{"type":"Point","coordinates":[102.076672,34.002035]},"properties":{"full_address":"甘肃省甘南藏族自治州玛曲县尼玛镇南起赛迪路与格萨尔东街十字路口、北至古拉路与赛迪路丁字路口段"}},{"type":"Feature","geometry":{"type":"Point","coordinates":[102.072698,33.997712]},"properties":{"full_address":"甘肃省甘南藏族自治州玛曲县品三国餐馆"}},{"type":"Feature","geometry":{"type":"Point","coordinates":[102.072698,33.997712]},"properties":{"full_address":"甘肃省甘南藏族自治州玛曲县达吉商务宾馆"}},{"type":"Feature","geometry":{"type":"Point","coordinates":[102.07775,33.998217]},"properties":{"full_address":"甘肃省甘南藏族自治州玛曲县城北菜市场"}},{"type":"Feature","geometry":{"type":"Point","coordinates":[102.520283,35.196491]},"properties":{"full_address":"甘肃省甘南藏族自治州夏河县拉卜楞镇天珠国际酒店2号楼"}},{"type":"Feature","geometry":{"type":"Point","coordinates":[102.521807,35.202503]},"properties":{"full_address":"甘肃省甘南藏族自治州夏河县市场监管局家属楼小区"}},{"type":"Feature","geometry":{"type":"Point","coordinates":[102.520265,35.196514]},"properties":{"full_address":"甘肃省甘南藏族自治州夏河县拉卜楞镇家属楼小区"}},{"type":"Feature","geometry":{"type":"Point","coordinates":[102.521807,35.202503]},"properties":{"full_address":"甘肃省甘南藏族自治州夏河县教科局"}},{"type":"Feature","geometry":{"type":"Point","coordinates":[102.509825,35.194756]},"properties":{"full_address":"甘肃省甘南藏族自治州夏河县拉卜楞镇上人民街社区卫生服务中心"}},{"type":"Feature","geometry":{"type":"Point","coordinates":[102.521093,35.197445]},"properties":{"full_address":"甘肃省甘南藏族自治州夏河县藏医医院对面商铺区"}},{"type":"Feature","geometry":{"type":"Point","coordinates":[102.520557,35.196963]},"properties":{"full_address":"甘肃省甘南藏族自治州夏河县拉卜楞镇河南村社区柔扎村"}},{"type":"Feature","geometry":{"type":"Point","coordinates":[102.521807,35.202503]},"properties":{"full_address":"甘肃省甘南藏族自治州夏河县县城廉租四区"}},{"type":"Feature","geometry":{"type":"Point","coordinates":[102.647039,34.847275]},"properties":{"full_address":"甘肃省甘南藏族自治州夏河县阿木去乎镇安果行政村安果昂自然村"}},{"type":"Feature","geometry":{"type":"Point","coordinates":[102.647039,34.847275]},"properties":{"full_address":"甘肃省甘南藏族自治州夏河县阿木去乎镇安果行政村安果自然村"}},{"type":"Feature","geometry":{"type":"Point","coordinates":[102.606653,34.848036]},"properties":{"full_address":"甘肃省甘南藏族自治州夏河县阿木去乎镇安果行政村周哇自然村与吉利自然村联片"}},{"type":"Feature","geometry":{"type":"Point","coordinates":[102.502407,34.848499]},"properties":{"full_address":"甘肃省甘南藏族自治州夏河县牙利吉阿纳行政村第4、5自然村联片"}},{"type":"Feature","geometry":{"type":"Point","coordinates":[102.68766,34.8116]},"properties":{"full_address":"甘肃省甘南藏族自治州夏河县阿木去乎镇主街道"}},{"type":"Feature","geometry":{"type":"Point","coordinates":[102.502407,34.848499]},"properties":{"full_address":"甘肃省甘南藏族自治州夏河县阿木去乎镇牙利吉阿纳行政村第1自然村"}},{"type":"Feature","geometry":{"type":"Point","coordinates":[102.502407,34.848499]},"properties":{"full_address":"甘肃省甘南藏族自治州夏河县阿木去乎镇牙利吉阿纳行政村第6自然村"}},{"type":"Feature","geometry":{"type":"Point","coordinates":[87.614107,43.771366]},"properties":{"full_address":"新疆维吾尔自治区乌鲁木齐市新市区飞机场街道天翼物流公司（迎宾路46号）"}}]}