{"type":"FeatureCollection","features":[{"type":"Feature","geometry":{"type":"Point","coordinates":[116.464610724,39.895466465]},"properties":{"province":"北京市","city":"朝阳区","county":"双井街道","community":"百子湾南二路76号院6号楼","full_address":"北京市朝阳区双井街道百子湾南二路76号院6号楼","info":""}},{"type":"Feature","geometry":{"type":"Point","coordinates":[116.610638,39.922061]},"properties":{"province":"北京市","city":"朝阳区","county":"管庄（地区）乡","community":"常营南路45号院2号楼2单元","full_address":"北京市朝阳区管庄（地区）乡常营南路45号院2号楼2单元","info":""}},{"type":"Feature","geometry":{"type":"Point","coordinates":[116.588631,39.915712]},"properties":{"province":"北京市","city":"朝阳区","county":"管庄（地区）乡","community":"管庄西里16号楼","full_address":"北京市朝阳区管庄（地区）乡管庄西里16号楼","info":""}},{"type":"Feature","geometry":{"type":"Point","coordinates":[116.583911775,39.914589391]},"properties":{"province":"北京市","city":"朝阳区","county":"管庄（地区）乡","community":"管庄西里22号楼","full_address":"北京市朝阳区管庄（地区）乡管庄西里22号楼","info":""}},{"type":"Feature","geometry":{"type":"Point","coordinates":[116.420959,39.982929]},"properties":{"province":"北京市","city":"朝阳区","county":"小关街道","community":"惠新西里2区1号楼","full_address":"北京市朝阳区小关街道惠新西里2区1号楼","info":""}},{"type":"Feature","geometry":{"type":"Point","coordinates":[116.407304407,39.982551818]},"properties":{"province":"北京市","city":"朝阳区","county":"小关街道","community":"安苑东里一区8号楼","full_address":"北京市朝阳区小关街道安苑东里一区8号楼","info":""}},{"type":"Feature","geometry":{"type":"Point","coordinates":[116.41415,39.96249]},"properties":{"province":"北京市","city":"朝阳区","county":"和平街街道","community":"兴化路甲2号院10号楼","full_address":"北京市朝阳区和平街街道兴化路甲2号院10号楼","info":""}},{"type":"Feature","geometry":{"type":"Point","coordinates":[116.486719,39.981466]},"properties":{"province":"北京市","city":"朝阳区","county":"酒仙桥街道","community":"大山子南里15号楼","full_address":"北京市朝阳区酒仙桥街道大山子南里15号楼","info":""}},{"type":"Feature","geometry":{"type":"Point","coordinates":[116.49952,39.99234]},"properties":{"province":"北京市","city":"朝阳区","county":"酒仙桥街道","community":"银枫家园3号楼","full_address":"北京市朝阳区酒仙桥街道银枫家园3号楼","info":""}},{"type":"Feature","geometry":{"type":"Point","coordinates":[116.507477,39.91861]},"properties":{"province":"北京市","city":"朝阳区","county":"八里庄街道","community":"十里堡东里113号楼","full_address":"北京市朝阳区八里庄街道十里堡东里113号楼","info":""}},{"type":"Feature","geometry":{"type":"Point","coordinates":[116.39574,39.9724]},"properties":{"province":"北京市","city":"朝阳区","county":"安贞街道","community":"安贞西里二区23号楼","full_address":"北京市朝阳区安贞街道安贞西里二区23号楼","info":""}},{"type":"Feature","geometry":{"type":"Point","coordinates":[116.39997,39.96251]},"properties":{"province":"北京市","city":"朝阳区","county":"安贞街道","community":"外馆斜街6号院1号楼","full_address":"北京市朝阳区安贞街道外馆斜街6号院1号楼","info":""}},{"type":"Feature","geometry":{"type":"Point","coordinates":[116.40238,39.97513]},"properties":{"province":"北京市","city":"朝阳区","county":"安贞街道","community":"安贞里1区29号楼","full_address":"北京市朝阳区安贞街道安贞里1区29号楼","info":""}},{"type":"Feature","geometry":{"type":"Point","coordinates":[116.40387,39.9636]},"properties":{"province":"北京市","city":"朝阳区","county":"安贞街道","community":"安华里五区8号楼","full_address":"北京市朝阳区安贞街道安华里五区8号楼","info":""}},{"type":"Feature","geometry":{"type":"Point","coordinates":[116.39776,39.96711]},"properties":{"province":"北京市","city":"朝阳区","county":"安贞街道","community":"安华西里一区20号楼、22号楼、25号楼","full_address":"北京市朝阳区安贞街道安华西里一区20号楼、22号楼、25号楼","info":""}},{"type":"Feature","geometry":{"type":"Point","coordinates":[116.40284,39.96718]},"properties":{"province":"北京市","city":"朝阳区","county":"安贞街道","community":"安华里二区2号楼","full_address":"北京市朝阳区安贞街道安华里二区2号楼","info":""}},{"type":"Feature","geometry":{"type":"Point","coordinates":[116.3986,39.96701]},"properties":{"province":"北京市","city":"朝阳区","county":"安贞街道","community":"安华西里一区18号楼","full_address":"北京市朝阳区安贞街道安华西里一区18号楼","info":""}},{"type":"Feature","geometry":{"type":"Point","coordinates":[116.40272,39.96506]},"properties":{"province":"北京市","city":"朝阳区","county":"安贞街道","community":"安华里五区1号楼","full_address":"北京市朝阳区安贞街道安华里五区1号楼","info":""}},{"type":"Feature","geometry":{"type":"Point","coordinates":[116.397682,39.966591]},"properties":{"province":"北京市","city":"朝阳区","county":"安贞街道","community":"外馆社区（黄寺大街）甲3号院3号楼","full_address":"北京市朝阳区安贞街道外馆社区（黄寺大街）甲3号院3号楼","info":""}},{"type":"Feature","geometry":{"type":"Point","coordinates":[116.397682,39.966591]},"properties":{"province":"北京市","city":"朝阳区","county":"安贞街道","community":"外馆社区（黄寺大街）甲3号院5号楼","full_address":"北京市朝阳区安贞街道外馆社区（黄寺大街）甲3号院5号楼","info":""}},{"type":"Feature","geometry":{"type":"Point","coordinates":[116.39766,39.9635]},"properties":{"province":"北京市","city":"朝阳区","county":"安贞街道","community":"外馆斜街1号楼（外管西街1号楼）","full_address":"北京市朝阳区安贞街道外馆斜街1号楼（外管西街1号楼）","info":""}},{"type":"Feature","geometry":{"type":"Point","coordinates":[116.40403,39.962288]},"properties":{"province":"北京市","city":"朝阳区","county":"安贞街道","community":"外馆斜街51号凯景铭座1号楼及底商","full_address":"北京市朝阳区安贞街道外馆斜街51号凯景铭座1号楼及底商","info":""}},{"type":"Feature","geometry":{"type":"Point","coordinates":[116.3982,39.96338]},"properties":{"province":"北京市","city":"朝阳区","county":"安贞街道","community":"安华西里二区10号楼、外馆西街2号楼","full_address":"北京市朝阳区安贞街道安华西里二区10号楼、外馆西街2号楼","info":""}},{"type":"Feature","geometry":{"type":"Point","coordinates":[116.3972,39.96557]},"properties":{"province":"北京市","city":"朝阳区","county":"安贞街道","community":"安华西里二区5号楼、6号楼、15号楼、17号楼、7号楼、1号楼","full_address":"北京市朝阳区安贞街道安华西里二区5号楼、6号楼、15号楼、17号楼、7号楼、1号楼","info":""}},{"type":"Feature","geometry":{"type":"Point","coordinates":[116.39354,39.96612]},"properties":{"province":"北京市","city":"朝阳区","county":"安贞街道","community":"黄寺后身36号院2号楼","full_address":"北京市朝阳区安贞街道黄寺后身36号院2号楼","info":""}},{"type":"Feature","geometry":{"type":"Point","coordinates":[116.457033,40.00126]},"properties":{"province":"北京市","city":"朝阳区","county":"望京街道","community":"世安家园104号楼","full_address":"北京市朝阳区望京街道世安家园104号楼","info":""}},{"type":"Feature","geometry":{"type":"Point","coordinates":[116.45643,39.99829]},"properties":{"province":"北京市","city":"朝阳区","county":"望京街道","community":"银领国际小区128号楼","full_address":"北京市朝阳区望京街道银领国际小区128号楼","info":""}},{"type":"Feature","geometry":{"type":"Point","coordinates":[116.480019,39.999523]},"properties":{"province":"北京市","city":"朝阳区","county":"望京街道","community":"宝星国际109号楼","full_address":"北京市朝阳区望京街道宝星国际109号楼","info":""}},{"type":"Feature","geometry":{"type":"Point","coordinates":[116.474106,39.987411]},"properties":{"province":"北京市","city":"朝阳区","county":"望京街道","community":"精英家园","full_address":"北京市朝阳区望京街道精英家园","info":""}},{"type":"Feature","geometry":{"type":"Point","coordinates":[116.44411,39.96348]},"properties":{"province":"北京市","city":"朝阳区","county":"香河园街道","community":"国际展览中心商务楼（北三环东路6号）","full_address":"北京市朝阳区香河园街道国际展览中心商务楼（北三环东路6号）","info":""}},{"type":"Feature","geometry":{"type":"Point","coordinates":[116.470047,39.873745]},"properties":{"province":"北京市","city":"朝阳区","county":"潘家园街道","community":"松榆里5号楼","full_address":"北京市朝阳区潘家园街道松榆里5号楼","info":""}},{"type":"Feature","geometry":{"type":"Point","coordinates":[116.41359,39.99259]},"properties":{"province":"北京市","city":"朝阳区","county":"亚运村街道","community":"安慧里一区21号楼","full_address":"北京市朝阳区亚运村街道安慧里一区21号楼","info":""}},{"type":"Feature","geometry":{"type":"Point","coordinates":[116.41075,39.99188]},"properties":{"province":"北京市","city":"朝阳区","county":"亚运村街道","community":"安慧里三区3号楼","full_address":"北京市朝阳区亚运村街道安慧里三区3号楼","info":""}},{"type":"Feature","geometry":{"type":"Point","coordinates":[116.409081,39.984646]},"properties":{"province":"北京市","city":"朝阳区","county":"亚运村街道","community":"安苑北里14、15、16、17、18、11号楼、19号楼、9号楼","full_address":"北京市朝阳区亚运村街道安苑北里14、15、16、17、18、11号楼、19号楼、9号楼","info":""}},{"type":"Feature","geometry":{"type":"Point","coordinates":[116.48297,39.9241]},"properties":{"province":"北京市","city":"朝阳区","county":"六里屯街道","community":"甜水园东里23号楼、甲23号楼","full_address":"北京市朝阳区六里屯街道甜水园东里23号楼、甲23号楼","info":""}},{"type":"Feature","geometry":{"type":"Point","coordinates":[116.540924,39.922401]},"properties":{"province":"北京市","city":"朝阳区","county":"高碑店（地区）乡","community":"大黄庄9号","full_address":"北京市朝阳区高碑店（地区）乡大黄庄9号","info":""}},{"type":"Feature","geometry":{"type":"Point","coordinates":[116.529854,39.87281]},"properties":{"province":"北京市","city":"朝阳区","county":"王四营（地区）乡","community":"燕保百湾家园10号楼","full_address":"北京市朝阳区王四营（地区）乡燕保百湾家园10号楼","info":""}},{"type":"Feature","geometry":{"type":"Point","coordinates":[116.46933,39.87072]},"properties":{"province":"北京市","city":"朝阳区","county":"南磨房（地区）乡","community":"美景东方1号楼","full_address":"北京市朝阳区南磨房（地区）乡美景东方1号楼","info":""}},{"type":"Feature","geometry":{"type":"Point","coordinates":[116.453278,39.826553]},"properties":{"province":"北京市","city":"朝阳区","county":"小红门（地区）乡","community":"鸿博家园F区6号楼","full_address":"北京市朝阳区小红门（地区）乡鸿博家园F区6号楼","info":""}},{"type":"Feature","geometry":{"type":"Point","coordinates":[116.464211,39.822563]},"properties":{"province":"北京市","city":"朝阳区","county":"小红门（地区）乡","community":"三台山村临甲1号及周边平房","full_address":"北京市朝阳区小红门（地区）乡三台山村临甲1号及周边平房","info":""}},{"type":"Feature","geometry":{"type":"Point","coordinates":[116.458969,39.833313]},"properties":{"province":"北京市","city":"朝阳区","county":"小红门（地区）乡","community":"李宝龙大院以西、鸿博北街以北、白糖萌宠北墙以东、铁路沿线以南的合围区域","full_address":"北京市朝阳区小红门（地区）乡李宝龙大院以西、鸿博北街以北、白糖萌宠北墙以东、铁路沿线以南的合围区域","info":""}},{"type":"Feature","geometry":{"type":"Point","coordinates":[116.47644,39.839001]},"properties":{"province":"北京市","city":"朝阳区","county":"十八里店（地区）乡","community":"后祁庄68号院及周边67号院、69号院、70号院、71号院","full_address":"北京市朝阳区十八里店（地区）乡后祁庄68号院及周边67号院、69号院、70号院、71号院","info":""}},{"type":"Feature","geometry":{"type":"Point","coordinates":[116.50912,39.84636]},"properties":{"province":"北京市","city":"朝阳区","county":"十八里店（地区）乡","community":"绿洲家园31号楼","full_address":"北京市朝阳区十八里店（地区）乡绿洲家园31号楼","info":""}},{"type":"Feature","geometry":{"type":"Point","coordinates":[116.474907,39.837437]},"properties":{"province":"北京市","city":"朝阳区","county":"十八里店（地区）乡","community":"前祁庄163号院、171号院","full_address":"北京市朝阳区十八里店（地区）乡前祁庄163号院、171号院","info":""}},{"type":"Feature","geometry":{"type":"Point","coordinates":[116.564476,39.939281]},"properties":{"province":"北京市","city":"朝阳区","county":"平房（地区）乡","community":"石各庄村303号、341号、572号院、214号、223号、347号、355号、357号、373号、386号","full_address":"北京市朝阳区平房（地区）乡石各庄村303号、341号、572号院、214号、223号、347号、355号、357号、373号、386号","info":""}},{"type":"Feature","geometry":{"type":"Point","coordinates":[116.53663,39.96587]},"properties":{"province":"北京市","city":"朝阳区","county":"东坝（地区）乡","community":"东坝中街11号院42号楼","full_address":"北京市朝阳区东坝（地区）乡东坝中街11号院42号楼","info":""}},{"type":"Feature","geometry":{"type":"Point","coordinates":[116.55837,39.96035]},"properties":{"province":"北京市","city":"朝阳区","county":"东坝（地区）乡","community":"东泽园1号院1号楼","full_address":"北京市朝阳区东坝（地区）乡东泽园1号院1号楼","info":""}},{"type":"Feature","geometry":{"type":"Point","coordinates":[116.55701,39.96039]},"properties":{"province":"北京市","city":"朝阳区","county":"东坝（地区）乡","community":"东泽园1号院2号楼2单元","full_address":"北京市朝阳区东坝（地区）乡东泽园1号院2号楼2单元","info":""}},{"type":"Feature","geometry":{"type":"Point","coordinates":[116.55833,39.95893]},"properties":{"province":"北京市","city":"朝阳区","county":"东坝（地区）乡","community":"东泽园1号院7号楼","full_address":"北京市朝阳区东坝（地区）乡东泽园1号院7号楼","info":""}},{"type":"Feature","geometry":{"type":"Point","coordinates":[116.559616,39.959766]},"properties":{"province":"北京市","city":"朝阳区","county":"东坝（地区）乡","community":"东泽园2号院","full_address":"北京市朝阳区东坝（地区）乡东泽园2号院","info":""}},{"type":"Feature","geometry":{"type":"Point","coordinates":[116.54644,39.957409]},"properties":{"province":"北京市","city":"朝阳区","county":"东坝（地区）乡","community":"高杨树北里平房1-5排","full_address":"北京市朝阳区东坝（地区）乡高杨树北里平房1-5排","info":""}},{"type":"Feature","geometry":{"type":"Point","coordinates":[116.56884,39.963017]},"properties":{"province":"北京市","city":"朝阳区","county":"东坝（地区）乡","community":"华瀚福园A区6号楼","full_address":"北京市朝阳区东坝（地区）乡华瀚福园A区6号楼","info":""}},{"type":"Feature","geometry":{"type":"Point","coordinates":[116.573402,39.958839]},"properties":{"province":"北京市","city":"朝阳区","county":"东坝（地区）乡","community":"华瀚福园D区421、424、432号","full_address":"北京市朝阳区东坝（地区）乡华瀚福园D区421、424、432号","info":""}},{"type":"Feature","geometry":{"type":"Point","coordinates":[116.54644,39.957409]},"properties":{"province":"北京市","city":"朝阳区","county":"东坝（地区）乡","community":"郊野公园北门西侧甲6号","full_address":"北京市朝阳区东坝（地区）乡郊野公园北门西侧甲6号","info":""}},{"type":"Feature","geometry":{"type":"Point","coordinates":[116.56829,39.95934]},"properties":{"province":"北京市","city":"朝阳区","county":"东坝（地区）乡","community":"金驹家园F区209号楼1单元、F区205号楼、207号楼","full_address":"北京市朝阳区东坝（地区）乡金驹家园F区209号楼1单元、F区205号楼、207号楼","info":""}},{"type":"Feature","geometry":{"type":"Point","coordinates":[116.55057,39.95519]},"properties":{"province":"北京市","city":"朝阳区","county":"东坝（地区）乡","community":"金泰丽富30号院8号楼","full_address":"北京市朝阳区东坝（地区）乡金泰丽富30号院8号楼","info":""}},{"type":"Feature","geometry":{"type":"Point","coordinates":[116.607971,39.92614]},"properties":{"province":"北京市","city":"朝阳区","county":"东坝（地区）乡","community":"锦安家园1区2号楼","full_address":"北京市朝阳区东坝（地区）乡锦安家园1区2号楼","info":""}},{"type":"Feature","geometry":{"type":"Point","coordinates":[116.55765,39.96]},"properties":{"province":"北京市","city":"朝阳区","county":"东坝（地区）乡","community":"东泽园1号院4号楼","full_address":"北京市朝阳区东坝（地区）乡东泽园1号院4号楼","info":""}},{"type":"Feature","geometry":{"type":"Point","coordinates":[116.55714,39.95914]},"properties":{"province":"北京市","city":"朝阳区","county":"东坝（地区）乡","community":"东泽园1号院8号楼","full_address":"北京市朝阳区东坝（地区）乡东泽园1号院8号楼","info":""}},{"type":"Feature","geometry":{"type":"Point","coordinates":[116.573402,39.958839]},"properties":{"province":"北京市","city":"朝阳区","county":"东坝（地区）乡","community":"华瀚福园D区430号楼","full_address":"北京市朝阳区东坝（地区）乡华瀚福园D区430号楼","info":""}},{"type":"Feature","geometry":{"type":"Point","coordinates":[116.563866,39.955082]},"properties":{"province":"北京市","city":"朝阳区","county":"金盏（地区）乡","community":"金泽家园A区2号楼、5号楼、1号楼、7号楼、8号楼","full_address":"北京市朝阳区金盏（地区）乡金泽家园A区2号楼、5号楼、1号楼、7号楼、8号楼","info":""}},{"type":"Feature","geometry":{"type":"Point","coordinates":[116.563728,39.959663]},"properties":{"province":"北京市","city":"朝阳区","county":"金盏（地区）乡","community":"金泽家园C区1号楼、8号楼、9号楼、5号楼（即308号楼）","full_address":"北京市朝阳区金盏（地区）乡金泽家园C区1号楼、8号楼、9号楼、5号楼（即308号楼）","info":""}},{"type":"Feature","geometry":{"type":"Point","coordinates":[116.56174,40.00889]},"properties":{"province":"北京市","city":"朝阳区","county":"金盏（地区）乡","community":"金盏嘉园A区9号楼","full_address":"北京市朝阳区金盏（地区）乡金盏嘉园A区9号楼","info":""}},{"type":"Feature","geometry":{"type":"Point","coordinates":[116.55847,40.01067]},"properties":{"province":"北京市","city":"朝阳区","county":"金盏（地区）乡","community":"金盏嘉园B区2号楼、10号楼、3号楼、7号楼","full_address":"北京市朝阳区金盏（地区）乡金盏嘉园B区2号楼、10号楼、3号楼、7号楼","info":""}},{"type":"Feature","geometry":{"type":"Point","coordinates":[116.55434,40.00892]},"properties":{"province":"北京市","city":"朝阳区","county":"金盏（地区）乡","community":"金盏嘉园C区12号楼、5号楼、8号楼","full_address":"北京市朝阳区金盏（地区）乡金盏嘉园C区12号楼、5号楼、8号楼","info":""}},{"type":"Feature","geometry":{"type":"Point","coordinates":[116.550842,40.008766]},"properties":{"province":"北京市","city":"朝阳区","county":"金盏（地区）乡","community":"金盏嘉园D区8号楼、9号楼、12号楼、16号楼、17号楼","full_address":"北京市朝阳区金盏（地区）乡金盏嘉园D区8号楼、9号楼、12号楼、16号楼、17号楼","info":""}},{"type":"Feature","geometry":{"type":"Point","coordinates":[116.59079,39.977825]},"properties":{"province":"北京市","city":"朝阳区","county":"金盏（地区）乡","community":"长店中街7号院7号楼","full_address":"北京市朝阳区金盏（地区）乡长店中街7号院7号楼","info":""}},{"type":"Feature","geometry":{"type":"Point","coordinates":[116.563866,39.955082]},"properties":{"province":"北京市","city":"朝阳区","county":"金盏（地区）乡","community":"金泽家园A区9号楼及底商","full_address":"北京市朝阳区金盏（地区）乡金泽家园A区9号楼及底商","info":""}},{"type":"Feature","geometry":{"type":"Point","coordinates":[116.569344,40.002972]},"properties":{"province":"北京市","city":"朝阳区","county":"金盏（地区）乡","community":"东村6片区177号至181号","full_address":"北京市朝阳区金盏（地区）乡东村6片区177号至181号","info":""}},{"type":"Feature","geometry":{"type":"Point","coordinates":[116.569344,40.002972]},"properties":{"province":"北京市","city":"朝阳区","county":"金盏（地区）乡","community":"西村113号、114号、128号至134号、157号至166号、406号","full_address":"北京市朝阳区金盏（地区）乡西村113号、114号、128号至134号、157号至166号、406号","info":""}},{"type":"Feature","geometry":{"type":"Point","coordinates":[116.59079,39.977825]},"properties":{"province":"北京市","city":"朝阳区","county":"金盏（地区）乡","community":"小店村网格5区全域、网格8区231号、网格6区194号、网格9区全域","full_address":"北京市朝阳区金盏（地区）乡小店村网格5区全域、网格8区231号、网格6区194号、网格9区全域","info":""}},{"type":"Feature","geometry":{"type":"Point","coordinates":[116.563362,39.957333]},"properties":{"province":"北京市","city":"朝阳区","county":"金盏（地区）乡","community":"金泽家园B区6号楼","full_address":"北京市朝阳区金盏（地区）乡金泽家园B区6号楼","info":""}},{"type":"Feature","geometry":{"type":"Point","coordinates":[116.631912,39.973774]},"properties":{"province":"北京市","city":"朝阳区","county":"金盏（地区）乡","community":"黎各庄村1号院、109号院、255号院、429号院、460号院","full_address":"北京市朝阳区金盏（地区）乡黎各庄村1号院、109号院、255号院、429号院、460号院","info":""}},{"type":"Feature","geometry":{"type":"Point","coordinates":[116.40656,40.00695]},"properties":{"province":"北京市","city":"朝阳区","county":"大屯街道","community":"慧忠北里东片108号楼","full_address":"北京市朝阳区大屯街道慧忠北里东片108号楼","info":""}},{"type":"Feature","geometry":{"type":"Point","coordinates":[116.416031,39.999199]},"properties":{"province":"北京市","city":"朝阳区","county":"大屯街道","community":"安慧北里逸园10号楼","full_address":"北京市朝阳区大屯街道安慧北里逸园10号楼","info":""}},{"type":"Feature","geometry":{"type":"Point","coordinates":[116.404472,40.007648]},"properties":{"province":"北京市","city":"朝阳区","county":"大屯街道","community":"慧忠北里西片218号楼及底商","full_address":"北京市朝阳区大屯街道慧忠北里西片218号楼及底商","info":""}},{"type":"Feature","geometry":{"type":"Point","coordinates":[116.38004,39.99731]},"properties":{"province":"北京市","city":"朝阳区","county":"奥运村街道","community":"科学园南里六区601号楼","full_address":"北京市朝阳区奥运村街道科学园南里六区601号楼","info":""}},{"type":"Feature","geometry":{"type":"Point","coordinates":[116.416084,40.035667]},"properties":{"province":"北京市","city":"朝阳区","county":"奥运村街道","community":"绿色家园社区天畅园小区3号楼","full_address":"北京市朝阳区奥运村街道绿色家园社区天畅园小区3号楼","info":""}},{"type":"Feature","geometry":{"type":"Point","coordinates":[116.41015,40.05413]},"properties":{"province":"北京市","city":"朝阳区","county":"来广营（地区）乡","community":"立水桥奥北中心南区2号楼","full_address":"北京市朝阳区来广营（地区）乡立水桥奥北中心南区2号楼","info":""}},{"type":"Feature","geometry":{"type":"Point","coordinates":[116.424728,40.010792]},"properties":{"province":"北京市","city":"朝阳区","county":"崔各庄（地区）乡","community":"东辛店村224号","full_address":"北京市朝阳区崔各庄（地区）乡东辛店村224号","info":""}},{"type":"Feature","geometry":{"type":"Point","coordinates":[116.503578,40.008881]},"properties":{"province":"北京市","city":"朝阳区","county":"崔各庄（地区）乡","community":"东辛店村195号院","full_address":"北京市朝阳区崔各庄（地区）乡东辛店村195号院","info":""}},{"type":"Feature","geometry":{"type":"Point","coordinates":[116.424728,40.010792]},"properties":{"province":"北京市","city":"朝阳区","county":"崔各庄（地区）乡","community":"东辛店村190号","full_address":"北京市朝阳区崔各庄（地区）乡东辛店村190号","info":""}},{"type":"Feature","geometry":{"type":"Point","coordinates":[116.607201,39.887901]},"properties":{"province":"北京市","city":"朝阳区","county":"黑庄户（地区）乡","community":"双桥温泉东里小区6号楼","full_address":"北京市朝阳区黑庄户（地区）乡双桥温泉东里小区6号楼","info":""}},{"type":"Feature","geometry":{"type":"Point","coordinates":[116.604263,39.882179]},"properties":{"province":"北京市","city":"朝阳区","county":"黑庄户（地区）乡","community":"双桥嘉园1号楼","full_address":"北京市朝阳区黑庄户（地区）乡双桥嘉园1号楼","info":""}},{"type":"Feature","geometry":{"type":"Point","coordinates":[116.61496,39.854172]},"properties":{"province":"北京市","city":"朝阳区","county":"黑庄户（地区）乡","community":"四合庄村1号至25号、79号至113号、118号、119号、183号至186号、194号、196号、198号、209号、235号至237号、239号、261号、268号","full_address":"北京市朝阳区黑庄户（地区）乡四合庄村1号至25号、79号至113号、118号、119号、183号至186号、194号、196号、198号、209号、235号至237号、239号、261号、268号","info":""}},{"type":"Feature","geometry":{"type":"Point","coordinates":[116.600067,39.865341]},"properties":{"province":"北京市","city":"朝阳区","county":"黑庄户（地区）乡","community":"万子营东村29、63、64、65、66、67、93-94、95、97、98、99、100、138、139、140、141、142、143、175-176、177、178、179、180、181、197、198、200、201、202、234、235、668号","full_address":"北京市朝阳区黑庄户（地区）乡万子营东村29、63、64、65、66、67、93-94、95、97、98、99、100、138、139、140、141、142、143、175-176、177、178、179、180、181、197、198、200、201、202、234、235、668号","info":""}},{"type":"Feature","geometry":{"type":"Point","coordinates":[116.552895,39.91346]},"properties":{"province":"北京市","city":"朝阳区","county":"三间房（地区）乡","community":"定福庄西里1号院15号楼","full_address":"北京市朝阳区三间房（地区）乡定福庄西里1号院15号楼","info":""}},{"type":"Feature","geometry":{"type":"Point","coordinates":[116.58513,39.9056]},"properties":{"province":"北京市","city":"朝阳区","county":"三间房（地区）乡","community":"康惠园1号院8号楼","full_address":"北京市朝阳区三间房（地区）乡康惠园1号院8号楼","info":""}},{"type":"Feature","geometry":{"type":"Point","coordinates":[116.569321,39.916313]},"properties":{"province":"北京市","city":"朝阳区","county":"三间房（地区）乡","community":"双柳巷小区9号楼","full_address":"北京市朝阳区三间房（地区）乡双柳巷小区9号楼","info":""}},{"type":"Feature","geometry":{"type":"Point","coordinates":[116.553772,39.911743]},"properties":{"province":"北京市","city":"朝阳区","county":"三间房（地区）乡","community":"中蓝公寓I期B区、C区","full_address":"北京市朝阳区三间房（地区）乡中蓝公寓I期B区、C区","info":""}},{"type":"Feature","geometry":{"type":"Point","coordinates":[116.53994,40.032742]},"properties":{"province":"北京市","city":"朝阳区","county":"孙河（地区）乡","community":"康营家园17区4号楼","full_address":"北京市朝阳区孙河（地区）乡康营家园17区4号楼","info":""}},{"type":"Feature","geometry":{"type":"Point","coordinates":[116.540604,40.050842]},"properties":{"province":"北京市","city":"朝阳区","county":"孙河（地区）乡","community":"康营家园23期1号楼","full_address":"北京市朝阳区孙河（地区）乡康营家园23期1号楼","info":""}},{"type":"Feature","geometry":{"type":"Point","coordinates":[116.54734,40.034443]},"properties":{"province":"北京市","city":"朝阳区","county":"孙河（地区）乡","community":"康营家园11区5号楼","full_address":"北京市朝阳区孙河（地区）乡康营家园11区5号楼","info":""}},{"type":"Feature","geometry":{"type":"Point","coordinates":[116.540604,40.050842]},"properties":{"province":"北京市","city":"朝阳区","county":"孙河（地区）乡","community":"康营家园25区","full_address":"北京市朝阳区孙河（地区）乡康营家园25区","info":""}},{"type":"Feature","geometry":{"type":"Point","coordinates":[116.540604,40.050842]},"properties":{"province":"北京市","city":"朝阳区","county":"孙河（地区）乡","community":"康营家园29区1号楼、4号楼","full_address":"北京市朝阳区孙河（地区）乡康营家园29区1号楼、4号楼","info":""}},{"type":"Feature","geometry":{"type":"Point","coordinates":[116.463469,40.004569]},"properties":{"province":"北京市","city":"朝阳区","county":"东湖街道","community":"南湖东园一区107号楼","full_address":"北京市朝阳区东湖街道南湖东园一区107号楼","info":""}},{"type":"Feature","geometry":{"type":"Point","coordinates":[116.31942,39.882641]},"properties":{"province":"北京市","city":"丰台区","county":"太平桥街道","community":"精图雅苑","full_address":"北京市丰台区太平桥街道精图雅苑","info":""}},{"type":"Feature","geometry":{"type":"Point","coordinates":[116.23744,39.89806]},"properties":{"province":"北京市","city":"石景山区","county":"八宝山街道","community":"远洋山水南区38号楼6单元","full_address":"北京市石景山区八宝山街道远洋山水南区38号楼6单元","info":""}},{"type":"Feature","geometry":{"type":"Point","coordinates":[116.20554,39.93628]},"properties":{"province":"北京市","city":"石景山区","county":"苹果园街道","community":"西黄新村北里2号楼","full_address":"北京市石景山区苹果园街道西黄新村北里2号楼","info":""}},{"type":"Feature","geometry":{"type":"Point","coordinates":[116.226387,39.90255]},"properties":{"province":"北京市","city":"石景山区","county":"鲁谷街道","community":"永乐西区20号楼","full_address":"北京市石景山区鲁谷街道永乐西区20号楼","info":""}},{"type":"Feature","geometry":{"type":"Point","coordinates":[116.10572,39.94825]},"properties":{"province":"北京市","city":"门头沟区","county":"城子街道","community":"阁外山水4号楼","full_address":"北京市门头沟区城子街道阁外山水4号楼","info":""}},{"type":"Feature","geometry":{"type":"Point","coordinates":[116.103676,39.887501]},"properties":{"province":"北京市","city":"门头沟区","county":"东辛房街道","community":"紫金新园三区14号楼","full_address":"北京市门头沟区东辛房街道紫金新园三区14号楼","info":""}},{"type":"Feature","geometry":{"type":"Point","coordinates":[116.024315,39.598671]},"properties":{"province":"北京市","city":"房山区","county":"琉璃河（地区）镇","community":"滨水雅苑东区19号楼","full_address":"北京市房山区琉璃河（地区）镇滨水雅苑东区19号楼","info":""}},{"type":"Feature","geometry":{"type":"Point","coordinates":[116.06616,39.68683]},"properties":{"province":"北京市","city":"房山区","county":"窦店镇","community":"腾龙家园一区4号楼","full_address":"北京市房山区窦店镇腾龙家园一区4号楼","info":""}},{"type":"Feature","geometry":{"type":"Point","coordinates":[116.222313,39.735043]},"properties":{"province":"北京市","city":"房山区","county":"长阳镇","community":"朱岗子村一区96号院","full_address":"北京市房山区长阳镇朱岗子村一区96号院","info":""}},{"type":"Feature","geometry":{"type":"Point","coordinates":[116.705544,39.987469]},"properties":{"province":"北京市","city":"通州区","county":"宋庄镇","community":"大庞村第1、6、7、8、10 、11、12、13、14网格区","full_address":"北京市通州区宋庄镇大庞村第1、6、7、8、10 、11、12、13、14网格区","info":""}},{"type":"Feature","geometry":{"type":"Point","coordinates":[116.678871,39.989021]},"properties":{"province":"北京市","city":"通州区","county":"宋庄镇","community":"草寺村第4、5、6网格","full_address":"北京市通州区宋庄镇草寺村第4、5、6网格","info":""}},{"type":"Feature","geometry":{"type":"Point","coordinates":[116.661072,39.965004]},"properties":{"province":"北京市","city":"通州区","county":"宋庄镇","community":"富豪村","full_address":"北京市通州区宋庄镇富豪村","info":""}},{"type":"Feature","geometry":{"type":"Point","coordinates":[116.553642,39.766441]},"properties":{"province":"北京市","city":"通州区","county":"马驹桥镇","community":"北门口村77-81号，104、105、109、110、111、116号","full_address":"北京市通州区马驹桥镇北门口村77-81号，104、105、109、110、111、116号","info":""}},{"type":"Feature","geometry":{"type":"Point","coordinates":[116.56759,39.79974]},"properties":{"province":"北京市","city":"通州区","county":"台湖镇","community":"定海园二里13号楼2单元","full_address":"北京市通州区台湖镇定海园二里13号楼2单元","info":""}},{"type":"Feature","geometry":{"type":"Point","coordinates":[116.55838,39.819511]},"properties":{"province":"北京市","city":"通州区","county":"台湖镇","community":"凯悦国际大楼及底商","full_address":"北京市通州区台湖镇凯悦国际大楼及底商","info":""}},{"type":"Feature","geometry":{"type":"Point","coordinates":[116.646538,39.806259]},"properties":{"province":"北京市","city":"通州区","county":"台湖镇","community":"北火垡村","full_address":"北京市通州区台湖镇北火垡村","info":""}},{"type":"Feature","geometry":{"type":"Point","coordinates":[116.63446,39.75983]},"properties":{"province":"北京市","city":"通州区","county":"张家湾镇","community":"姚辛庄村","full_address":"北京市通州区张家湾镇姚辛庄村","info":""}},{"type":"Feature","geometry":{"type":"Point","coordinates":[116.68455,39.89681]},"properties":{"province":"北京市","city":"通州区","county":"玉桥街道","community":"乔庄北区13号楼、14号楼、15号楼","full_address":"北京市通州区玉桥街道乔庄北区13号楼、14号楼、15号楼","info":""}},{"type":"Feature","geometry":{"type":"Point","coordinates":[116.68762,39.8929]},"properties":{"province":"北京市","city":"通州区","county":"玉桥街道","community":"乔庄西区24号楼2单元、10、11、13、14、15、16号楼","full_address":"北京市通州区玉桥街道乔庄西区24号楼2单元、10、11、13、14、15、16号楼","info":""}},{"type":"Feature","geometry":{"type":"Point","coordinates":[116.691376,39.887077]},"properties":{"province":"北京市","city":"通州区","county":"玉桥街道","community":"玉桥东里南社区101号楼","full_address":"北京市通州区玉桥街道玉桥东里南社区101号楼","info":""}},{"type":"Feature","geometry":{"type":"Point","coordinates":[116.69751,39.873653]},"properties":{"province":"北京市","city":"通州区","county":"临河里街道","community":"金隅花石匠小区二期东区117号楼","full_address":"北京市通州区临河里街道金隅花石匠小区二期东区117号楼","info":""}},{"type":"Feature","geometry":{"type":"Point","coordinates":[116.701675,39.877274]},"properties":{"province":"北京市","city":"通州区","county":"临河里街道","community":"金隅自由筑一期第一段、第二段区域","full_address":"北京市通州区临河里街道金隅自由筑一期第一段、第二段区域","info":""}},{"type":"Feature","geometry":{"type":"Point","coordinates":[116.69016,39.87391]},"properties":{"province":"北京市","city":"通州区","county":"临河里街道","community":"方恒东景小区106号楼","full_address":"北京市通州区临河里街道方恒东景小区106号楼","info":""}},{"type":"Feature","geometry":{"type":"Point","coordinates":[116.6313,39.90058]},"properties":{"province":"北京市","city":"通州区","county":"杨庄街道","community":"新华联锦园小区30号楼","full_address":"北京市通州区杨庄街道新华联锦园小区30号楼","info":""}},{"type":"Feature","geometry":{"type":"Point","coordinates":[116.689472,39.935166]},"properties":{"province":"北京市","city":"通州区","county":"潞邑街道","community":"通瑞嘉苑小区14号楼","full_address":"北京市通州区潞邑街道通瑞嘉苑小区14号楼","info":""}},{"type":"Feature","geometry":{"type":"Point","coordinates":[116.311752,40.141922]},"properties":{"province":"北京市","city":"昌平区","county":"沙河（地区）镇","community":"辛力屯老村东至辉煌街与兴辉街交叉口，南至南四街，西至北六街西街，北至金利源超市同排宅基地（含文化馆及东侧四户）","full_address":"北京市昌平区沙河（地区）镇辛力屯老村东至辉煌街与兴辉街交叉口，南至南四街，西至北六街西街，北至金利源超市同排宅基地（含文化馆及东侧四户）","info":""}},{"type":"Feature","geometry":{"type":"Point","coordinates":[116.275438,40.143254]},"properties":{"province":"北京市","city":"昌平区","county":"沙河（地区）镇","community":"沙河镇顺沙路19号院1区6号楼1单元和1号楼1单元","full_address":"北京市昌平区沙河（地区）镇沙河镇顺沙路19号院1区6号楼1单元和1号楼1单元","info":""}},{"type":"Feature","geometry":{"type":"Point","coordinates":[116.309395,40.098526]},"properties":{"province":"北京市","city":"昌平区","county":"史各庄街道","community":"朱辛庄小区南区3号楼和10号楼","full_address":"北京市昌平区史各庄街道朱辛庄小区南区3号楼和10号楼","info":""}},{"type":"Feature","geometry":{"type":"Point","coordinates":[116.289642,40.098473]},"properties":{"province":"北京市","city":"昌平区","county":"史各庄街道","community":"珠江摩尔小区8号楼","full_address":"北京市昌平区史各庄街道珠江摩尔小区8号楼","info":""}},{"type":"Feature","geometry":{"type":"Point","coordinates":[116.287949,39.78278]},"properties":{"province":"北京市","city":"大兴区","county":"黄村（地区）镇","community":"狼垡二村东至六队库房西路，西至高庙路，南至狼垡三条，北至狼垡四条区域","full_address":"北京市大兴区黄村（地区）镇狼垡二村东至六队库房西路，西至高庙路，南至狼垡三条，北至狼垡四条区域","info":""}},{"type":"Feature","geometry":{"type":"Point","coordinates":[116.30874,39.62662]},"properties":{"province":"北京市","city":"大兴区","county":"庞各庄镇","community":"龙景湾丁区123号楼","full_address":"北京市大兴区庞各庄镇龙景湾丁区123号楼","info":""}},{"type":"Feature","geometry":{"type":"Point","coordinates":[116.456932,39.72472]},"properties":{"province":"北京市","city":"大兴区","county":"青云店镇","community":"北野场村中村","full_address":"北京市大兴区青云店镇北野场村中村","info":""}},{"type":"Feature","geometry":{"type":"Point","coordinates":[116.43657,39.81693]},"properties":{"province":"北京市","city":"大兴区","county":"旧宫（地区）镇","community":"成和园小区6号楼2单元","full_address":"北京市大兴区旧宫（地区）镇成和园小区6号楼2单元","info":""}},{"type":"Feature","geometry":{"type":"Point","coordinates":[116.454895,39.793217]},"properties":{"province":"北京市","city":"大兴区","county":"旧宫（地区）镇","community":"东亚五环国际小区1-11号楼","full_address":"北京市大兴区旧宫（地区）镇东亚五环国际小区1-11号楼","info":""}},{"type":"Feature","geometry":{"type":"Point","coordinates":[116.454781,39.798706]},"properties":{"province":"北京市","city":"大兴区","county":"旧宫（地区）镇","community":"旧宫新苑南区","full_address":"北京市大兴区旧宫（地区）镇旧宫新苑南区","info":""}},{"type":"Feature","geometry":{"type":"Point","coordinates":[116.459831,39.815071]},"properties":{"province":"北京市","city":"大兴区","county":"旧宫（地区）镇","community":"德林园小区2号楼","full_address":"北京市大兴区旧宫（地区）镇德林园小区2号楼","info":""}},{"type":"Feature","geometry":{"type":"Point","coordinates":[116.515198,39.819313]},"properties":{"province":"北京市","city":"大兴区","county":"亦庄（地区）镇","community":"三羊里小区11-31号楼","full_address":"北京市大兴区亦庄（地区）镇三羊里小区11-31号楼","info":""}},{"type":"Feature","geometry":{"type":"Point","coordinates":[116.357918,39.739983]},"properties":{"province":"北京市","city":"大兴区","county":"观音寺街道","community":"新居里小区9、18-24、26-32楼及物业院","full_address":"北京市大兴区观音寺街道新居里小区9、18-24、26-32楼及物业院","info":""}},{"type":"Feature","geometry":{"type":"Point","coordinates":[116.364632,39.747295]},"properties":{"province":"北京市","city":"大兴区","county":"观音寺街道","community":"首座御园一里社区10号楼","full_address":"北京市大兴区观音寺街道首座御园一里社区10号楼","info":""}},{"type":"Feature","geometry":{"type":"Point","coordinates":[116.340569,39.775261]},"properties":{"province":"北京市","city":"大兴区","county":"高米店街道","community":"郁花园一里社区30号楼","full_address":"北京市大兴区高米店街道郁花园一里社区30号楼","info":""}},{"type":"Feature","geometry":{"type":"Point","coordinates":[117.11206,40.15776]},"properties":{"province":"北京市","city":"平谷区","county":"兴谷街道","community":"腾龙源城小区1号楼","full_address":"北京市平谷区兴谷街道腾龙源城小区1号楼","info":""}},{"type":"Feature","geometry":{"type":"Point","coordinates":[116.83243,40.37546]},"properties":{"province":"北京市","city":"密云区","county":"果园街道","community":"果园新里北区19号楼","full_address":"北京市密云区果园街道果园新里北区19号楼","info":""}},{"type":"Feature","geometry":{"type":"Point","coordinates":[116.82715,40.3741]},"properties":{"province":"北京市","city":"密云区","county":"果园街道","community":"果园西里甲12号楼","full_address":"北京市密云区果园街道果园西里甲12号楼","info":""}},{"type":"Feature","geometry":{"type":"Point","coordinates":[115.888077,40.372952]},"properties":{"province":"北京市","city":"延庆区","county":"康庄镇","community":"康庄镇榆林堡新村","full_address":"北京市延庆区康庄镇康庄镇榆林堡新村","info":""}},{"type":"Feature","geometry":{"type":"Point","coordinates":[117.323559,39.103043]},"properties":{"province":"天津市","city":"天津市","county":"东丽区","community":"新立街贵环花园小区6号楼旁平房区","full_address":"天津市天津市东丽区新立街贵环花园小区6号楼旁平房区","info":""}},{"type":"Feature","geometry":{"type":"Point","coordinates":[117.038712,39.128029]},"properties":{"province":"天津市","city":"天津市","county":"西青区","community":"中北镇兴苑别墅公寓楼1号楼、兴苑别墅一区22号楼","full_address":"天津市天津市西青区中北镇兴苑别墅公寓楼1号楼、兴苑别墅一区22号楼","info":""}},{"type":"Feature","geometry":{"type":"Point","coordinates":[117.056358,39.149281]},"properties":{"province":"天津市","city":"天津市","county":"西青区","community":"美乐福多多超市（奥森物流A区南门左侧80米)","full_address":"天津市天津市西青区美乐福多多超市（奥森物流A区南门左侧80米)","info":""}},{"type":"Feature","geometry":{"type":"Point","coordinates":[117.12188,39.05029]},"properties":{"province":"天津市","city":"天津市","county":"西青区","community":"精武镇荣水里6号楼","full_address":"天津市天津市西青区精武镇荣水里6号楼","info":""}},{"type":"Feature","geometry":{"type":"Point","coordinates":[117.088562,39.14465]},"properties":{"province":"天津市","city":"天津市","county":"西青区","community":"中北镇云锦世家澜锦园13号楼","full_address":"天津市天津市西青区中北镇云锦世家澜锦园13号楼","info":""}},{"type":"Feature","geometry":{"type":"Point","coordinates":[117.062752,39.134155]},"properties":{"province":"天津市","city":"天津市","county":"西青区","community":"中北镇御宏家园2号楼2门、4号楼1门","full_address":"天津市天津市西青区中北镇御宏家园2号楼2门、4号楼1门","info":""}},{"type":"Feature","geometry":{"type":"Point","coordinates":[117.062752,39.134155]},"properties":{"province":"天津市","city":"天津市","county":"西青区","community":"中北镇御宏家园6号楼1楼门","full_address":"天津市天津市西青区中北镇御宏家园6号楼1楼门","info":""}},{"type":"Feature","geometry":{"type":"Point","coordinates":[117.068436,39.124123]},"properties":{"province":"天津市","city":"天津市","county":"西青区","community":"中北镇溪悦园17号楼1门","full_address":"天津市天津市西青区中北镇溪悦园17号楼1门","info":""}},{"type":"Feature","geometry":{"type":"Point","coordinates":[117.035822,39.062648]},"properties":{"province":"天津市","city":"天津市","county":"西青区","community":"张家窝镇人祥北里13号楼1门","full_address":"天津市天津市西青区张家窝镇人祥北里13号楼1门","info":""}},{"type":"Feature","geometry":{"type":"Point","coordinates":[117.024799,39.119563]},"properties":{"province":"天津市","city":"天津市","county":"西青区","community":"杨柳青镇美泉苑11号楼3门","full_address":"天津市天津市西青区杨柳青镇美泉苑11号楼3门","info":""}},{"type":"Feature","geometry":{"type":"Point","coordinates":[117.022672,39.137151]},"properties":{"province":"天津市","city":"天津市","county":"西青区","community":"杨柳青镇星河湾花苑18号楼1门","full_address":"天津市天津市西青区杨柳青镇星河湾花苑18号楼1门","info":""}},{"type":"Feature","geometry":{"type":"Point","coordinates":[117.026807,39.1403]},"properties":{"province":"天津市","city":"天津市","county":"西青区","community":"杨柳青镇青馨园15号楼2门","full_address":"天津市天津市西青区杨柳青镇青馨园15号楼2门","info":""}},{"type":"Feature","geometry":{"type":"Point","coordinates":[117.033615,39.141357]},"properties":{"province":"天津市","city":"天津市","county":"西青区","community":"杨柳青镇建业里一条、建业里二条四号、五号","full_address":"天津市天津市西青区杨柳青镇建业里一条、建业里二条四号、五号","info":""}},{"type":"Feature","geometry":{"type":"Point","coordinates":[117.2135,39.05959]},"properties":{"province":"天津市","city":"天津市","county":"西青区","community":"津门湖街海逸长洲瀚景园1号楼2门","full_address":"天津市天津市西青区津门湖街海逸长洲瀚景园1号楼2门","info":""}},{"type":"Feature","geometry":{"type":"Point","coordinates":[117.038719,39.128273]},"properties":{"province":"天津市","city":"天津市","county":"西青区","community":"中北镇兴苑别墅三区16号楼","full_address":"天津市天津市西青区中北镇兴苑别墅三区16号楼","info":""}},{"type":"Feature","geometry":{"type":"Point","coordinates":[117.272995,39.006424]},"properties":{"province":"天津市","city":"天津市","county":"西青区","community":"赤龙南街亲和静园8号至15号楼","full_address":"天津市天津市西青区赤龙南街亲和静园8号至15号楼","info":""}},{"type":"Feature","geometry":{"type":"Point","coordinates":[117.203835,39.056839]},"properties":{"province":"天津市","city":"天津市","county":"西青区","community":"津门湖街鸣泉花园4号楼","full_address":"天津市天津市西青区津门湖街鸣泉花园4号楼","info":""}},{"type":"Feature","geometry":{"type":"Point","coordinates":[117.013931,39.128731]},"properties":{"province":"天津市","city":"天津市","county":"西青区","community":"杨柳青镇商贸街谢宝林烤肉饭","full_address":"天津市天津市西青区杨柳青镇商贸街谢宝林烤肉饭","info":""}},{"type":"Feature","geometry":{"type":"Point","coordinates":[117.270973,39.004402]},"properties":{"province":"天津市","city":"天津市","county":"西青区","community":"赤龙南街亲和泰园3号楼","full_address":"天津市天津市西青区赤龙南街亲和泰园3号楼","info":""}},{"type":"Feature","geometry":{"type":"Point","coordinates":[117.277817,39.015663]},"properties":{"province":"天津市","city":"天津市","county":"津南区","community":"双新街首创昆芳苑28号楼","full_address":"天津市天津市津南区双新街首创昆芳苑28号楼","info":""}},{"type":"Feature","geometry":{"type":"Point","coordinates":[117.040184,39.162941]},"properties":{"province":"天津市","city":"天津市","county":"北辰区","community":"青光镇铁锅店村良友胡同1-5号，致成道1号，兴旺胡同2号","full_address":"天津市天津市北辰区青光镇铁锅店村良友胡同1-5号，致成道1号，兴旺胡同2号","info":""}},{"type":"Feature","geometry":{"type":"Point","coordinates":[117.454695,38.859145]},"properties":{"province":"天津市","city":"天津市","county":"滨海新区","community":"大港街道地球村南区28号楼","full_address":"天津市天津市滨海新区大港街道地球村南区28号楼","info":""}},{"type":"Feature","geometry":{"type":"Point","coordinates":[117.742661,39.110325]},"properties":{"province":"天津市","city":"天津市","county":"滨海新区","community":"中新天津生态城鲲玺园5号楼","full_address":"天津市天津市滨海新区中新天津生态城鲲玺园5号楼","info":""}},{"type":"Feature","geometry":{"type":"Point","coordinates":[117.819885,39.259033]},"properties":{"province":"天津市","city":"天津市","county":"滨海新区","community":"汉沽街道学仕府15号楼","full_address":"天津市天津市滨海新区汉沽街道学仕府15号楼","info":""}},{"type":"Feature","geometry":{"type":"Point","coordinates":[117.985252,39.273132]},"properties":{"province":"天津市","city":"天津市","county":"滨海新区","community":"杨家泊镇高庄村文明街（29-34排）、中华街（22、26、29-32排）","full_address":"天津市天津市滨海新区杨家泊镇高庄村文明街（29-34排）、中华街（22、26、29-32排）","info":""}},{"type":"Feature","geometry":{"type":"Point","coordinates":[117.6693,39.03293]},"properties":{"province":"天津市","city":"天津市","county":"滨海新区","community":"杭州道街道韶山北里2号楼","full_address":"天津市天津市滨海新区杭州道街道韶山北里2号楼","info":""}},{"type":"Feature","geometry":{"type":"Point","coordinates":[117.621651,39.033661]},"properties":{"province":"天津市","city":"天津市","county":"滨海新区","community":"新河街道福升园二期7号楼","full_address":"天津市天津市滨海新区新河街道福升园二期7号楼","info":""}},{"type":"Feature","geometry":{"type":"Point","coordinates":[117.814133,39.319149]},"properties":{"province":"天津市","city":"天津市","county":"宁河区","community":"芦台街世纪花园（顺驰）小区6号楼","full_address":"天津市天津市宁河区芦台街世纪花园（顺驰）小区6号楼","info":""}},{"type":"Feature","geometry":{"type":"Point","coordinates":[117.829887,39.322269]},"properties":{"province":"天津市","city":"天津市","county":"宁河区","community":"芦台街朝阳花园45号楼","full_address":"天津市天津市宁河区芦台街朝阳花园45号楼","info":""}},{"type":"Feature","geometry":{"type":"Point","coordinates":[117.821022,39.327026]},"properties":{"province":"天津市","city":"天津市","county":"宁河区","community":"芦台街鸿宾楼3号楼","full_address":"天津市天津市宁河区芦台街鸿宾楼3号楼","info":""}},{"type":"Feature","geometry":{"type":"Point","coordinates":[117.84449,39.35075]},"properties":{"province":"天津市","city":"天津市","county":"宁河区","community":"芦台街曹庄村","full_address":"天津市天津市宁河区芦台街曹庄村","info":""}},{"type":"Feature","geometry":{"type":"Point","coordinates":[117.796577,39.338654]},"properties":{"province":"天津市","city":"天津市","county":"宁河区","community":"桥北街宁新花园9号楼","full_address":"天津市天津市宁河区桥北街宁新花园9号楼","info":""}},{"type":"Feature","geometry":{"type":"Point","coordinates":[117.556793,39.419899]},"properties":{"province":"天津市","city":"天津市","county":"宁河区","community":"东棘坨镇躲军甸村","full_address":"天津市天津市宁河区东棘坨镇躲军甸村","info":""}},{"type":"Feature","geometry":{"type":"Point","coordinates":[117.813873,39.396931]},"properties":{"province":"天津市","city":"天津市","county":"宁河区","community":"苗庄镇大沙窝村","full_address":"天津市天津市宁河区苗庄镇大沙窝村","info":""}},{"type":"Feature","geometry":{"type":"Point","coordinates":[116.788109,39.02813]},"properties":{"province":"天津市","city":"天津市","county":"静海区","community":"台头镇建设村东至郝润海胡同、南至村北二号路、西至郝文强胡同、北至新村委路合围区域；建设村东至梁台路、南至刘金树胡同、西至二号坑塘、北至郝家霞胡同合围区域；和平村东至和至巷、南至清河古道北岸、和吉巷、西至和意巷、北至明星路合围区域","full_address":"天津市天津市静海区台头镇建设村东至郝润海胡同、南至村北二号路、西至郝文强胡同、北至新村委路合围区域；建设村东至梁台路、南至刘金树胡同、西至二号坑塘、北至郝家霞胡同合围区域；和平村东至和至巷、南至清河古道北岸、和吉巷、西至和意巷、北至明星路合围区域","info":""}},{"type":"Feature","geometry":{"type":"Point","coordinates":[116.920616,38.93206]},"properties":{"province":"天津市","city":"天津市","county":"静海区","community":"静海镇古韵阳光家园4号楼","full_address":"天津市天津市静海区静海镇古韵阳光家园4号楼","info":""}},{"type":"Feature","geometry":{"type":"Point","coordinates":[116.788109,39.02813]},"properties":{"province":"天津市","city":"天津市","county":"静海区","community":"台头镇和平村东至章士道、南至明星路、西至和至巷、北至兴企路合围区域；建设村东至老东街水泥路、南至郝家祠堂南侧水泥路、西至和平三号胡同、北至三号巷王德龙房后合围区域；义和村东至利民道西端、南至义和针织厂、西至中心大街、北至义新道合围区域","full_address":"天津市天津市静海区台头镇和平村东至章士道、南至明星路、西至和至巷、北至兴企路合围区域；建设村东至老东街水泥路、南至郝家祠堂南侧水泥路、西至和平三号胡同、北至三号巷王德龙房后合围区域；义和村东至利民道西端、南至义和针织厂、西至中心大街、北至义新道合围区域","info":""}},{"type":"Feature","geometry":{"type":"Point","coordinates":[116.923851,38.905663]},"properties":{"province":"天津市","city":"天津市","county":"静海区","community":"静海镇范庄子村还迁6号楼及北侧25号联排楼","full_address":"天津市天津市静海区静海镇范庄子村还迁6号楼及北侧25号联排楼","info":""}},{"type":"Feature","geometry":{"type":"Point","coordinates":[117.236443,40.013683]},"properties":{"province":"天津市","city":"天津市","county":"蓟州区","community":"白涧镇田吉素村一区5排8-10号、12号、14号、15号，6排8-16号，7排8-12号、15号、16号、24号，8排5-14号，9排6-12号，10排5号、6号、8-10号、13号","full_address":"天津市天津市蓟州区白涧镇田吉素村一区5排8-10号、12号、14号、15号，6排8-16号，7排8-12号、15号、16号、24号，8排5-14号，9排6-12号，10排5号、6号、8-10号、13号","info":""}},{"type":"Feature","geometry":{"type":"Point","coordinates":[117.265488,39.998463]},"properties":{"province":"天津市","city":"天津市","county":"蓟州区","community":"邦均镇王胜明停车场（邦均镇宝平路信忠管业对面）","full_address":"天津市天津市蓟州区邦均镇王胜明停车场（邦均镇宝平路信忠管业对面）","info":""}},{"type":"Feature","geometry":{"type":"Point","coordinates":[117.236443,40.013683]},"properties":{"province":"天津市","city":"天津市","county":"蓟州区","community":"白涧镇田吉素村1区1排7-8号、11-15号、18号、30号，2排8-12号、14-16号、22号，3排7-16号，4排8-17号，8排1-3号，8排4号（天启佳副食百货），4区1排16号","full_address":"天津市天津市蓟州区白涧镇田吉素村1区1排7-8号、11-15号、18号、30号，2排8-12号、14-16号、22号，3排7-16号，4排8-17号，8排1-3号，8排4号（天启佳副食百货），4区1排16号","info":""}},{"type":"Feature","geometry":{"type":"Point","coordinates":[114.550903,38.104137]},"properties":{"province":"河北省","city":"石家庄市","county":"长安区","community":"高营镇山水家园小区A座","full_address":"河北省石家庄市长安区高营镇山水家园小区A座","info":""}},{"type":"Feature","geometry":{"type":"Point","coordinates":[114.529762,38.085438]},"properties":{"province":"河北省","city":"石家庄市","county":"长安区","community":"桃园镇恒立苑小区13号楼","full_address":"河北省石家庄市长安区桃园镇恒立苑小区13号楼","info":""}},{"type":"Feature","geometry":{"type":"Point","coordinates":[114.50085,38.09158]},"properties":{"province":"河北省","city":"石家庄市","county":"长安区","community":"陈章小区7号楼","full_address":"河北省石家庄市长安区陈章小区7号楼","info":""}},{"type":"Feature","geometry":{"type":"Point","coordinates":[114.518906,38.053345]},"properties":{"province":"河北省","city":"石家庄市","county":"长安区","community":"铂宫时代2号楼","full_address":"河北省石家庄市长安区铂宫时代2号楼","info":""}},{"type":"Feature","geometry":{"type":"Point","coordinates":[114.54447,38.04548]},"properties":{"province":"河北省","city":"石家庄市","county":"长安区","community":"河东街道河纺北大院2号楼","full_address":"河北省石家庄市长安区河东街道河纺北大院2号楼","info":""}},{"type":"Feature","geometry":{"type":"Point","coordinates":[114.499168,38.049122]},"properties":{"province":"河北省","city":"石家庄市","county":"长安区","community":"阜康街道市政公司宿舍4号楼","full_address":"河北省石家庄市长安区阜康街道市政公司宿舍4号楼","info":""}},{"type":"Feature","geometry":{"type":"Point","coordinates":[114.49969,38.05043]},"properties":{"province":"河北省","city":"石家庄市","county":"长安区","community":"社保局宿舍1号楼","full_address":"河北省石家庄市长安区社保局宿舍1号楼","info":""}},{"type":"Feature","geometry":{"type":"Point","coordinates":[114.49977,38.06204]},"properties":{"province":"河北省","city":"石家庄市","county":"长安区","community":"神州嘉园15号楼","full_address":"河北省石家庄市长安区神州嘉园15号楼","info":""}},{"type":"Feature","geometry":{"type":"Point","coordinates":[114.554321,38.087418]},"properties":{"province":"河北省","city":"石家庄市","county":"长安区","community":"高营镇北高营新村高层8号楼","full_address":"河北省石家庄市长安区高营镇北高营新村高层8号楼","info":""}},{"type":"Feature","geometry":{"type":"Point","coordinates":[114.546333,38.042973]},"properties":{"province":"河北省","city":"石家庄市","county":"长安区","community":"劳技小区1号楼","full_address":"河北省石家庄市长安区劳技小区1号楼","info":""}},{"type":"Feature","geometry":{"type":"Point","coordinates":[114.557888,38.086291]},"properties":{"province":"河北省","city":"石家庄市","county":"长安区","community":"南高营回迁二区13号楼","full_address":"河北省石家庄市长安区南高营回迁二区13号楼","info":""}},{"type":"Feature","geometry":{"type":"Point","coordinates":[114.50268,38.05633]},"properties":{"province":"河北省","city":"石家庄市","county":"长安区","community":"建安街道荣景园9号楼、14号楼、21号楼","full_address":"河北省石家庄市长安区建安街道荣景园9号楼、14号楼、21号楼","info":""}},{"type":"Feature","geometry":{"type":"Point","coordinates":[114.502121,38.049152]},"properties":{"province":"河北省","city":"石家庄市","county":"长安区","community":"中基礼域15号楼","full_address":"河北省石家庄市长安区中基礼域15号楼","info":""}},{"type":"Feature","geometry":{"type":"Point","coordinates":[114.50558,38.05923]},"properties":{"province":"河北省","city":"石家庄市","county":"长安区","community":"御景园小区1号楼","full_address":"河北省石家庄市长安区御景园小区1号楼","info":""}},{"type":"Feature","geometry":{"type":"Point","coordinates":[114.51292,38.06411]},"properties":{"province":"河北省","city":"石家庄市","county":"长安区","community":"建北街道新浩城北区1号楼","full_address":"河北省石家庄市长安区建北街道新浩城北区1号楼","info":""}},{"type":"Feature","geometry":{"type":"Point","coordinates":[114.51349,38.07127]},"properties":{"province":"河北省","city":"石家庄市","county":"长安区","community":"尚乘源6号楼","full_address":"河北省石家庄市长安区尚乘源6号楼","info":""}},{"type":"Feature","geometry":{"type":"Point","coordinates":[114.505104,38.036961]},"properties":{"province":"河北省","city":"石家庄市","county":"长安区","community":"房管所宿舍1号楼","full_address":"河北省石家庄市长安区房管所宿舍1号楼","info":""}},{"type":"Feature","geometry":{"type":"Point","coordinates":[114.51569,38.08511]},"properties":{"province":"河北省","city":"石家庄市","county":"长安区","community":"胜北街道国粹小区2号楼","full_address":"河北省石家庄市长安区胜北街道国粹小区2号楼","info":""}},{"type":"Feature","geometry":{"type":"Point","coordinates":[114.52068,38.09225]},"properties":{"province":"河北省","city":"石家庄市","county":"长安区","community":"化肥四区15号楼","full_address":"河北省石家庄市长安区化肥四区15号楼","info":""}},{"type":"Feature","geometry":{"type":"Point","coordinates":[114.503967,38.070377]},"properties":{"province":"河北省","city":"石家庄市","county":"长安区","community":"南屏园7号楼","full_address":"河北省石家庄市长安区南屏园7号楼","info":""}},{"type":"Feature","geometry":{"type":"Point","coordinates":[114.51133,38.07706]},"properties":{"province":"河北省","city":"石家庄市","county":"长安区","community":"石纺小区25号楼","full_address":"河北省石家庄市长安区石纺小区25号楼","info":""}},{"type":"Feature","geometry":{"type":"Point","coordinates":[114.52164,38.08394]},"properties":{"province":"河北省","city":"石家庄市","county":"长安区","community":"庄窠小区34号楼","full_address":"河北省石家庄市长安区庄窠小区34号楼","info":""}},{"type":"Feature","geometry":{"type":"Point","coordinates":[114.506844,38.08839]},"properties":{"province":"河北省","city":"石家庄市","county":"长安区","community":"桃园镇都市怡景小区6号楼、16号楼、17号楼、23号楼","full_address":"河北省石家庄市长安区桃园镇都市怡景小区6号楼、16号楼、17号楼、23号楼","info":""}},{"type":"Feature","geometry":{"type":"Point","coordinates":[114.52375,38.098721]},"properties":{"province":"河北省","city":"石家庄市","county":"长安区","community":"聚鑫园社区2号楼、6号楼、8号楼、12号楼、14号楼","full_address":"河北省石家庄市长安区聚鑫园社区2号楼、6号楼、8号楼、12号楼、14号楼","info":""}},{"type":"Feature","geometry":{"type":"Point","coordinates":[114.521507,38.085621]},"properties":{"province":"河北省","city":"石家庄市","county":"长安区","community":"古运码头二期5号楼","full_address":"河北省石家庄市长安区古运码头二期5号楼","info":""}},{"type":"Feature","geometry":{"type":"Point","coordinates":[114.511551,38.094112]},"properties":{"province":"河北省","city":"石家庄市","county":"长安区","community":"荣昌西花园5号楼","full_address":"河北省石家庄市长安区荣昌西花园5号楼","info":""}},{"type":"Feature","geometry":{"type":"Point","coordinates":[114.518501,38.073837]},"properties":{"province":"河北省","city":"石家庄市","county":"长安区","community":"长丰街道北城国际A区11号楼","full_address":"河北省石家庄市长安区长丰街道北城国际A区11号楼","info":""}},{"type":"Feature","geometry":{"type":"Point","coordinates":[114.559433,38.07103]},"properties":{"province":"河北省","city":"石家庄市","county":"长安区","community":"天洲沁园小区1号楼","full_address":"河北省石家庄市长安区天洲沁园小区1号楼","info":""}},{"type":"Feature","geometry":{"type":"Point","coordinates":[114.49338,38.09968]},"properties":{"province":"河北省","city":"石家庄市","county":"长安区","community":"区桃园镇肖家营小区15号楼","full_address":"河北省石家庄市长安区区桃园镇肖家营小区15号楼","info":""}},{"type":"Feature","geometry":{"type":"Point","coordinates":[114.522507,38.106628]},"properties":{"province":"河北省","city":"石家庄市","county":"长安区","community":"半岛名邸回迁区6号楼","full_address":"河北省石家庄市长安区半岛名邸回迁区6号楼","info":""}},{"type":"Feature","geometry":{"type":"Point","coordinates":[114.51473,38.09248]},"properties":{"province":"河北省","city":"石家庄市","county":"长安区","community":"胜北街道柳阳佳园1号楼","full_address":"河北省石家庄市长安区胜北街道柳阳佳园1号楼","info":""}},{"type":"Feature","geometry":{"type":"Point","coordinates":[114.51808,38.09093]},"properties":{"province":"河北省","city":"石家庄市","county":"长安区","community":"顺柳巷4号院17号楼","full_address":"河北省石家庄市长安区顺柳巷4号院17号楼","info":""}},{"type":"Feature","geometry":{"type":"Point","coordinates":[114.570648,38.044682]},"properties":{"province":"河北省","city":"石家庄市","county":"长安区","community":"谈固街道东方魅力商住大厦1号楼","full_address":"河北省石家庄市长安区谈固街道东方魅力商住大厦1号楼","info":""}},{"type":"Feature","geometry":{"type":"Point","coordinates":[114.540611,38.095131]},"properties":{"province":"河北省","city":"石家庄市","county":"长安区","community":"高营镇东古城村高层1号楼","full_address":"河北省石家庄市长安区高营镇东古城村高层1号楼","info":""}},{"type":"Feature","geometry":{"type":"Point","coordinates":[114.52726,38.049522]},"properties":{"province":"河北省","city":"石家庄市","county":"长安区","community":"广安街道棉四小区42号楼","full_address":"河北省石家庄市长安区广安街道棉四小区42号楼","info":""}},{"type":"Feature","geometry":{"type":"Point","coordinates":[114.507851,38.05246]},"properties":{"province":"河北省","city":"石家庄市","county":"长安区","community":"建安街道华平苑8号楼","full_address":"河北省石家庄市长安区建安街道华平苑8号楼","info":""}},{"type":"Feature","geometry":{"type":"Point","coordinates":[114.519577,38.052299]},"properties":{"province":"河北省","city":"石家庄市","county":"长安区","community":"建北街道谈后小区6号楼","full_address":"河北省石家庄市长安区建北街道谈后小区6号楼","info":""}},{"type":"Feature","geometry":{"type":"Point","coordinates":[114.515366,38.064095]},"properties":{"province":"河北省","city":"石家庄市","county":"长安区","community":"花园小区A区7号楼","full_address":"河北省石家庄市长安区花园小区A区7号楼","info":""}},{"type":"Feature","geometry":{"type":"Point","coordinates":[114.529991,38.047001]},"properties":{"province":"河北省","city":"石家庄市","county":"长安区","community":"育才街道碧景园小区6、10、14号楼","full_address":"河北省石家庄市长安区育才街道碧景园小区6、10、14号楼","info":""}},{"type":"Feature","geometry":{"type":"Point","coordinates":[114.516426,38.080605]},"properties":{"province":"河北省","city":"石家庄市","county":"长安区","community":"胜北街道石家庄铁道大学家属院12、20、30号楼","full_address":"河北省石家庄市长安区胜北街道石家庄铁道大学家属院12、20、30号楼","info":""}},{"type":"Feature","geometry":{"type":"Point","coordinates":[114.52507,38.08711]},"properties":{"province":"河北省","city":"石家庄市","county":"长安区","community":"石泵宿舍12号楼","full_address":"河北省石家庄市长安区石泵宿舍12号楼","info":""}},{"type":"Feature","geometry":{"type":"Point","coordinates":[114.51729,38.08299]},"properties":{"province":"河北省","city":"石家庄市","county":"长安区","community":"胜利北街277号9号楼","full_address":"河北省石家庄市长安区胜利北街277号9号楼","info":""}},{"type":"Feature","geometry":{"type":"Point","coordinates":[114.504799,38.075813]},"properties":{"province":"河北省","city":"石家庄市","county":"长安区","community":"银都花园2、8、28号楼","full_address":"河北省石家庄市长安区银都花园2、8、28号楼","info":""}},{"type":"Feature","geometry":{"type":"Point","coordinates":[114.55865,38.04397]},"properties":{"province":"河北省","city":"石家庄市","county":"长安区","community":"谈固街道嘉和广场3号楼","full_address":"河北省石家庄市长安区谈固街道嘉和广场3号楼","info":""}},{"type":"Feature","geometry":{"type":"Point","coordinates":[114.506721,38.062431]},"properties":{"province":"河北省","city":"石家庄市","county":"长安区","community":"建安街道宏业花园2、10号楼","full_address":"河北省石家庄市长安区建安街道宏业花园2、10号楼","info":""}},{"type":"Feature","geometry":{"type":"Point","coordinates":[114.498497,38.057541]},"properties":{"province":"河北省","city":"石家庄市","county":"长安区","community":"动力厂二宿舍2号楼","full_address":"河北省石家庄市长安区动力厂二宿舍2号楼","info":""}},{"type":"Feature","geometry":{"type":"Point","coordinates":[114.527153,38.070423]},"properties":{"province":"河北省","city":"石家庄市","county":"长安区","community":"建北街道国赫红珊湾5、6、7号楼","full_address":"河北省石家庄市长安区建北街道国赫红珊湾5、6、7号楼","info":""}},{"type":"Feature","geometry":{"type":"Point","coordinates":[114.52446,38.07133]},"properties":{"province":"河北省","city":"石家庄市","county":"长安区","community":"宏丰苑9号楼","full_address":"河北省石家庄市长安区宏丰苑9号楼","info":""}},{"type":"Feature","geometry":{"type":"Point","coordinates":[114.517258,38.072159]},"properties":{"province":"河北省","city":"石家庄市","county":"长安区","community":"万科紫郡9号楼","full_address":"河北省石家庄市长安区万科紫郡9号楼","info":""}},{"type":"Feature","geometry":{"type":"Point","coordinates":[114.51923,38.04057]},"properties":{"province":"河北省","city":"石家庄市","county":"长安区","community":"青园街道范华小区7号楼","full_address":"河北省石家庄市长安区青园街道范华小区7号楼","info":""}},{"type":"Feature","geometry":{"type":"Point","coordinates":[114.649239,38.08741]},"properties":{"province":"河北省","city":"石家庄市","county":"长安区","community":"南村镇中塔口社区福华巷1号","full_address":"河北省石家庄市长安区南村镇中塔口社区福华巷1号","info":""}},{"type":"Feature","geometry":{"type":"Point","coordinates":[114.641342,38.062466]},"properties":{"province":"河北省","city":"石家庄市","county":"长安区","community":"南村社区梨园街55号","full_address":"河北省石家庄市长安区南村社区梨园街55号","info":""}},{"type":"Feature","geometry":{"type":"Point","coordinates":[114.679146,38.085377]},"properties":{"province":"河北省","city":"石家庄市","county":"长安区","community":"南中奉社区红旗路201号","full_address":"河北省石家庄市长安区南中奉社区红旗路201号","info":""}},{"type":"Feature","geometry":{"type":"Point","coordinates":[114.54693,38.047947]},"properties":{"province":"河北省","city":"石家庄市","county":"长安区","community":"跃进街道石煤机一生活区24号楼","full_address":"河北省石家庄市长安区跃进街道石煤机一生活区24号楼","info":""}},{"type":"Feature","geometry":{"type":"Point","coordinates":[114.54646,38.05079]},"properties":{"province":"河北省","city":"石家庄市","county":"长安区","community":"工商银行宿舍1号楼","full_address":"河北省石家庄市长安区工商银行宿舍1号楼","info":""}},{"type":"Feature","geometry":{"type":"Point","coordinates":[114.495392,38.094971]},"properties":{"province":"河北省","city":"石家庄市","county":"长安区","community":"桃园镇水岸丽景1号楼","full_address":"河北省石家庄市长安区桃园镇水岸丽景1号楼","info":""}},{"type":"Feature","geometry":{"type":"Point","coordinates":[114.5009,38.102867]},"properties":{"province":"河北省","city":"石家庄市","county":"长安区","community":"高远森林城5、8、15号楼","full_address":"河北省石家庄市长安区高远森林城5、8、15号楼","info":""}},{"type":"Feature","geometry":{"type":"Point","coordinates":[114.53952,38.03647]},"properties":{"province":"河北省","city":"石家庄市","county":"长安区","community":"聚合港物流园","full_address":"河北省石家庄市长安区聚合港物流园","info":""}},{"type":"Feature","geometry":{"type":"Point","coordinates":[114.499931,38.055573]},"properties":{"province":"河北省","city":"石家庄市","county":"长安区","community":"阜康街道紫晶苑3A、3B、3C号楼","full_address":"河北省石家庄市长安区阜康街道紫晶苑3A、3B、3C号楼","info":""}},{"type":"Feature","geometry":{"type":"Point","coordinates":[114.584801,38.050049]},"properties":{"province":"河北省","city":"石家庄市","county":"长安区","community":"谈固街道白佛村白佛西小街1704号、北片楼区公路1016、1206号、集市大街600-601号","full_address":"河北省石家庄市长安区谈固街道白佛村白佛西小街1704号、北片楼区公路1016、1206号、集市大街600-601号","info":""}},{"type":"Feature","geometry":{"type":"Point","coordinates":[114.518654,38.107189]},"properties":{"province":"河北省","city":"石家庄市","county":"长安区","community":"桃园镇柳林铺小区2、3、15、18、20号楼","full_address":"河北省石家庄市长安区桃园镇柳林铺小区2、3、15、18、20号楼","info":""}},{"type":"Feature","geometry":{"type":"Point","coordinates":[114.496483,38.104416]},"properties":{"province":"河北省","city":"石家庄市","county":"长安区","community":"弘金府3、5、8、14号楼","full_address":"河北省石家庄市长安区弘金府3、5、8、14号楼","info":""}},{"type":"Feature","geometry":{"type":"Point","coordinates":[114.500549,38.094841]},"properties":{"province":"河北省","city":"石家庄市","county":"长安区","community":"中基碧域5、11、18号楼","full_address":"河北省石家庄市长安区中基碧域5、11、18号楼","info":""}},{"type":"Feature","geometry":{"type":"Point","coordinates":[114.51767,38.092709]},"properties":{"province":"河北省","city":"石家庄市","county":"长安区","community":"荣昌东花园1、2号楼","full_address":"河北省石家庄市长安区荣昌东花园1、2号楼","info":""}},{"type":"Feature","geometry":{"type":"Point","coordinates":[114.578522,38.08025]},"properties":{"province":"河北省","city":"石家庄市","county":"长安区","community":"西兆通镇南石家庄西区1、2、7号楼","full_address":"河北省石家庄市长安区西兆通镇南石家庄西区1、2、7号楼","info":""}},{"type":"Feature","geometry":{"type":"Point","coordinates":[114.5756,38.078129]},"properties":{"province":"河北省","city":"石家庄市","county":"长安区","community":"天洲视界城B区3、4、7号楼","full_address":"河北省石家庄市长安区天洲视界城B区3、4、7号楼","info":""}},{"type":"Feature","geometry":{"type":"Point","coordinates":[114.55307,38.04723]},"properties":{"province":"河北省","city":"石家庄市","county":"长安区","community":"跃进街道上东城2、3、7、8号楼","full_address":"河北省石家庄市长安区跃进街道上东城2、3、7、8号楼","info":""}},{"type":"Feature","geometry":{"type":"Point","coordinates":[114.544449,38.048328]},"properties":{"province":"河北省","city":"石家庄市","county":"长安区","community":"河东街道乐城苑西区4、5号楼","full_address":"河北省石家庄市长安区河东街道乐城苑西区4、5号楼","info":""}},{"type":"Feature","geometry":{"type":"Point","coordinates":[114.519966,38.045216]},"properties":{"province":"河北省","city":"石家庄市","county":"长安区","community":"青园街道汇景家园棉二生活区15号楼","full_address":"河北省石家庄市长安区青园街道汇景家园棉二生活区15号楼","info":""}},{"type":"Feature","geometry":{"type":"Point","coordinates":[114.518967,38.040859]},"properties":{"province":"河北省","city":"石家庄市","county":"长安区","community":"范华小区12中南宿舍","full_address":"河北省石家庄市长安区范华小区12中南宿舍","info":""}},{"type":"Feature","geometry":{"type":"Point","coordinates":[114.515366,38.064095]},"properties":{"province":"河北省","city":"石家庄市","county":"长安区","community":"建北街道花园小区A区1、10、11、12、13号楼","full_address":"河北省石家庄市长安区建北街道花园小区A区1、10、11、12、13号楼","info":""}},{"type":"Feature","geometry":{"type":"Point","coordinates":[114.523468,38.046402]},"properties":{"province":"河北省","city":"石家庄市","county":"长安区","community":"广安街道棉三小区26、48、49、50、71、74号楼","full_address":"河北省石家庄市长安区广安街道棉三小区26、48、49、50、71、74号楼","info":""}},{"type":"Feature","geometry":{"type":"Point","coordinates":[114.524292,38.049469]},"properties":{"province":"河北省","city":"石家庄市","county":"长安区","community":"棉四小区22、30、31、34、36号楼","full_address":"河北省石家庄市长安区棉四小区22、30、31、34、36号楼","info":""}},{"type":"Feature","geometry":{"type":"Point","coordinates":[114.532898,38.069592]},"properties":{"province":"河北省","city":"石家庄市","county":"长安区","community":"长丰街道仁华家园3、4、5、6号楼","full_address":"河北省石家庄市长安区长丰街道仁华家园3、4、5、6号楼","info":""}},{"type":"Feature","geometry":{"type":"Point","coordinates":[114.55542,38.059471]},"properties":{"province":"河北省","city":"石家庄市","county":"长安区","community":"长丰街道紫晶悦城2号地10号楼1单元、11号楼1单元，7号地1号楼1单元、2、3号楼，9号地2号楼、8号楼2单元，12号地2号楼1单元、6号楼1单元，16号地1号楼2单元、3号楼","full_address":"河北省石家庄市长安区长丰街道紫晶悦城2号地10号楼1单元、11号楼1单元，7号地1号楼1单元、2、3号楼，9号地2号楼、8号楼2单元，12号地2号楼1单元、6号楼1单元，16号地1号楼2单元、3号楼","info":""}},{"type":"Feature","geometry":{"type":"Point","coordinates":[114.571674,38.067031]},"properties":{"province":"河北省","city":"石家庄市","county":"长安区","community":"秋景怡园西区6、11号楼","full_address":"河北省石家庄市长安区秋景怡园西区6、11号楼","info":""}},{"type":"Feature","geometry":{"type":"Point","coordinates":[114.542725,38.075062]},"properties":{"province":"河北省","city":"石家庄市","county":"长安区","community":"福华家园1、4号楼","full_address":"河北省石家庄市长安区福华家园1、4号楼","info":""}},{"type":"Feature","geometry":{"type":"Point","coordinates":[114.520226,38.076946]},"properties":{"province":"河北省","city":"石家庄市","county":"长安区","community":"北城国际C区6、7号楼,北城国际B区1、8、9、14号楼","full_address":"河北省石家庄市长安区北城国际C区6、7号楼,北城国际B区1、8、9、14号楼","info":""}},{"type":"Feature","geometry":{"type":"Point","coordinates":[114.503838,38.088863]},"properties":{"province":"河北省","city":"石家庄市","county":"长安区","community":"柳董庄南区29号楼","full_address":"河北省石家庄市长安区柳董庄南区29号楼","info":""}},{"type":"Feature","geometry":{"type":"Point","coordinates":[114.519768,38.118031]},"properties":{"province":"河北省","city":"石家庄市","county":"长安区","community":"国际总部花园1号楼","full_address":"河北省石家庄市长安区国际总部花园1号楼","info":""}},{"type":"Feature","geometry":{"type":"Point","coordinates":[114.5665,38.04616]},"properties":{"province":"河北省","city":"石家庄市","county":"长安区","community":"谈固街道瑞城A区5号楼1单元、6号楼2单元、C区3号楼1单元、6号楼1单元","full_address":"河北省石家庄市长安区谈固街道瑞城A区5号楼1单元、6号楼2单元、C区3号楼1单元、6号楼1单元","info":""}},{"type":"Feature","geometry":{"type":"Point","coordinates":[114.571289,38.052502]},"properties":{"province":"河北省","city":"石家庄市","county":"长安区","community":"瑞府小区1、2、3、4、12、13号楼","full_address":"河北省石家庄市长安区瑞府小区1、2、3、4、12、13号楼","info":""}},{"type":"Feature","geometry":{"type":"Point","coordinates":[114.575539,38.044914]},"properties":{"province":"河北省","city":"石家庄市","county":"长安区","community":"金谈固家园月坛园8、12号楼、地坛园14号楼2单元、日坛园1号楼2单元","full_address":"河北省石家庄市长安区金谈固家园月坛园8、12号楼、地坛园14号楼2单元、日坛园1号楼2单元","info":""}},{"type":"Feature","geometry":{"type":"Point","coordinates":[114.573235,38.041985]},"properties":{"province":"河北省","city":"石家庄市","county":"长安区","community":"谈固新村2排9号","full_address":"河北省石家庄市长安区谈固新村2排9号","info":""}},{"type":"Feature","geometry":{"type":"Point","coordinates":[114.584801,38.050049]},"properties":{"province":"河北省","city":"石家庄市","county":"长安区","community":"白佛村1988号、西环路4排11号","full_address":"河北省石家庄市长安区白佛村1988号、西环路4排11号","info":""}},{"type":"Feature","geometry":{"type":"Point","coordinates":[114.519966,38.045216]},"properties":{"province":"河北省","city":"石家庄市","county":"长安区","community":"青园街道汇景家园棉二生活区3号楼1单元、7号楼3单元、16号楼、33号楼1单元、38号楼2单元、53号楼4单元","full_address":"河北省石家庄市长安区青园街道汇景家园棉二生活区3号楼1单元、7号楼3单元、16号楼、33号楼1单元、38号楼2单元、53号楼4单元","info":""}},{"type":"Feature","geometry":{"type":"Point","coordinates":[114.517784,38.038342]},"properties":{"province":"河北省","city":"石家庄市","county":"长安区","community":"范西路新华书店宿舍3号楼1单元","full_address":"河北省石家庄市长安区范西路新华书店宿舍3号楼1单元","info":""}},{"type":"Feature","geometry":{"type":"Point","coordinates":[114.517296,38.049873]},"properties":{"province":"河北省","city":"石家庄市","county":"长安区","community":"谈阁北区园东苑1号楼3单元、3号楼7单元、9号楼1单元","full_address":"河北省石家庄市长安区谈阁北区园东苑1号楼3单元、3号楼7单元、9号楼1单元","info":""}},{"type":"Feature","geometry":{"type":"Point","coordinates":[114.544449,38.048328]},"properties":{"province":"河北省","city":"石家庄市","county":"长安区","community":"乐城苑西区1号楼1单元、2单元","full_address":"河北省石家庄市长安区乐城苑西区1号楼1单元、2单元","info":""}},{"type":"Feature","geometry":{"type":"Point","coordinates":[114.53952,38.03647]},"properties":{"province":"河北省","city":"石家庄市","county":"长安区","community":"81号院4号楼2单元、11号楼1单元","full_address":"河北省石家庄市长安区81号院4号楼2单元、11号楼1单元","info":""}},{"type":"Feature","geometry":{"type":"Point","coordinates":[114.543893,38.043596]},"properties":{"province":"河北省","city":"石家庄市","county":"长安区","community":"河纺小区北区27号楼2单元、3单元、33号楼3单元、37号楼2单元","full_address":"河北省石家庄市长安区河纺小区北区27号楼2单元、3单元、33号楼3单元、37号楼2单元","info":""}},{"type":"Feature","geometry":{"type":"Point","coordinates":[114.548462,38.040447]},"properties":{"province":"河北省","city":"石家庄市","county":"长安区","community":"水泵厂宿舍西院10号楼2单元、15号楼2单元","full_address":"河北省石家庄市长安区水泵厂宿舍西院10号楼2单元、15号楼2单元","info":""}},{"type":"Feature","geometry":{"type":"Point","coordinates":[114.5568,38.04401]},"properties":{"province":"河北省","city":"石家庄市","county":"长安区","community":"尚达家园4号楼1单元","full_address":"河北省石家庄市长安区尚达家园4号楼1单元","info":""}},{"type":"Feature","geometry":{"type":"Point","coordinates":[114.507042,38.048538]},"properties":{"province":"河北省","city":"石家庄市","county":"长安区","community":"中山东路街道银宏花苑4、11、号楼、16号楼9单元","full_address":"河北省石家庄市长安区中山东路街道银宏花苑4、11、号楼、16号楼9单元","info":""}},{"type":"Feature","geometry":{"type":"Point","coordinates":[114.508315,38.047487]},"properties":{"province":"河北省","city":"石家庄市","county":"长安区","community":"新源燕府2号楼","full_address":"河北省石家庄市长安区新源燕府2号楼","info":""}},{"type":"Feature","geometry":{"type":"Point","coordinates":[114.506264,38.049492]},"properties":{"province":"河北省","city":"石家庄市","county":"长安区","community":"金恒花园2、3号楼","full_address":"河北省石家庄市长安区金恒花园2、3号楼","info":""}},{"type":"Feature","geometry":{"type":"Point","coordinates":[114.56443,38.081425]},"properties":{"province":"河北省","city":"石家庄市","county":"长安区","community":"富瀛苏园北区2、3、4、6、7、9号楼、南区14、15、17、18、21、23、24号楼","full_address":"河北省石家庄市长安区富瀛苏园北区2、3、4、6、7、9号楼、南区14、15、17、18、21、23、24号楼","info":""}},{"type":"Feature","geometry":{"type":"Point","coordinates":[114.53566,38.094608]},"properties":{"province":"河北省","city":"石家庄市","county":"长安区","community":"东古城新村1、3、4号楼","full_address":"河北省石家庄市长安区东古城新村1、3、4号楼","info":""}},{"type":"Feature","geometry":{"type":"Point","coordinates":[114.557888,38.086291]},"properties":{"province":"河北省","city":"石家庄市","county":"长安区","community":"南高营回迁三区26、27号楼","full_address":"河北省石家庄市长安区南高营回迁三区26、27号楼","info":""}},{"type":"Feature","geometry":{"type":"Point","coordinates":[114.562294,38.086632]},"properties":{"province":"河北省","city":"石家庄市","county":"长安区","community":"恒大御景半岛25号楼","full_address":"河北省石家庄市长安区恒大御景半岛25号楼","info":""}},{"type":"Feature","geometry":{"type":"Point","coordinates":[114.515404,38.063972]},"properties":{"province":"河北省","city":"石家庄市","county":"长安区","community":"建北街道花园小区A片","full_address":"河北省石家庄市长安区建北街道花园小区A片","info":""}},{"type":"Feature","geometry":{"type":"Point","coordinates":[114.520248,38.050919]},"properties":{"province":"河北省","city":"石家庄市","county":"长安区","community":"谈后小区1、2、7、12、13、14、15、18号楼","full_address":"河北省石家庄市长安区谈后小区1、2、7、12、13、14、15、18号楼","info":""}},{"type":"Feature","geometry":{"type":"Point","coordinates":[114.514351,38.072399]},"properties":{"province":"河北省","city":"石家庄市","county":"长安区","community":"尚乘源4、7、10、12、15号楼","full_address":"河北省石家庄市长安区尚乘源4、7、10、12、15号楼","info":""}},{"type":"Feature","geometry":{"type":"Point","coordinates":[114.527153,38.070423]},"properties":{"province":"河北省","city":"石家庄市","county":"长安区","community":"国赫红珊湾4号楼","full_address":"河北省石家庄市长安区国赫红珊湾4号楼","info":""}},{"type":"Feature","geometry":{"type":"Point","coordinates":[114.519241,38.070992]},"properties":{"province":"河北省","city":"石家庄市","county":"长安区","community":"北城国际南区17、18号楼","full_address":"河北省石家庄市长安区北城国际南区17、18号楼","info":""}},{"type":"Feature","geometry":{"type":"Point","coordinates":[114.517258,38.072159]},"properties":{"province":"河北省","city":"石家庄市","county":"长安区","community":"万科紫郡8号楼","full_address":"河北省石家庄市长安区万科紫郡8号楼","info":""}},{"type":"Feature","geometry":{"type":"Point","coordinates":[114.548477,38.056393]},"properties":{"province":"河北省","city":"石家庄市","county":"长安区","community":"跃进街道和华家园2、3号楼","full_address":"河北省石家庄市长安区跃进街道和华家园2、3号楼","info":""}},{"type":"Feature","geometry":{"type":"Point","coordinates":[114.54326,38.05091]},"properties":{"province":"河北省","city":"石家庄市","county":"长安区","community":"冀兴尊园12号楼1单元","full_address":"河北省石家庄市长安区冀兴尊园12号楼1单元","info":""}},{"type":"Feature","geometry":{"type":"Point","coordinates":[114.54274,38.05244]},"properties":{"province":"河北省","city":"石家庄市","county":"长安区","community":"书香华苑9号楼1单元","full_address":"河北省石家庄市长安区书香华苑9号楼1单元","info":""}},{"type":"Feature","geometry":{"type":"Point","coordinates":[114.55597,38.05177]},"properties":{"province":"河北省","city":"石家庄市","county":"长安区","community":"简筑家园4号楼1单元","full_address":"河北省石家庄市长安区简筑家园4号楼1单元","info":""}},{"type":"Feature","geometry":{"type":"Point","coordinates":[114.55788,38.0508]},"properties":{"province":"河北省","city":"石家庄市","county":"长安区","community":"卓达明郡东区7号楼1单元","full_address":"河北省石家庄市长安区卓达明郡东区7号楼1单元","info":""}},{"type":"Feature","geometry":{"type":"Point","coordinates":[114.498405,38.05381]},"properties":{"province":"河北省","city":"石家庄市","county":"长安区","community":"阜康街道自由港小区","full_address":"河北省石家庄市长安区阜康街道自由港小区","info":""}},{"type":"Feature","geometry":{"type":"Point","coordinates":[114.502098,38.06123]},"properties":{"province":"河北省","city":"石家庄市","county":"长安区","community":"神州嘉园2、9、13、15、18、26、27号楼","full_address":"河北省石家庄市长安区神州嘉园2、9、13、15、18、26、27号楼","info":""}},{"type":"Feature","geometry":{"type":"Point","coordinates":[114.498512,38.051151]},"properties":{"province":"河北省","city":"石家庄市","county":"长安区","community":"栗新小区回迁商品楼","full_address":"河北省石家庄市长安区栗新小区回迁商品楼","info":""}},{"type":"Feature","geometry":{"type":"Point","coordinates":[114.513687,38.072182]},"properties":{"province":"河北省","city":"石家庄市","county":"长安区","community":"新阳小区1、2、5、9、10号楼","full_address":"河北省石家庄市长安区新阳小区1、2、5、9、10号楼","info":""}},{"type":"Feature","geometry":{"type":"Point","coordinates":[114.504189,38.066673]},"properties":{"province":"河北省","city":"石家庄市","county":"长安区","community":"七四二零南苑小区3、4、5、7号楼","full_address":"河北省石家庄市长安区七四二零南苑小区3、4、5、7号楼","info":""}},{"type":"Feature","geometry":{"type":"Point","coordinates":[114.496696,38.055679]},"properties":{"province":"河北省","city":"石家庄市","county":"长安区","community":"明日郡4、6、7号楼","full_address":"河北省石家庄市长安区明日郡4、6、7号楼","info":""}},{"type":"Feature","geometry":{"type":"Point","coordinates":[114.537384,38.049076]},"properties":{"province":"河北省","city":"石家庄市","county":"长安区","community":"育才街道化肥三区22号楼4单元","full_address":"河北省石家庄市长安区育才街道化肥三区22号楼4单元","info":""}},{"type":"Feature","geometry":{"type":"Point","coordinates":[119.64759,29.07812]},"properties":{"province":"河北省","city":"石家庄市","county":"长安区","community":"金华北区3号楼3单元","full_address":"河北省石家庄市长安区金华北区3号楼3单元","info":""}},{"type":"Feature","geometry":{"type":"Point","coordinates":[114.532837,38.059589]},"properties":{"province":"河北省","city":"石家庄市","county":"长安区","community":"静和园1号楼1单元","full_address":"河北省石家庄市长安区静和园1号楼1单元","info":""}},{"type":"Feature","geometry":{"type":"Point","coordinates":[114.530792,38.05286]},"properties":{"province":"河北省","city":"石家庄市","county":"长安区","community":"元泰嘉园5号楼1单元","full_address":"河北省石家庄市长安区元泰嘉园5号楼1单元","info":""}},{"type":"Feature","geometry":{"type":"Point","coordinates":[114.53632,38.04637]},"properties":{"province":"河北省","city":"石家庄市","county":"长安区","community":"医科大学宿舍17号楼3单元","full_address":"河北省石家庄市长安区医科大学宿舍17号楼3单元","info":""}},{"type":"Feature","geometry":{"type":"Point","coordinates":[114.50372,38.05511]},"properties":{"province":"河北省","city":"石家庄市","county":"长安区","community":"建安街道荣景园2号楼、11号楼2单元、15号楼1单元、16号楼3单元、22号楼2单元","full_address":"河北省石家庄市长安区建安街道荣景园2号楼、11号楼2单元、15号楼1单元、16号楼3单元、22号楼2单元","info":""}},{"type":"Feature","geometry":{"type":"Point","coordinates":[114.502281,38.051441]},"properties":{"province":"河北省","city":"石家庄市","county":"长安区","community":"中基礼域8号楼2单元、18号楼2单元、21号楼1、2单元、26号楼2单元、28号楼2单元","full_address":"河北省石家庄市长安区中基礼域8号楼2单元、18号楼2单元、21号楼1、2单元、26号楼2单元、28号楼2单元","info":""}},{"type":"Feature","geometry":{"type":"Point","coordinates":[114.50544,38.05958]},"properties":{"province":"河北省","city":"石家庄市","county":"长安区","community":"御景园2号楼3单元、3号楼3单元、8号楼2单元、9号楼2单元","full_address":"河北省石家庄市长安区御景园2号楼3单元、3号楼3单元、8号楼2单元、9号楼2单元","info":""}},{"type":"Feature","geometry":{"type":"Point","coordinates":[114.50967,38.0661]},"properties":{"province":"河北省","city":"石家庄市","county":"长安区","community":"建北小区1号楼2单元、3号楼3单元","full_address":"河北省石家庄市长安区建北小区1号楼2单元、3号楼3单元","info":""}},{"type":"Feature","geometry":{"type":"Point","coordinates":[114.658783,38.087273]},"properties":{"province":"河北省","city":"石家庄市","county":"长安区","community":"南村镇东塔口社区金华胡同1号","full_address":"河北省石家庄市长安区南村镇东塔口社区金华胡同1号","info":""}},{"type":"Feature","geometry":{"type":"Point","coordinates":[114.647331,38.050182]},"properties":{"province":"河北省","city":"石家庄市","county":"长安区","community":"吴家营社区团结路27号","full_address":"河北省石家庄市长安区吴家营社区团结路27号","info":""}},{"type":"Feature","geometry":{"type":"Point","coordinates":[114.64129,38.05858]},"properties":{"province":"河北省","city":"石家庄市","county":"长安区","community":"南村社区新南家园1号楼3单元","full_address":"河北省石家庄市长安区南村社区新南家园1号楼3单元","info":""}},{"type":"Feature","geometry":{"type":"Point","coordinates":[114.574593,38.080963]},"properties":{"province":"河北省","city":"石家庄市","county":"长安区","community":"西兆通镇天洲视界城D区1号楼2单元、6号楼2单元","full_address":"河北省石家庄市长安区西兆通镇天洲视界城D区1号楼2单元、6号楼2单元","info":""}},{"type":"Feature","geometry":{"type":"Point","coordinates":[114.581805,38.074443]},"properties":{"province":"河北省","city":"石家庄市","county":"长安区","community":"观天下1号楼3单元、6号楼1单元、15号楼2单元","full_address":"河北省石家庄市长安区观天下1号楼3单元、6号楼1单元、15号楼2单元","info":""}},{"type":"Feature","geometry":{"type":"Point","coordinates":[114.57763,38.06955]},"properties":{"province":"河北省","city":"石家庄市","county":"长安区","community":"水木青城21号楼1单元","full_address":"河北省石家庄市长安区水木青城21号楼1单元","info":""}},{"type":"Feature","geometry":{"type":"Point","coordinates":[114.493118,38.08873]},"properties":{"province":"河北省","city":"石家庄市","county":"长安区","community":"北城公馆B座1单元、2单元","full_address":"河北省石家庄市长安区北城公馆B座1单元、2单元","info":""}},{"type":"Feature","geometry":{"type":"Point","coordinates":[114.51635,38.08559]},"properties":{"province":"河北省","city":"石家庄市","county":"长安区","community":"财富天下3号楼1单元、4号楼1单元","full_address":"河北省石家庄市长安区财富天下3号楼1单元、4号楼1单元","info":""}},{"type":"Feature","geometry":{"type":"Point","coordinates":[114.513474,38.122608]},"properties":{"province":"河北省","city":"石家庄市","county":"长安区","community":"航测生活区16号楼3单元","full_address":"河北省石家庄市长安区航测生活区16号楼3单元","info":""}},{"type":"Feature","geometry":{"type":"Point","coordinates":[114.594841,38.156483]},"properties":{"province":"河北省","city":"石家庄市","county":"长安区","community":"石铝小区1号楼4单元,2号楼2单元","full_address":"河北省石家庄市长安区石铝小区1号楼4单元,2号楼2单元","info":""}},{"type":"Feature","geometry":{"type":"Point","coordinates":[114.49405,38.10331]},"properties":{"province":"河北省","city":"石家庄市","county":"长安区","community":"鑫龙湾小区3号楼3单元","full_address":"河北省石家庄市长安区鑫龙湾小区3号楼3单元","info":""}},{"type":"Feature","geometry":{"type":"Point","coordinates":[114.521507,38.085659]},"properties":{"province":"河北省","city":"石家庄市","county":"长安区","community":"胜北街道庄窠小区一号路、二号楼、三号路、四号路","full_address":"河北省石家庄市长安区胜北街道庄窠小区一号路、二号楼、三号路、四号路","info":""}},{"type":"Feature","geometry":{"type":"Point","coordinates":[114.571297,38.038345]},"properties":{"province":"河北省","city":"石家庄市","county":"长安区","community":"石纺小区一区、二区、三区、四区","full_address":"河北省石家庄市长安区石纺小区一区、二区、三区、四区","info":""}},{"type":"Feature","geometry":{"type":"Point","coordinates":[114.507103,38.07225]},"properties":{"province":"河北省","city":"石家庄市","county":"长安区","community":"国瑞园西片、北片","full_address":"河北省石家庄市长安区国瑞园西片、北片","info":""}},{"type":"Feature","geometry":{"type":"Point","coordinates":[114.521179,38.09251]},"properties":{"province":"河北省","city":"石家庄市","county":"长安区","community":"化肥四区（东柳路）南区、北区","full_address":"河北省石家庄市长安区化肥四区（东柳路）南区、北区","info":""}},{"type":"Feature","geometry":{"type":"Point","coordinates":[114.52506,38.08902]},"properties":{"province":"河北省","city":"石家庄市","county":"长安区","community":"石泵宿舍2号楼、10号楼、14号楼","full_address":"河北省石家庄市长安区石泵宿舍2号楼、10号楼、14号楼","info":""}},{"type":"Feature","geometry":{"type":"Point","coordinates":[114.52486,38.04575]},"properties":{"province":"河北省","city":"石家庄市","county":"长安区","community":"广安街道谈南路一印宿舍8号楼、8号楼南侧平房","full_address":"河北省石家庄市长安区广安街道谈南路一印宿舍8号楼、8号楼南侧平房","info":""}},{"type":"Feature","geometry":{"type":"Point","coordinates":[114.523468,38.046402]},"properties":{"province":"河北省","city":"石家庄市","county":"长安区","community":"棉三生活区33号楼4单元","full_address":"河北省石家庄市长安区棉三生活区33号楼4单元","info":""}},{"type":"Feature","geometry":{"type":"Point","coordinates":[114.497101,38.044102]},"properties":{"province":"河北省","city":"石家庄市","county":"长安区","community":"荣盛华府A区3号楼、D区5号楼一单元","full_address":"河北省石家庄市长安区荣盛华府A区3号楼、D区5号楼一单元","info":""}},{"type":"Feature","geometry":{"type":"Point","coordinates":[114.521271,38.055481]},"properties":{"province":"河北省","city":"石家庄市","county":"长安区","community":"名门社区9、10号楼","full_address":"河北省石家庄市长安区名门社区9、10号楼","info":""}},{"type":"Feature","geometry":{"type":"Point","coordinates":[114.522758,38.046963]},"properties":{"province":"河北省","city":"石家庄市","county":"长安区","community":"广安大厦西单元","full_address":"河北省石家庄市长安区广安大厦西单元","info":""}},{"type":"Feature","geometry":{"type":"Point","coordinates":[114.404594,38.061531]},"properties":{"province":"河北省","city":"石家庄市","county":"桥西区","community":"留营街道良城逸园小区","full_address":"河北省石家庄市桥西区留营街道良城逸园小区","info":""}},{"type":"Feature","geometry":{"type":"Point","coordinates":[114.46104,38.00407]},"properties":{"province":"河北省","city":"石家庄市","county":"桥西区","community":"联邦外国语学校","full_address":"河北省石家庄市桥西区联邦外国语学校","info":""}},{"type":"Feature","geometry":{"type":"Point","coordinates":[114.448982,38.03532]},"properties":{"province":"河北省","city":"石家庄市","county":"桥西区","community":"友谊街道市场园西园","full_address":"河北省石家庄市桥西区友谊街道市场园西园","info":""}},{"type":"Feature","geometry":{"type":"Point","coordinates":[114.461639,37.978779]},"properties":{"province":"河北省","city":"石家庄市","county":"桥西区","community":"红旗街道河北工业职业技术大学","full_address":"河北省石家庄市桥西区红旗街道河北工业职业技术大学","info":""}},{"type":"Feature","geometry":{"type":"Point","coordinates":[114.456085,38.011703]},"properties":{"province":"河北省","city":"石家庄市","county":"桥西区","community":"河北师范大学附属民族学院","full_address":"河北省石家庄市桥西区河北师范大学附属民族学院","info":""}},{"type":"Feature","geometry":{"type":"Point","coordinates":[114.429672,38.049931]},"properties":{"province":"河北省","city":"石家庄市","county":"桥西区","community":"留营街道创新天卉学校","full_address":"河北省石家庄市桥西区留营街道创新天卉学校","info":""}},{"type":"Feature","geometry":{"type":"Point","coordinates":[114.4186,38.05617]},"properties":{"province":"河北省","city":"石家庄市","county":"桥西区","community":"南简良东区22、24号楼","full_address":"河北省石家庄市桥西区南简良东区22、24号楼","info":""}},{"type":"Feature","geometry":{"type":"Point","coordinates":[114.503983,38.02177]},"properties":{"province":"河北省","city":"石家庄市","county":"桥西区","community":"东风街道石运小区3号楼","full_address":"河北省石家庄市桥西区东风街道石运小区3号楼","info":""}},{"type":"Feature","geometry":{"type":"Point","coordinates":[114.426705,38.031368]},"properties":{"province":"河北省","city":"石家庄市","county":"桥西区","community":"西里街道北杜旧村","full_address":"河北省石家庄市桥西区西里街道北杜旧村","info":""}},{"type":"Feature","geometry":{"type":"Point","coordinates":[114.46856,37.99557]},"properties":{"province":"河北省","city":"石家庄市","county":"桥西区","community":"红旗街道滨河新城小区39号楼","full_address":"河北省石家庄市桥西区红旗街道滨河新城小区39号楼","info":""}},{"type":"Feature","geometry":{"type":"Point","coordinates":[114.49759,38.04087]},"properties":{"province":"河北省","city":"石家庄市","county":"桥西区","community":"东华街道天滋嘉鲤南区2号楼","full_address":"河北省石家庄市桥西区东华街道天滋嘉鲤南区2号楼","info":""}},{"type":"Feature","geometry":{"type":"Point","coordinates":[114.426384,38.062454]},"properties":{"province":"河北省","city":"石家庄市","county":"桥西区","community":"留营街道东简良旧村","full_address":"河北省石家庄市桥西区留营街道东简良旧村","info":""}},{"type":"Feature","geometry":{"type":"Point","coordinates":[114.415169,38.061302]},"properties":{"province":"河北省","city":"石家庄市","county":"桥西区","community":"良兴美嘉城30、31号楼","full_address":"河北省石家庄市桥西区良兴美嘉城30、31号楼","info":""}},{"type":"Feature","geometry":{"type":"Point","coordinates":[114.490364,38.044514]},"properties":{"province":"河北省","city":"石家庄市","county":"桥西区","community":"中山街道金裕公寓","full_address":"河北省石家庄市桥西区中山街道金裕公寓","info":""}},{"type":"Feature","geometry":{"type":"Point","coordinates":[114.487213,38.055962]},"properties":{"province":"河北省","city":"石家庄市","county":"桥西区","community":"友谊街道和平家园7、8、16号楼","full_address":"河北省石家庄市桥西区友谊街道和平家园7、8、16号楼","info":""}},{"type":"Feature","geometry":{"type":"Point","coordinates":[114.495155,38.04044]},"properties":{"province":"河北省","city":"石家庄市","county":"桥西区","community":"东华街道中山华府丁香院","full_address":"河北省石家庄市桥西区东华街道中山华府丁香院","info":""}},{"type":"Feature","geometry":{"type":"Point","coordinates":[114.482635,38.097149]},"properties":{"province":"河北省","city":"石家庄市","county":"新华区","community":"赵佗路街道赵二街小区","full_address":"河北省石家庄市新华区赵佗路街道赵二街小区","info":""}},{"type":"Feature","geometry":{"type":"Point","coordinates":[114.482231,38.079563]},"properties":{"province":"河北省","city":"石家庄市","county":"新华区","community":"石岗街道柏林北区","full_address":"河北省石家庄市新华区石岗街道柏林北区","info":""}},{"type":"Feature","geometry":{"type":"Point","coordinates":[114.466949,38.09201]},"properties":{"province":"河北省","city":"石家庄市","county":"新华区","community":"赵陵铺路街道赵一街西区","full_address":"河北省石家庄市新华区赵陵铺路街道赵一街西区","info":""}},{"type":"Feature","geometry":{"type":"Point","coordinates":[114.485023,38.052528]},"properties":{"province":"河北省","city":"石家庄市","county":"新华区","community":"新华路街道宁安小区","full_address":"河北省石家庄市新华区新华路街道宁安小区","info":""}},{"type":"Feature","geometry":{"type":"Point","coordinates":[114.461227,38.100029]},"properties":{"province":"河北省","city":"石家庄市","county":"新华区","community":"赵陵铺路街道都市阳光小区","full_address":"河北省石家庄市新华区赵陵铺路街道都市阳光小区","info":""}},{"type":"Feature","geometry":{"type":"Point","coordinates":[114.471909,38.109261]},"properties":{"province":"河北省","city":"石家庄市","county":"新华区","community":"杜北街道乾园小区","full_address":"河北省石家庄市新华区杜北街道乾园小区","info":""}},{"type":"Feature","geometry":{"type":"Point","coordinates":[114.46846,38.111351]},"properties":{"province":"河北省","city":"石家庄市","county":"新华区","community":"南高基小区","full_address":"河北省石家庄市新华区南高基小区","info":""}},{"type":"Feature","geometry":{"type":"Point","coordinates":[114.47171,38.09398]},"properties":{"province":"河北省","city":"石家庄市","county":"新华区","community":"赵陵铺路街道新苑小区9、42号楼","full_address":"河北省石家庄市新华区赵陵铺路街道新苑小区9、42号楼","info":""}},{"type":"Feature","geometry":{"type":"Point","coordinates":[114.464478,38.095821]},"properties":{"province":"河北省","city":"石家庄市","county":"新华区","community":"世纪康城16、20号楼","full_address":"河北省石家庄市新华区世纪康城16、20号楼","info":""}},{"type":"Feature","geometry":{"type":"Point","coordinates":[114.456558,38.101051]},"properties":{"province":"河北省","city":"石家庄市","county":"新华区","community":"丽都河畔12、18、19号楼","full_address":"河北省石家庄市新华区丽都河畔12、18、19号楼","info":""}},{"type":"Feature","geometry":{"type":"Point","coordinates":[114.47303,38.098022]},"properties":{"province":"河北省","city":"石家庄市","county":"新华区","community":"北郡B区2、4、9号楼","full_address":"河北省石家庄市新华区北郡B区2、4、9号楼","info":""}},{"type":"Feature","geometry":{"type":"Point","coordinates":[114.467842,38.095814]},"properties":{"province":"河北省","city":"石家庄市","county":"新华区","community":"北郡C区6、9、12号楼","full_address":"河北省石家庄市新华区北郡C区6、9、12号楼","info":""}},{"type":"Feature","geometry":{"type":"Point","coordinates":[114.411583,38.078503]},"properties":{"province":"河北省","city":"石家庄市","county":"新华区","community":"大郭街道水印城2、10号楼","full_address":"河北省石家庄市新华区大郭街道水印城2、10号楼","info":""}},{"type":"Feature","geometry":{"type":"Point","coordinates":[114.405479,38.085934]},"properties":{"province":"河北省","city":"石家庄市","county":"新华区","community":"聚和苑西区1号楼","full_address":"河北省石家庄市新华区聚和苑西区1号楼","info":""}},{"type":"Feature","geometry":{"type":"Point","coordinates":[114.486221,38.049744]},"properties":{"province":"河北省","city":"石家庄市","county":"新华区","community":"新华路街道北后东区14、15、18号楼","full_address":"河北省石家庄市新华区新华路街道北后东区14、15、18号楼","info":""}},{"type":"Feature","geometry":{"type":"Point","coordinates":[114.487137,38.048859]},"properties":{"province":"河北省","city":"石家庄市","county":"新华区","community":"美麟花园1、6号楼","full_address":"河北省石家庄市新华区美麟花园1、6号楼","info":""}},{"type":"Feature","geometry":{"type":"Point","coordinates":[114.443489,38.120815]},"properties":{"province":"河北省","city":"石家庄市","county":"新华区","community":"杜北街道御江南小区35、39号楼","full_address":"河北省石家庄市新华区杜北街道御江南小区35、39号楼","info":""}},{"type":"Feature","geometry":{"type":"Point","coordinates":[114.443123,38.127258]},"properties":{"province":"河北省","city":"石家庄市","county":"新华区","community":"香水岸3、4、10号楼","full_address":"河北省石家庄市新华区香水岸3、4、10号楼","info":""}},{"type":"Feature","geometry":{"type":"Point","coordinates":[114.456367,38.106216]},"properties":{"province":"河北省","city":"石家庄市","county":"新华区","community":"润佳花园小区17、18号楼","full_address":"河北省石家庄市新华区润佳花园小区17、18号楼","info":""}},{"type":"Feature","geometry":{"type":"Point","coordinates":[114.480545,38.092117]},"properties":{"province":"河北省","city":"石家庄市","county":"新华区","community":"赵佗路街道华瑞苑小区","full_address":"河北省石家庄市新华区赵佗路街道华瑞苑小区","info":""}},{"type":"Feature","geometry":{"type":"Point","coordinates":[114.485374,38.087906]},"properties":{"province":"河北省","city":"石家庄市","county":"新华区","community":"明珠花苑小区2、8、11、15、20号楼","full_address":"河北省石家庄市新华区明珠花苑小区2、8、11、15、20号楼","info":""}},{"type":"Feature","geometry":{"type":"Point","coordinates":[114.474159,38.10054]},"properties":{"province":"河北省","city":"石家庄市","county":"新华区","community":"赵二街花苑小区1、3、10号楼","full_address":"河北省石家庄市新华区赵二街花苑小区1、3、10号楼","info":""}},{"type":"Feature","geometry":{"type":"Point","coordinates":[114.487648,38.094475]},"properties":{"province":"河北省","city":"石家庄市","county":"新华区","community":"安康花园小区1、2、3号楼","full_address":"河北省石家庄市新华区安康花园小区1、2、3号楼","info":""}},{"type":"Feature","geometry":{"type":"Point","coordinates":[114.488808,38.087952]},"properties":{"province":"河北省","city":"石家庄市","county":"新华区","community":"天域嘉园小区2、6、9号楼","full_address":"河北省石家庄市新华区天域嘉园小区2、6、9号楼","info":""}},{"type":"Feature","geometry":{"type":"Point","coordinates":[114.475761,38.09597]},"properties":{"province":"河北省","city":"石家庄市","county":"新华区","community":"赵陵铺路街道新苑南区","full_address":"河北省石家庄市新华区赵陵铺路街道新苑南区","info":""}},{"type":"Feature","geometry":{"type":"Point","coordinates":[114.455009,38.11771]},"properties":{"province":"河北省","city":"石家庄市","county":"新华区","community":"杜北街道西营上水园17号楼","full_address":"河北省石家庄市新华区杜北街道西营上水园17号楼","info":""}},{"type":"Feature","geometry":{"type":"Point","coordinates":[114.465889,38.072929]},"properties":{"province":"河北省","city":"石家庄市","county":"新华区","community":"东营社区（阳光胡同、幸福东路、商贸一巷、商贸二巷）","full_address":"河北省石家庄市新华区东营社区（阳光胡同、幸福东路、商贸一巷、商贸二巷）","info":""}},{"type":"Feature","geometry":{"type":"Point","coordinates":[114.489159,38.091808]},"properties":{"province":"河北省","city":"石家庄市","county":"新华区","community":"赵佗路街道红星国际2、7、11号楼","full_address":"河北省石家庄市新华区赵佗路街道红星国际2、7、11号楼","info":""}},{"type":"Feature","geometry":{"type":"Point","coordinates":[114.490532,38.092171]},"properties":{"province":"河北省","city":"石家庄市","county":"新华区","community":"水墨紫庭6、7号楼","full_address":"河北省石家庄市新华区水墨紫庭6、7号楼","info":""}},{"type":"Feature","geometry":{"type":"Point","coordinates":[114.475952,38.063053]},"properties":{"province":"河北省","city":"石家庄市","county":"新华区","community":"东焦街道工行宿舍","full_address":"河北省石家庄市新华区东焦街道工行宿舍","info":""}},{"type":"Feature","geometry":{"type":"Point","coordinates":[114.47537,38.06358]},"properties":{"province":"河北省","city":"石家庄市","county":"新华区","community":"市庄村（霞光街48号、旭光街46号、市庄路6号、大理寺胡同、兴民里胡同）","full_address":"河北省石家庄市新华区市庄村（霞光街48号、旭光街46号、市庄路6号、大理寺胡同、兴民里胡同）","info":""}},{"type":"Feature","geometry":{"type":"Point","coordinates":[114.43866,38.08162]},"properties":{"province":"河北省","city":"石家庄市","county":"新华区","community":"西三庄街道西三庄西区B5号楼1单元","full_address":"河北省石家庄市新华区西三庄街道西三庄西区B5号楼1单元","info":""}},{"type":"Feature","geometry":{"type":"Point","coordinates":[114.482964,38.047592]},"properties":{"province":"河北省","city":"石家庄市","county":"新华区","community":"新华路街道金指数B座","full_address":"河北省石家庄市新华区新华路街道金指数B座","info":""}},{"type":"Feature","geometry":{"type":"Point","coordinates":[114.45046,38.08913]},"properties":{"province":"河北省","city":"石家庄市","county":"新华区","community":"天苑街道天苑小区G区2号楼","full_address":"河北省石家庄市新华区天苑街道天苑小区G区2号楼","info":""}},{"type":"Feature","geometry":{"type":"Point","coordinates":[114.458267,38.072788]},"properties":{"province":"河北省","city":"石家庄市","county":"新华区","community":"联盟路街道万信城市花园B2号楼","full_address":"河北省石家庄市新华区联盟路街道万信城市花园B2号楼","info":""}},{"type":"Feature","geometry":{"type":"Point","coordinates":[114.473915,38.091492]},"properties":{"province":"河北省","city":"石家庄市","county":"新华区","community":"赵陵铺街道党家庄高层30号楼1单元、29号楼3单元、27号楼1、2单元、26号楼1单元、23号楼2单元、17号楼1单元","full_address":"河北省石家庄市新华区赵陵铺街道党家庄高层30号楼1单元、29号楼3单元、27号楼1、2单元、26号楼1单元、23号楼2单元、17号楼1单元","info":""}},{"type":"Feature","geometry":{"type":"Point","coordinates":[114.4673,38.090534]},"properties":{"province":"河北省","city":"石家庄市","county":"新华区","community":"党家庄多层34号楼2单元、32号楼2单元、25号楼5、2单元、12号楼2单元、2号6单元","full_address":"河北省石家庄市新华区党家庄多层34号楼2单元、32号楼2单元、25号楼5、2单元、12号楼2单元、2号6单元","info":""}},{"type":"Feature","geometry":{"type":"Point","coordinates":[114.564549,37.99165]},"properties":{"province":"河北省","city":"石家庄市","county":"裕华区","community":"裕强街道安苑小区B区3号楼","full_address":"河北省石家庄市裕华区裕强街道安苑小区B区3号楼","info":""}},{"type":"Feature","geometry":{"type":"Point","coordinates":[114.56515,38.03326]},"properties":{"province":"河北省","city":"石家庄市","county":"裕华区","community":"东苑街道槐北路粮油所小区4号楼","full_address":"河北省石家庄市裕华区东苑街道槐北路粮油所小区4号楼","info":""}},{"type":"Feature","geometry":{"type":"Point","coordinates":[114.520805,37.997898]},"properties":{"province":"河北省","city":"石家庄市","county":"裕华区","community":"裕翔街道河北师范大学","full_address":"河北省石家庄市裕华区裕翔街道河北师范大学","info":""}},{"type":"Feature","geometry":{"type":"Point","coordinates":[114.589302,37.986401]},"properties":{"province":"河北省","city":"石家庄市","county":"裕华区","community":"方村镇西京北村","full_address":"河北省石家庄市裕华区方村镇西京北村","info":""}},{"type":"Feature","geometry":{"type":"Point","coordinates":[114.51544,38.01487]},"properties":{"province":"河北省","city":"石家庄市","county":"裕华区","community":"建通街道碧水青园小区16号楼","full_address":"河北省石家庄市裕华区建通街道碧水青园小区16号楼","info":""}},{"type":"Feature","geometry":{"type":"Point","coordinates":[114.507652,38.009666]},"properties":{"province":"河北省","city":"石家庄市","county":"裕华区","community":"现代城小区7号楼","full_address":"河北省石家庄市裕华区现代城小区7号楼","info":""}},{"type":"Feature","geometry":{"type":"Point","coordinates":[114.594833,38.054142]},"properties":{"province":"河北省","city":"石家庄市","county":"裕华区","community":"裕东街道保利茉莉公馆小区","full_address":"河北省石家庄市裕华区裕东街道保利茉莉公馆小区","info":""}},{"type":"Feature","geometry":{"type":"Point","coordinates":[114.567169,37.992149]},"properties":{"province":"河北省","city":"石家庄市","county":"裕华区","community":"裕强街道安苑小区BC区","full_address":"河北省石家庄市裕华区裕强街道安苑小区BC区","info":""}},{"type":"Feature","geometry":{"type":"Point","coordinates":[114.531395,37.99498]},"properties":{"province":"河北省","city":"石家庄市","county":"裕华区","community":"建华南街道南焦新村牡丹园小区","full_address":"河北省石家庄市裕华区建华南街道南焦新村牡丹园小区","info":""}},{"type":"Feature","geometry":{"type":"Point","coordinates":[114.535706,38.004772]},"properties":{"province":"河北省","city":"石家庄市","county":"裕华区","community":"裕兴街道保利拉菲公馆10号楼保障房","full_address":"河北省石家庄市裕华区裕兴街道保利拉菲公馆10号楼保障房","info":""}},{"type":"Feature","geometry":{"type":"Point","coordinates":[114.50296,38.002621]},"properties":{"province":"河北省","city":"石家庄市","county":"裕华区","community":"建通街道盛邦花园八区公租房小区2号楼","full_address":"河北省石家庄市裕华区建通街道盛邦花园八区公租房小区2号楼","info":""}},{"type":"Feature","geometry":{"type":"Point","coordinates":[114.56546,38.035282]},"properties":{"province":"河北省","city":"石家庄市","county":"裕华区","community":"东苑街道国际丽都","full_address":"河北省石家庄市裕华区东苑街道国际丽都","info":""}},{"type":"Feature","geometry":{"type":"Point","coordinates":[114.554237,38.030499]},"properties":{"province":"河北省","city":"石家庄市","county":"裕华区","community":"省直东苑小区北院1号楼","full_address":"河北省石家庄市裕华区省直东苑小区北院1号楼","info":""}},{"type":"Feature","geometry":{"type":"Point","coordinates":[114.55442,38.010273]},"properties":{"province":"河北省","city":"石家庄市","county":"裕华区","community":"裕兴街道联邦空中花园小区2号楼","full_address":"河北省石家庄市裕华区裕兴街道联邦空中花园小区2号楼","info":""}},{"type":"Feature","geometry":{"type":"Point","coordinates":[114.560944,38.00877]},"properties":{"province":"河北省","city":"石家庄市","county":"裕华区","community":"裕强街道卓达书香园一区8、16、48、53号楼","full_address":"河北省石家庄市裕华区裕强街道卓达书香园一区8、16、48、53号楼","info":""}},{"type":"Feature","geometry":{"type":"Point","coordinates":[114.560318,38.01128]},"properties":{"province":"河北省","city":"石家庄市","county":"裕华区","community":"新天地自然康城小区22、25号楼","full_address":"河北省石家庄市裕华区新天地自然康城小区22、25号楼","info":""}},{"type":"Feature","geometry":{"type":"Point","coordinates":[114.576042,38.014961]},"properties":{"province":"河北省","city":"石家庄市","county":"裕华区","community":"国大全城小区6、18号楼","full_address":"河北省石家庄市裕华区国大全城小区6、18号楼","info":""}},{"type":"Feature","geometry":{"type":"Point","coordinates":[114.50866,37.97798]},"properties":{"province":"河北省","city":"石家庄市","county":"裕华区","community":"裕翔街道紫荆家园1号楼","full_address":"河北省石家庄市裕华区裕翔街道紫荆家园1号楼","info":""}},{"type":"Feature","geometry":{"type":"Point","coordinates":[114.513702,37.999481]},"properties":{"province":"河北省","city":"石家庄市","county":"裕华区","community":"等级面粉厂宿舍","full_address":"河北省石家庄市裕华区等级面粉厂宿舍","info":""}},{"type":"Feature","geometry":{"type":"Point","coordinates":[114.52046,38.01161]},"properties":{"province":"河北省","city":"石家庄市","county":"裕华区","community":"建通街道青南小区23号楼乡政府宿舍","full_address":"河北省石家庄市裕华区建通街道青南小区23号楼乡政府宿舍","info":""}},{"type":"Feature","geometry":{"type":"Point","coordinates":[114.50621,38.003033]},"properties":{"province":"河北省","city":"石家庄市","county":"裕华区","community":"盛邦六区8号楼","full_address":"河北省石家庄市裕华区盛邦六区8号楼","info":""}},{"type":"Feature","geometry":{"type":"Point","coordinates":[114.528046,38.020546]},"properties":{"province":"河北省","city":"石家庄市","county":"裕华区","community":"槐底街道河北地质大学家属院","full_address":"河北省石家庄市裕华区槐底街道河北地质大学家属院","info":""}},{"type":"Feature","geometry":{"type":"Point","coordinates":[114.54272,38.01676]},"properties":{"province":"河北省","city":"石家庄市","county":"裕华区","community":"世纪花园小区东区10号楼","full_address":"河北省石家庄市裕华区世纪花园小区东区10号楼","info":""}},{"type":"Feature","geometry":{"type":"Point","coordinates":[114.525726,38.026081]},"properties":{"province":"河北省","city":"石家庄市","county":"裕华区","community":"槐底二区13号楼","full_address":"河北省石家庄市裕华区槐底二区13号楼","info":""}},{"type":"Feature","geometry":{"type":"Point","coordinates":[114.498581,38.026932]},"properties":{"province":"河北省","city":"石家庄市","county":"裕华区","community":"市工商局宿舍","full_address":"河北省石家庄市裕华区市工商局宿舍","info":""}},{"type":"Feature","geometry":{"type":"Point","coordinates":[114.542,38.025871]},"properties":{"province":"河北省","city":"石家庄市","county":"裕华区","community":"万达B1北区6号楼","full_address":"河北省石家庄市裕华区万达B1北区6号楼","info":""}},{"type":"Feature","geometry":{"type":"Point","coordinates":[114.554352,37.986435]},"properties":{"province":"河北省","city":"石家庄市","county":"裕华区","community":"方村镇众美城廊桥四季B区2号楼1单元","full_address":"河北省石家庄市裕华区方村镇众美城廊桥四季B区2号楼1单元","info":""}},{"type":"Feature","geometry":{"type":"Point","coordinates":[114.559452,37.986255]},"properties":{"province":"河北省","city":"石家庄市","county":"裕华区","community":"众美城廊桥四季C区3号楼2单元","full_address":"河北省石家庄市裕华区众美城廊桥四季C区3号楼2单元","info":""}},{"type":"Feature","geometry":{"type":"Point","coordinates":[114.574211,37.980392]},"properties":{"province":"河北省","city":"石家庄市","county":"裕华区","community":"恒大雅苑D区19号楼1单元、21号楼1单元","full_address":"河北省石家庄市裕华区恒大雅苑D区19号楼1单元、21号楼1单元","info":""}},{"type":"Feature","geometry":{"type":"Point","coordinates":[114.57116,37.989067]},"properties":{"province":"河北省","city":"石家庄市","county":"裕华区","community":"方兴小区215号楼2单元、225号楼3单元","full_address":"河北省石家庄市裕华区方兴小区215号楼2单元、225号楼3单元","info":""}},{"type":"Feature","geometry":{"type":"Point","coordinates":[114.536491,37.984901]},"properties":{"province":"河北省","city":"石家庄市","county":"裕华区","community":"贾村新村B区11号楼1单元","full_address":"河北省石家庄市裕华区贾村新村B区11号楼1单元","info":""}},{"type":"Feature","geometry":{"type":"Point","coordinates":[114.57164,38.01438]},"properties":{"province":"河北省","city":"石家庄市","county":"裕华区","community":"裕强街道东方观邸小区4号楼3单元","full_address":"河北省石家庄市裕华区裕强街道东方观邸小区4号楼3单元","info":""}},{"type":"Feature","geometry":{"type":"Point","coordinates":[114.556633,38.0149]},"properties":{"province":"河北省","city":"石家庄市","county":"裕华区","community":"神兴小区1期25号楼","full_address":"河北省石家庄市裕华区神兴小区1期25号楼","info":""}},{"type":"Feature","geometry":{"type":"Point","coordinates":[114.54363,38.02938]},"properties":{"province":"河北省","city":"石家庄市","county":"裕华区","community":"东苑街道尖岭小区23号楼1单元","full_address":"河北省石家庄市裕华区东苑街道尖岭小区23号楼1单元","info":""}},{"type":"Feature","geometry":{"type":"Point","coordinates":[114.56543,38.03371]},"properties":{"province":"河北省","city":"石家庄市","county":"裕华区","community":"粮油所宿舍2号楼2单元","full_address":"河北省石家庄市裕华区粮油所宿舍2号楼2单元","info":""}},{"type":"Feature","geometry":{"type":"Point","coordinates":[114.55911,38.03562]},"properties":{"province":"河北省","city":"石家庄市","county":"裕华区","community":"裕东小区5区43号楼1单元","full_address":"河北省石家庄市裕华区裕东小区5区43号楼1单元","info":""}},{"type":"Feature","geometry":{"type":"Point","coordinates":[114.561768,38.035332]},"properties":{"province":"河北省","city":"石家庄市","county":"裕华区","community":"河北省谷子研究所宿舍","full_address":"河北省石家庄市裕华区河北省谷子研究所宿舍","info":""}},{"type":"Feature","geometry":{"type":"Point","coordinates":[114.537041,38.031891]},"properties":{"province":"河北省","city":"石家庄市","county":"裕华区","community":"25中宿舍Ｂ座3单元","full_address":"河北省石家庄市裕华区25中宿舍Ｂ座3单元","info":""}},{"type":"Feature","geometry":{"type":"Point","coordinates":[114.56881,38.0302]},"properties":{"province":"河北省","city":"石家庄市","county":"裕华区","community":"国际城三期47号楼1单元","full_address":"河北省石家庄市裕华区国际城三期47号楼1单元","info":""}},{"type":"Feature","geometry":{"type":"Point","coordinates":[114.55045,38.02923]},"properties":{"province":"河北省","city":"石家庄市","county":"裕华区","community":"豪景丽园2号楼2单元、10号楼2单元","full_address":"河北省石家庄市裕华区豪景丽园2号楼2单元、10号楼2单元","info":""}},{"type":"Feature","geometry":{"type":"Point","coordinates":[114.5574,38.03366]},"properties":{"province":"河北省","city":"石家庄市","county":"裕华区","community":"裕东小区南区70号楼1单元","full_address":"河北省石家庄市裕华区裕东小区南区70号楼1单元","info":""}},{"type":"Feature","geometry":{"type":"Point","coordinates":[114.529305,38.028763]},"properties":{"province":"河北省","city":"石家庄市","county":"裕华区","community":"省文物局宿舍","full_address":"河北省石家庄市裕华区省文物局宿舍","info":""}},{"type":"Feature","geometry":{"type":"Point","coordinates":[114.535896,38.033203]},"properties":{"province":"河北省","city":"石家庄市","county":"裕华区","community":"方北新村8号楼2单元","full_address":"河北省石家庄市裕华区方北新村8号楼2单元","info":""}},{"type":"Feature","geometry":{"type":"Point","coordinates":[114.5594,38.03531]},"properties":{"province":"河北省","city":"石家庄市","county":"裕华区","community":"裕东小区北区57号楼3单元、68号楼1单元","full_address":"河北省石家庄市裕华区裕东小区北区57号楼3单元、68号楼1单元","info":""}},{"type":"Feature","geometry":{"type":"Point","coordinates":[114.567886,38.034138]},"properties":{"province":"河北省","city":"石家庄市","county":"裕华区","community":"国际城四期61号楼1单元、70号楼1单元","full_address":"河北省石家庄市裕华区国际城四期61号楼1单元、70号楼1单元","info":""}},{"type":"Feature","geometry":{"type":"Point","coordinates":[114.56717,38.01863]},"properties":{"province":"河北省","city":"石家庄市","county":"裕华区","community":"裕东街道大马庄园15号楼","full_address":"河北省石家庄市裕华区裕东街道大马庄园15号楼","info":""}},{"type":"Feature","geometry":{"type":"Point","coordinates":[114.557068,38.020267]},"properties":{"province":"河北省","city":"石家庄市","county":"裕华区","community":"金域蓝湾4号楼1单元","full_address":"河北省石家庄市裕华区金域蓝湾4号楼1单元","info":""}},{"type":"Feature","geometry":{"type":"Point","coordinates":[114.5868,38.03549]},"properties":{"province":"河北省","city":"石家庄市","county":"裕华区","community":"东方花园小区3号楼4单元","full_address":"河北省石家庄市裕华区东方花园小区3号楼4单元","info":""}},{"type":"Feature","geometry":{"type":"Point","coordinates":[114.5647,38.01718]},"properties":{"province":"河北省","city":"石家庄市","county":"裕华区","community":"藏龙福地小区4号楼1单元、16号楼2单元","full_address":"河北省石家庄市裕华区藏龙福地小区4号楼1单元、16号楼2单元","info":""}},{"type":"Feature","geometry":{"type":"Point","coordinates":[114.50296,38.002621]},"properties":{"province":"河北省","city":"石家庄市","county":"裕华区","community":"建通街道盛邦花园八区1号楼1单元","full_address":"河北省石家庄市裕华区建通街道盛邦花园八区1号楼1单元","info":""}},{"type":"Feature","geometry":{"type":"Point","coordinates":[114.53653,37.987083]},"properties":{"province":"河北省","city":"石家庄市","county":"裕华区","community":"方村镇贾村新村A区2号楼1单元","full_address":"河北省石家庄市裕华区方村镇贾村新村A区2号楼1单元","info":""}},{"type":"Feature","geometry":{"type":"Point","coordinates":[114.536491,37.984901]},"properties":{"province":"河北省","city":"石家庄市","county":"裕华区","community":"贾村新村B区12号楼2单元","full_address":"河北省石家庄市裕华区贾村新村B区12号楼2单元","info":""}},{"type":"Feature","geometry":{"type":"Point","coordinates":[114.534417,37.981681]},"properties":{"province":"河北省","city":"石家庄市","county":"裕华区","community":"南岭小区西区14号楼1单元","full_address":"河北省石家庄市裕华区南岭小区西区14号楼1单元","info":""}},{"type":"Feature","geometry":{"type":"Point","coordinates":[114.558052,37.988075]},"properties":{"province":"河北省","city":"石家庄市","county":"裕华区","community":"众美城廊桥四季A区8号楼1单元、10号楼1单元","full_address":"河北省石家庄市裕华区众美城廊桥四季A区8号楼1单元、10号楼1单元","info":""}},{"type":"Feature","geometry":{"type":"Point","coordinates":[114.557564,37.985889]},