{"type":"FeatureCollection","features":[{"type":"Feature","geometry":{"type":"Point","coordinates":[116.60836,39.998734]},"properties":{"full_address":"北京市朝阳区金盏（地区）乡东窑村非住宅用地企业一片区、企业二片区、企业三片区（除外东窑艺术区002号）、东窑村住宅用地（除外网格6区164号、7区198号）"}},{"type":"Feature","geometry":{"type":"Point","coordinates":[116.40515,39.81422]},"properties":{"full_address":"北京市丰台区和义街道和义东里社区除和义东里五区3号楼以外区域"}},{"type":"Feature","geometry":{"type":"Point","coordinates":[116.3985,39.81288]},"properties":{"full_address":"北京市丰台区和义街道和义西里社区二、三、四区除四区5号楼以外区域"}},{"type":"Feature","geometry":{"type":"Point","coordinates":[116.296349,39.86697]},"properties":{"full_address":"北京市丰台区看丹街道看丹村平房区除明晓中安保安公司宿舍以外区域"}},{"type":"Feature","geometry":{"type":"Point","coordinates":[116.32713,39.94916]},"properties":{"full_address":"北京市海淀区北下关街道中关村南大街46号南区7、9 、10 、18、22号楼"}},{"type":"Feature","geometry":{"type":"Point","coordinates":[116.222423,39.735047]},"properties":{"full_address":"北京市房山区长阳镇朱岗子村京深公路以西、村小学北路以北、村西路以东、黄良铁路以南除高风险以外区域"}},{"type":"Feature","geometry":{"type":"Point","coordinates":[116.555514,39.764145]},"properties":{"full_address":"北京市通州区马驹桥镇二街村"}},{"type":"Feature","geometry":{"type":"Point","coordinates":[117.200109,39.101836]},"properties":{"full_address":"天津市天津市河西区佟卫里小区全域"}},{"type":"Feature","geometry":{"type":"Point","coordinates":[117.201767,39.10043]},"properties":{"full_address":"天津市天津市河西区马场街四化里双号院"}},{"type":"Feature","geometry":{"type":"Point","coordinates":[117.024596,39.392551]},"properties":{"full_address":"天津市天津市武清区东蒲洼街光明道金都花园29号楼"}},{"type":"Feature","geometry":{"type":"Point","coordinates":[117.059761,39.410327]},"properties":{"full_address":"天津市天津市武清区杨村街尚清湾A区27号楼1单元"}},{"type":"Feature","geometry":{"type":"Point","coordinates":[117.164044,38.903031]},"properties":{"full_address":"天津市天津市静海区团泊镇泊雅苑小区1号楼、2号楼、4号楼、5号楼、6号楼、7号楼、8号楼、9号楼、10号楼、11号楼、12号楼、13号楼、14号楼合围区域"}},{"type":"Feature","geometry":{"type":"Point","coordinates":[117.133003,38.872623]},"properties":{"full_address":"天津市天津市静海区团泊镇碧桂园丽泽府小区全域内除高风险区以外区域"}},{"type":"Feature","geometry":{"type":"Point","coordinates":[116.959308,38.934491]},"properties":{"full_address":"天津市天津市静海区朝阳街道喆啡酒店（海馨园店），花房子音乐酒吧（海馨园店），海馨园小区6号楼、18号楼4门"}},{"type":"Feature","geometry":{"type":"Point","coordinates":[119.57846,39.958187]},"properties":{"full_address":"河北省秦皇岛市海港区华盾凤凰城一期"}},{"type":"Feature","geometry":{"type":"Point","coordinates":[119.577556,39.949355]},"properties":{"full_address":"河北省秦皇岛市海港区铁庄新村"}},{"type":"Feature","geometry":{"type":"Point","coordinates":[119.64006,39.948479]},"properties":{"full_address":"河北省秦皇岛市海港区东方明珠城小区A区以外区域"}},{"type":"Feature","geometry":{"type":"Point","coordinates":[119.575516,39.942383]},"properties":{"full_address":"河北省秦皇岛市海港区铁新里小区二区以外区域"}},{"type":"Feature","geometry":{"type":"Point","coordinates":[119.255445,39.86681]},"properties":{"full_address":"河北省秦皇岛市抚宁区骊城街道紫金湾景尚小区13号楼"}},{"type":"Feature","geometry":{"type":"Point","coordinates":[119.255445,39.86681]},"properties":{"full_address":"河北省秦皇岛市抚宁区骊城街道紫金湾景尚小区除13号楼以外的区域"}},{"type":"Feature","geometry":{"type":"Point","coordinates":[114.37266,36.37739]},"properties":{"full_address":"河北省邯郸市磁县友谊北大街以东、平安路以南、朝阳北大街以西、仁和路以北的区域"}},{"type":"Feature","geometry":{"type":"Point","coordinates":[114.379598,36.365012]},"properties":{"full_address":"河北省邯郸市磁县朝阳北大街以东、振兴路以南、古御街以西、安康西路以北的区域"}},{"type":"Feature","geometry":{"type":"Point","coordinates":[114.373971,36.357158]},"properties":{"full_address":"河北省邯郸市磁县友谊南大街以东、建设西路以南、邮政南街以西、贸易路以北的区域"}},{"type":"Feature","geometry":{"type":"Point","coordinates":[114.919853,40.810539]},"properties":{"full_address":"河北省张家口市桥东区佳境天城小区"}},{"type":"Feature","geometry":{"type":"Point","coordinates":[114.89436,40.78847]},"properties":{"full_address":"河北省张家口市桥东区博锐枫景小区"}},{"type":"Feature","geometry":{"type":"Point","coordinates":[114.887173,40.827186]},"properties":{"full_address":"河北省张家口市桥西区公园路综合市场（下东营路店）"}},{"type":"Feature","geometry":{"type":"Point","coordinates":[114.881646,40.818232]},"properties":{"full_address":"河北省张家口市桥西区武城街社区除武城街步行街以外的区域"}},{"type":"Feature","geometry":{"type":"Point","coordinates":[114.876503,40.819398]},"properties":{"full_address":"河北省张家口市桥西区鼓楼西街社区"}},{"type":"Feature","geometry":{"type":"Point","coordinates":[114.878339,40.820924]},"properties":{"full_address":"河北省张家口市桥西区北关街社区"}},{"type":"Feature","geometry":{"type":"Point","coordinates":[114.880597,40.815764]},"properties":{"full_address":"河北省张家口市桥西区南城壕社区"}},{"type":"Feature","geometry":{"type":"Point","coordinates":[114.872296,40.823666]},"properties":{"full_address":"河北省张家口市桥西区新华街社区"}},{"type":"Feature","geometry":{"type":"Point","coordinates":[114.87265,40.811096]},"properties":{"full_address":"河北省张家口市桥西区西坝岗社区"}},{"type":"Feature","geometry":{"type":"Point","coordinates":[114.888035,40.830465]},"properties":{"full_address":"河北省张家口市桥西区中学街社区"}},{"type":"Feature","geometry":{"type":"Point","coordinates":[114.894997,40.833447]},"properties":{"full_address":"河北省张家口市桥西区清河园社区"}},{"type":"Feature","geometry":{"type":"Point","coordinates":[114.890548,40.829041]},"properties":{"full_address":"河北省张家口市桥西区附属医院社区"}},{"type":"Feature","geometry":{"type":"Point","coordinates":[114.869347,40.825947]},"properties":{"full_address":"河北省张家口市桥西区南瓦一社区"}},{"type":"Feature","geometry":{"type":"Point","coordinates":[114.86676,40.82478]},"properties":{"full_address":"河北省张家口市桥西区金鼎社区"}},{"type":"Feature","geometry":{"type":"Point","coordinates":[114.893902,40.841986]},"properties":{"full_address":"河北省张家口市桥西区西岔社区"}},{"type":"Feature","geometry":{"type":"Point","coordinates":[114.882774,40.82777]},"properties":{"full_address":"河北省张家口市桥西区元台子社区"}},{"type":"Feature","geometry":{"type":"Point","coordinates":[114.883759,40.825745]},"properties":{"full_address":"河北省张家口市桥西区明德南社区"}},{"type":"Feature","geometry":{"type":"Point","coordinates":[114.816742,40.852112]},"properties":{"full_address":"河北省张家口市桥西区永丰街社区"}},{"type":"Feature","geometry":{"type":"Point","coordinates":[114.881256,40.823761]},"properties":{"full_address":"河北省张家口市桥西区新华苑社区"}},{"type":"Feature","geometry":{"type":"Point","coordinates":[114.86541,40.803711]},"properties":{"full_address":"河北省张家口市桥西区西泽园社区除西泽园小区以外的区域"}},{"type":"Feature","geometry":{"type":"Point","coordinates":[115.09951,40.608726]},"properties":{"full_address":"河北省张家口市宣化区义圣宫青云美术班所在楼栋"}},{"type":"Feature","geometry":{"type":"Point","coordinates":[115.064389,40.606121]},"properties":{"full_address":"河北省张家口市宣化区万字会南路"}},{"type":"Feature","geometry":{"type":"Point","coordinates":[115.09951,40.608726]},"properties":{"full_address":"河北省张家口市宣化区宣钢设备能源部气化作业区"}},{"type":"Feature","geometry":{"type":"Point","coordinates":[115.061134,40.604462]},"properties":{"full_address":"河北省张家口市宣化区东草市街"}},{"type":"Feature","geometry":{"type":"Point","coordinates":[115.063843,40.605628]},"properties":{"full_address":"河北省张家口市宣化区东二道巷"}},{"type":"Feature","geometry":{"type":"Point","coordinates":[115.066071,40.609918]},"properties":{"full_address":"河北省张家口市宣化区武庙街"}},{"type":"Feature","geometry":{"type":"Point","coordinates":[115.063766,40.616113]},"properties":{"full_address":"河北省张家口市宣化区钟楼大街（钟楼至花巷段）"}},{"type":"Feature","geometry":{"type":"Point","coordinates":[115.09951,40.608726]},"properties":{"full_address":"河北省张家口市宣化区双盛批发大市场"}},{"type":"Feature","geometry":{"type":"Point","coordinates":[115.063774,40.61261]},"properties":{"full_address":"河北省张家口市宣化区灵官庙街精英口语培训班所在楼栋"}},{"type":"Feature","geometry":{"type":"Point","coordinates":[115.067296,40.61291]},"properties":{"full_address":"河北省张家口市宣化区天泰寺街道（牌楼西街社区、大东街社区、西城社区、按院街社区）区域"}},{"type":"Feature","geometry":{"type":"Point","coordinates":[115.054466,40.60421]},"properties":{"full_address":"河北省张家口市宣化区南大街街道（吕祖庙社区、万字会社区、西草市社区）区域"}},{"type":"Feature","geometry":{"type":"Point","coordinates":[115.096573,40.608192]},"properties":{"full_address":"河北省张家口市宣化区建国街街道（环保社区、南路社区、建北社区、建宣路社区）区域"}},{"type":"Feature","geometry":{"type":"Point","coordinates":[115.039078,40.617065]},"properties":{"full_address":"河北省张家口市宣化区皇城街道（皇城桥北社区、后府社区、大西街社区、万柳社区）区域"}},{"type":"Feature","geometry":{"type":"Point","coordinates":[115.068627,40.601218]},"properties":{"full_address":"河北省张家口市宣化区南关街道（顺城街社区、南关桥北社区）区域"}},{"type":"Feature","geometry":{"type":"Point","coordinates":[115.369682,40.676083]},"properties":{"full_address":"河北省张家口市宣化区赵川镇义合庄村"}},{"type":"Feature","geometry":{"type":"Point","coordinates":[113.986087,41.080042]},"properties":{"full_address":"河北省张家口市尚义县滨河新城住宅小区南区"}},{"type":"Feature","geometry":{"type":"Point","coordinates":[113.980144,41.075618]},"properties":{"full_address":"河北省张家口市尚义县太平南路新县医院对面华佗药房"}},{"type":"Feature","geometry":{"type":"Point","coordinates":[113.986087,41.080042]},"properties":{"full_address":"河北省张家口市尚义县滨河新城住宅小区底商万德福超市"}},{"type":"Feature","geometry":{"type":"Point","coordinates":[115.575554,40.78812]},"properties":{"full_address":"河北省张家口市赤城县龙关镇福宴楼饭店"}},{"type":"Feature","geometry":{"type":"Point","coordinates":[115.578598,40.785831]},"properties":{"full_address":"河北省张家口市赤城县龙关镇益盛缘食府"}},{"type":"Feature","geometry":{"type":"Point","coordinates":[115.578598,40.785831]},"properties":{"full_address":"河北省张家口市赤城县龙关镇商业街"}},{"type":"Feature","geometry":{"type":"Point","coordinates":[114.878049,40.770992]},"properties":{"full_address":"河北省张家口市经开区南站街道学府路社区河北北方学院西校区"}},{"type":"Feature","geometry":{"type":"Point","coordinates":[114.925178,40.66847]},"properties":{"full_address":"河北省张家口市经开区沙岭子镇二里半村河北北方学院南校区"}},{"type":"Feature","geometry":{"type":"Point","coordinates":[114.929788,40.690771]},"properties":{"full_address":"河北省张家口市经开区沙岭子镇全域屈家庄村以外的其他区域"}},{"type":"Feature","geometry":{"type":"Point","coordinates":[115.630386,37.731007]},"properties":{"full_address":"河北省衡水市高新区奥体花园小区周边的人民路以南、前进街以西、西外环以东、滏阳路以北区域"}},{"type":"Feature","geometry":{"type":"Point","coordinates":[115.141403,38.302505]},"properties":{"full_address":"河北省定州市定州市李亲顾镇韩家庄村"}},{"type":"Feature","geometry":{"type":"Point","coordinates":[115.134521,38.300392]},"properties":{"full_address":"河北省定州市定州市李亲顾镇彭家庄村"}},{"type":"Feature","geometry":{"type":"Point","coordinates":[115.145912,38.297752]},"properties":{"full_address":"河北省定州市定州市李亲顾镇楼底村"}},{"type":"Feature","geometry":{"type":"Point","coordinates":[112.596875,37.826969]},"properties":{"full_address":"山西省太原市小店区白云小区5号楼"}},{"type":"Feature","geometry":{"type":"Point","coordinates":[112.5164,37.82637]},"properties":{"full_address":"山西省太原市万柏林区融创长风壹号小区"}},{"type":"Feature","geometry":{"type":"Point","coordinates":[112.497141,37.859454]},"properties":{"full_address":"山西省太原市万柏林区华清苑-东区"}},{"type":"Feature","geometry":{"type":"Point","coordinates":[112.51402,37.823326]},"properties":{"full_address":"山西省太原市万柏林区南上庄西街小区"}},{"type":"Feature","geometry":{"type":"Point","coordinates":[112.50806,37.81446]},"properties":{"full_address":"山西省太原市晋源区东至晋源区与万柏林区交界，南至长兴南街，西至西中环路，北至义井南三巷新光六小区北界"}},{"type":"Feature","geometry":{"type":"Point","coordinates":[112.521793,37.804889]},"properties":{"full_address":"山西省太原市晋源区东至晋源区与万柏林区交界，南至长兴南街，西至晋源区与万柏林区交界，北至晋源区与万柏林区交界"}},{"type":"Feature","geometry":{"type":"Point","coordinates":[112.452325,37.724689]},"properties":{"full_address":"山西省太原市晋源区晋祠镇西镇村"}},{"type":"Feature","geometry":{"type":"Point","coordinates":[112.432661,37.656118]},"properties":{"full_address":"山西省太原市晋源区姚村镇田村"}},{"type":"Feature","geometry":{"type":"Point","coordinates":[112.492264,37.740112]},"properties":{"full_address":"山西省太原市晋源区晋源街办古城营村"}},{"type":"Feature","geometry":{"type":"Point","coordinates":[112.508945,37.796228]},"properties":{"full_address":"山西省太原市晋源区晋源街办如意龙城湾小区"}},{"type":"Feature","geometry":{"type":"Point","coordinates":[113.276489,40.054096]},"properties":{"full_address":"山西省大同市平城区都挺好火盆烧烤店"}},{"type":"Feature","geometry":{"type":"Point","coordinates":[113.140221,40.006599]},"properties":{"full_address":"山西省大同市平城区东海浴园"}},{"type":"Feature","geometry":{"type":"Point","coordinates":[113.28746,40.109283]},"properties":{"full_address":"山西省大同市平城区锦华家园小区"}},{"type":"Feature","geometry":{"type":"Point","coordinates":[113.367859,40.106453]},"properties":{"full_address":"山西省大同市平城区平城区镜湖园小区"}},{"type":"Feature","geometry":{"type":"Point","coordinates":[113.273727,40.053822]},"properties":{"full_address":"山西省大同市平城区平城区魏都新城D区"}},{"type":"Feature","geometry":{"type":"Point","coordinates":[113.290413,40.109058]},"properties":{"full_address":"山西省大同市平城区西至魏都大道、北至安益前街、东至武定北路、南至操场城街所围区域（不包括云顶雅园、建馨园"}},{"type":"Feature","geometry":{"type":"Point","coordinates":[113.293442,40.126961]},"properties":{"full_address":"山西省大同市平城区南至操场城街、东至北苑路和站东大街、西至西苑路和北环路、北面和东北面至铁路线的合围区域（不包括其中已划定的高风险区、大同火车站及站前广场）"}},{"type":"Feature","geometry":{"type":"Point","coordinates":[112.4152,39.304175]},"properties":{"full_address":"山西省朔州市朔城区大运果菜批发市场"}},{"type":"Feature","geometry":{"type":"Point","coordinates":[112.43226,39.298977]},"properties":{"full_address":"山西省朔州市朔城区清华园小区全域"}},{"type":"Feature","geometry":{"type":"Point","coordinates":[112.409103,39.312408]},"properties":{"full_address":"山西省朔州市朔城区家和苑中心社区所辖区域"}},{"type":"Feature","geometry":{"type":"Point","coordinates":[112.451563,39.306265]},"properties":{"full_address":"山西省朔州市朔城区宏兴2区"}},{"type":"Feature","geometry":{"type":"Point","coordinates":[112.413066,39.299483]},"properties":{"full_address":"山西省朔州市朔城区泥河村"}},{"type":"Feature","geometry":{"type":"Point","coordinates":[112.433968,39.3186]},"properties":{"full_address":"山西省朔州市朔城区南城街道办事处鄯阳街以南辖区"}},{"type":"Feature","geometry":{"type":"Point","coordinates":[112.43531,39.289951]},"properties":{"full_address":"山西省朔州市朔城区北旺庄街道办事处所辖南泉村"}},{"type":"Feature","geometry":{"type":"Point","coordinates":[112.428619,39.286392]},"properties":{"full_address":"山西省朔州市朔城区雒儿庄村"}},{"type":"Feature","geometry":{"type":"Point","coordinates":[112.423859,39.292473]},"properties":{"full_address":"山西省朔州市朔城区京城港中心社区"}},{"type":"Feature","geometry":{"type":"Point","coordinates":[112.413254,39.279312]},"properties":{"full_address":"山西省朔州市朔城区油房头村"}},{"type":"Feature","geometry":{"type":"Point","coordinates":[112.385384,39.287422]},"properties":{"full_address":"山西省朔州市朔城区厦阁村"}},{"type":"Feature","geometry":{"type":"Point","coordinates":[112.394722,39.287621]},"properties":{"full_address":"山西省朔州市朔城区野狐涧村"}},{"type":"Feature","geometry":{"type":"Point","coordinates":[112.400101,39.290092]},"properties":{"full_address":"山西省朔州市朔城区南磨村"}},{"type":"Feature","geometry":{"type":"Point","coordinates":[112.395729,37.315419]},"properties":{"full_address":"山西省晋中市祁县古县镇下古县村"}},{"type":"Feature","geometry":{"type":"Point","coordinates":[112.294619,37.358161]},"properties":{"full_address":"山西省晋中市祁县城赵镇常家堡村"}},{"type":"Feature","geometry":{"type":"Point","coordinates":[112.314774,37.366291]},"properties":{"full_address":"山西省晋中市祁县县城区杏花苑小区"}},{"type":"Feature","geometry":{"type":"Point","coordinates":[112.331457,37.351173]},"properties":{"full_address":"山西省晋中市祁县县城区红海小区"}},{"type":"Feature","geometry":{"type":"Point","coordinates":[112.426369,37.303082]},"properties":{"full_address":"山西省晋中市祁县梁村"}},{"type":"Feature","geometry":{"type":"Point","coordinates":[111.034621,35.103434]},"properties":{"full_address":"山西省运城市盐湖区学府名都小区"}},{"type":"Feature","geometry":{"type":"Point","coordinates":[110.963202,35.094384]},"properties":{"full_address":"山西省运城市盐湖区高速小区"}},{"type":"Feature","geometry":{"type":"Point","coordinates":[110.981047,35.047247]},"properties":{"full_address":"山西省运城市盐湖区北城印象小区"}},{"type":"Feature","geometry":{"type":"Point","coordinates":[110.975293,35.050836]},"properties":{"full_address":"山西省运城市盐湖区时代嘉园小区"}},{"type":"Feature","geometry":{"type":"Point","coordinates":[110.999996,35.055899]},"properties":{"full_address":"山西省运城市盐湖区幸福里·铂郡小区"}},{"type":"Feature","geometry":{"type":"Point","coordinates":[111.014596,35.056925]},"properties":{"full_address":"山西省运城市盐湖区泰森华林逸墅小区"}},{"type":"Feature","geometry":{"type":"Point","coordinates":[110.998192,35.011582]},"properties":{"full_address":"山西省运城市盐湖区盐化社区日化小区"}},{"type":"Feature","geometry":{"type":"Point","coordinates":[111.013356,35.065137]},"properties":{"full_address":"山西省运城市盐湖区港府名都小区"}},{"type":"Feature","geometry":{"type":"Point","coordinates":[111.01664,35.044284]},"properties":{"full_address":"山西省运城市盐湖区东星向上广场B座"}},{"type":"Feature","geometry":{"type":"Point","coordinates":[110.975016,35.074]},"properties":{"full_address":"山西省运城市盐湖区安得公寓"}},{"type":"Feature","geometry":{"type":"Point","coordinates":[110.984009,35.099079]},"properties":{"full_address":"山西省运城市盐湖区太原铁路公安局临汾公安处运城北车站派出所"}},{"type":"Feature","geometry":{"type":"Point","coordinates":[111.004349,35.060791]},"properties":{"full_address":"山西省运城市盐湖区涑水教育集团涑水联合双语校区"}},{"type":"Feature","geometry":{"type":"Point","coordinates":[111.022663,35.086735]},"properties":{"full_address":"山西省运城市盐湖区军屯村"}},{"type":"Feature","geometry":{"type":"Point","coordinates":[110.979304,35.054619]},"properties":{"full_address":"山西省运城市盐湖区翰林湖畔小区"}},{"type":"Feature","geometry":{"type":"Point","coordinates":[111.0202,35.023394]},"properties":{"full_address":"山西省运城市盐湖区金鑫金悦华府小区"}},{"type":"Feature","geometry":{"type":"Point","coordinates":[110.99817,35.01505]},"properties":{"full_address":"山西省运城市盐湖区中贸佳苑小区"}},{"type":"Feature","geometry":{"type":"Point","coordinates":[111.037498,35.098534]},"properties":{"full_address":"山西省运城市盐湖区凤鸣苑小区"}},{"type":"Feature","geometry":{"type":"Point","coordinates":[110.998839,35.013228]},"properties":{"full_address":"山西省运城市盐湖区钟楼小区"}},{"type":"Feature","geometry":{"type":"Point","coordinates":[110.989656,35.055689]},"properties":{"full_address":"山西省运城市盐湖区理想城小区"}},{"type":"Feature","geometry":{"type":"Point","coordinates":[110.973953,35.066471]},"properties":{"full_address":"山西省运城市盐湖区五洲观澜小区"}},{"type":"Feature","geometry":{"type":"Point","coordinates":[111.026337,35.072338]},"properties":{"full_address":"山西省运城市盐湖区尚东城小区"}},{"type":"Feature","geometry":{"type":"Point","coordinates":[111.023885,35.074824]},"properties":{"full_address":"山西省运城市盐湖区恺鑫·橄榄城小区"}},{"type":"Feature","geometry":{"type":"Point","coordinates":[110.996986,35.016998]},"properties":{"full_address":"山西省运城市盐湖区建国饭店"}},{"type":"Feature","geometry":{"type":"Point","coordinates":[111.001037,35.030251]},"properties":{"full_address":"山西省运城市盐湖区测绘队家属院2号楼"}},{"type":"Feature","geometry":{"type":"Point","coordinates":[111.008804,35.058723]},"properties":{"full_address":"山西省运城市盐湖区留驾庄村"}},{"type":"Feature","geometry":{"type":"Point","coordinates":[111.0307,35.07981]},"properties":{"full_address":"山西省运城市盐湖区大市北村"}},{"type":"Feature","geometry":{"type":"Point","coordinates":[110.953343,34.985025]},"properties":{"full_address":"山西省运城市盐湖区下堡头村"}},{"type":"Feature","geometry":{"type":"Point","coordinates":[110.992729,34.946369]},"properties":{"full_address":"山西省运城市盐湖区银张村"}},{"type":"Feature","geometry":{"type":"Point","coordinates":[111.011497,35.096851]},"properties":{"full_address":"山西省运城市盐湖区下王村"}},{"type":"Feature","geometry":{"type":"Point","coordinates":[110.998272,35.015101]},"properties":{"full_address":"山西省运城市盐湖区新南村"}},{"type":"Feature","geometry":{"type":"Point","coordinates":[110.912842,35.075451]},"properties":{"full_address":"山西省运城市盐湖区南孙坞村"}},{"type":"Feature","geometry":{"type":"Point","coordinates":[110.944595,35.118492]},"properties":{"full_address":"山西省运城市盐湖区舜德佳园小区除大D区24号楼外其余区域"}},{"type":"Feature","geometry":{"type":"Point","coordinates":[111.015106,35.089039]},"properties":{"full_address":"山西省运城市盐湖区大禹街鼎鼎项目工地"}},{"type":"Feature","geometry":{"type":"Point","coordinates":[110.9991,35.03907]},"properties":{"full_address":"山西省运城市盐湖区北海雅苑小区除1号楼外其余区域"}},{"type":"Feature","geometry":{"type":"Point","coordinates":[110.99817,35.01505]},"properties":{"full_address":"山西省运城市盐湖区中铁三局黄河金三角(运城)创新生态集聚区科创城项目"}},{"type":"Feature","geometry":{"type":"Point","coordinates":[110.972931,35.042213]},"properties":{"full_address":"山西省运城市盐湖区北城办事处东留村水立方小区"}},{"type":"Feature","geometry":{"type":"Point","coordinates":[111.03878,35.06509]},"properties":{"full_address":"山西省运城市盐湖区安邑办事处西里庄村"}},{"type":"Feature","geometry":{"type":"Point","coordinates":[111.057571,35.09288]},"properties":{"full_address":"山西省运城市盐湖区尚上府邸小区除1号楼外其余区域"}},{"type":"Feature","geometry":{"type":"Point","coordinates":[110.988045,34.999886]},"properties":{"full_address":"山西省运城市盐湖区圣惠嘉园小区除40号楼外其余区域"}},{"type":"Feature","geometry":{"type":"Point","coordinates":[111.021927,35.039188]},"properties":{"full_address":"山西省运城市盐湖区香榭丽舍小区除7号楼外其余区域"}},{"type":"Feature","geometry":{"type":"Point","coordinates":[111.013824,35.045315]},"properties":{"full_address":"山西省运城市盐湖区禹香苑小区除31号楼外其余区域"}},{"type":"Feature","geometry":{"type":"Point","coordinates":[110.970589,35.04026]},"properties":{"full_address":"山西省运城市盐湖区龙凤苑小区除2号楼外其余区域"}},{"type":"Feature","geometry":{"type":"Point","coordinates":[111.017563,35.030361]},"properties":{"full_address":"山西省运城市盐湖区市委党校除宿舍2、5号楼外其余区域"}},{"type":"Feature","geometry":{"type":"Point","coordinates":[111.003052,35.065792]},"properties":{"full_address":"山西省运城市盐湖区华源豪庭北区除17号楼外其余区域"}},{"type":"Feature","geometry":{"type":"Point","coordinates":[110.986893,35.019634]},"properties":{"full_address":"山西省运城市盐湖区市五交化家属院除1号楼外其余区域"}},{"type":"Feature","geometry":{"type":"Point","coordinates":[110.985939,35.01157]},"properties":{"full_address":"山西省运城市盐湖区华都佳苑小区除2号楼外其余区域"}},{"type":"Feature","geometry":{"type":"Point","coordinates":[111.018547,35.083611]},"properties":{"full_address":"山西省运城市盐湖区豪德市场"}},{"type":"Feature","geometry":{"type":"Point","coordinates":[111.081261,35.13195]},"properties":{"full_address":"山西省运城市盐湖区陶村镇苦池村"}},{"type":"Feature","geometry":{"type":"Point","coordinates":[110.97406,34.999992]},"properties":{"full_address":"山西省运城市盐湖区西城办杜家村"}},{"type":"Feature","geometry":{"type":"Point","coordinates":[110.910583,35.222763]},"properties":{"full_address":"山西省运城市盐湖区上郭乡中陈村中西巷之外区域"}},{"type":"Feature","geometry":{"type":"Point","coordinates":[111.016724,35.058319]},"properties":{"full_address":"山西省运城市盐湖区沁水雅居小区5号楼之外区域"}},{"type":"Feature","geometry":{"type":"Point","coordinates":[110.99317,35.04338]},"properties":{"full_address":"山西省运城市盐湖区海天花苑小区2号楼之外区域"}},{"type":"Feature","geometry":{"type":"Point","coordinates":[111.023872,35.025719]},"properties":{"full_address":"山西省运城市盐湖区宏运佳园小区1、2、3号楼之外区域"}},{"type":"Feature","geometry":{"type":"Point","coordinates":[110.935783,35.1432]},"properties":{"full_address":"山西省运城市盐湖区北相镇北相村"}},{"type":"Feature","geometry":{"type":"Point","coordinates":[111.03878,35.06509]},"properties":{"full_address":"山西省运城市盐湖区安邑办事处东杨家卓村"}},{"type":"Feature","geometry":{"type":"Point","coordinates":[111.0631,35.10396]},"properties":{"full_address":"山西省运城市盐湖区哈佛家园小区"}},{"type":"Feature","geometry":{"type":"Point","coordinates":[111.03878,35.06509]},"properties":{"full_address":"山西省运城市盐湖区安邑办事处冯家卓村"}},{"type":"Feature","geometry":{"type":"Point","coordinates":[110.995018,35.085281]},"properties":{"full_address":"山西省运城市盐湖区鑫世纪花园小区"}},{"type":"Feature","geometry":{"type":"Point","coordinates":[110.9604,35.04844]},"properties":{"full_address":"山西省运城市盐湖区华源小区"}},{"type":"Feature","geometry":{"type":"Point","coordinates":[110.9898,35.05265]},"properties":{"full_address":"山西省运城市盐湖区怡景华庭(条山街)"}},{"type":"Feature","geometry":{"type":"Point","coordinates":[110.99817,35.01505]},"properties":{"full_address":"山西省运城市盐湖区大学苑小区"}},{"type":"Feature","geometry":{"type":"Point","coordinates":[110.977386,35.069801]},"properties":{"full_address":"山西省运城市盐湖区花园新居小区"}},{"type":"Feature","geometry":{"type":"Point","coordinates":[110.971298,35.074291]},"properties":{"full_address":"山西省运城市盐湖区姚孟办事处樊村"}},{"type":"Feature","geometry":{"type":"Point","coordinates":[111.0646,35.10997]},"properties":{"full_address":"山西省运城市盐湖区幸福小镇小区"}},{"type":"Feature","geometry":{"type":"Point","coordinates":[110.912384,35.000183]},"properties":{"full_address":"山西省运城市盐湖区龙居镇羊村"}},{"type":"Feature","geometry":{"type":"Point","coordinates":[111.062233,35.128292]},"properties":{"full_address":"山西省运城市盐湖区陶村镇陶村"}},{"type":"Feature","geometry":{"type":"Point","coordinates":[110.982323,35.033409]},"properties":{"full_address":"山西省运城市盐湖区运输公司家属院"}},{"type":"Feature","geometry":{"type":"Point","coordinates":[110.9969,35.03959]},"properties":{"full_address":"山西省运城市盐湖区尚德小区"}},{"type":"Feature","geometry":{"type":"Point","coordinates":[110.998131,35.008381]},"properties":{"full_address":"山西省运城市盐湖区泰山巷西5巷"}},{"type":"Feature","geometry":{"type":"Point","coordinates":[110.838024,35.415254]},"properties":{"full_address":"山西省运城市万荣县医华小区"}},{"type":"Feature","geometry":{"type":"Point","coordinates":[110.851242,35.423893]},"properties":{"full_address":"山西省运城市万荣县龙润庭二期工地"}},{"type":"Feature","geometry":{"type":"Point","coordinates":[110.849247,35.421459]},"properties":{"full_address":"山西省运城市万荣县恒盛花园小区"}},{"type":"Feature","geometry":{"type":"Point","coordinates":[110.83781,35.41534]},"properties":{"full_address":"山西省运城市万荣县学府城小区"}},{"type":"Feature","geometry":{"type":"Point","coordinates":[110.848223,35.4145]},"properties":{"full_address":"山西省运城市万荣县银华小区"}},{"type":"Feature","geometry":{"type":"Point","coordinates":[110.838024,35.415254]},"properties":{"full_address":"山西省运城市万荣县朝阳胡同"}},{"type":"Feature","geometry":{"type":"Point","coordinates":[110.838024,35.415254]},"properties":{"full_address":"山西省运城市万荣县铁厂胡同"}},{"type":"Feature","geometry":{"type":"Point","coordinates":[110.675306,35.405963]},"properties":{"full_address":"山西省运城市万荣县南张乡范村"}},{"type":"Feature","geometry":{"type":"Point","coordinates":[110.555256,35.403981]},"properties":{"full_address":"山西省运城市万荣县光华乡罗池村"}},{"type":"Feature","geometry":{"type":"Point","coordinates":[110.840454,35.44305]},"properties":{"full_address":"山西省运城市万荣县解店镇太贾村"}},{"type":"Feature","geometry":{"type":"Point","coordinates":[110.862826,35.431342]},"properties":{"full_address":"山西省运城市万荣县解店镇南张户村"}},{"type":"Feature","geometry":{"type":"Point","coordinates":[110.84762,35.409135]},"properties":{"full_address":"山西省运城市万荣县解店镇北解村"}},{"type":"Feature","geometry":{"type":"Point","coordinates":[110.8453,35.41187]},"properties":{"full_address":"山西省运城市万荣县光大福溢苑北区"}},{"type":"Feature","geometry":{"type":"Point","coordinates":[110.8433,35.420458]},"properties":{"full_address":"山西省运城市万荣县新华小区"}},{"type":"Feature","geometry":{"type":"Point","coordinates":[110.83781,35.41534]},"properties":{"full_address":"山西省运城市万荣县五一东街建材市场"}},{"type":"Feature","geometry":{"type":"Point","coordinates":[110.598167,35.400913]},"properties":{"full_address":"山西省运城市万荣县光华乡西光华村"}},{"type":"Feature","geometry":{"type":"Point","coordinates":[110.843628,35.41811]},"properties":{"full_address":"山西省运城市万荣县锦绣华庭小区除6号楼、9号楼、10号楼外其他区域"}},{"type":"Feature","geometry":{"type":"Point","coordinates":[110.851112,35.423717]},"properties":{"full_address":"山西省运城市万荣县龙润庭小区除1号楼外其他区域"}},{"type":"Feature","geometry":{"type":"Point","coordinates":[110.845894,35.420681]},"properties":{"full_address":"山西省运城市万荣县宝鼎新城小区除13号楼外其他区域"}},{"type":"Feature","geometry":{"type":"Point","coordinates":[110.848389,35.400681]},"properties":{"full_address":"山西省运城市万荣县恒泰花苑小区除25号楼、26号楼外其他区域"}},{"type":"Feature","geometry":{"type":"Point","coordinates":[110.829071,35.421425]},"properties":{"full_address":"山西省运城市万荣县飞云小区南楼"}},{"type":"Feature","geometry":{"type":"Point","coordinates":[110.847008,35.427223]},"properties":{"full_address":"山西省运城市万荣县一正停车场小院"}},{"type":"Feature","geometry":{"type":"Point","coordinates":[110.846527,35.420029]},"properties":{"full_address":"山西省运城市万荣县8090快捷酒店"}},{"type":"Feature","geometry":{"type":"Point","coordinates":[110.852005,35.415062]},"properties":{"full_address":"山西省运城市万荣县佳馨公寓"}},{"type":"Feature","geometry":{"type":"Point","coordinates":[110.787743,35.38755]},"properties":{"full_address":"山西省运城市万荣县万泉乡西丁村"}},{"type":"Feature","geometry":{"type":"Point","coordinates":[110.846321,35.412712]},"properties":{"full_address":"山西省运城市万荣县阳光公寓"}},{"type":"Feature","geometry":{"type":"Point","coordinates":[110.86132,35.43644]},"properties":{"full_address":"山西省运城市万荣县解店镇北张户村"}},{"type":"Feature","geometry":{"type":"Point","coordinates":[110.820747,35.408123]},"properties":{"full_address":"山西省运城市万荣县解店镇芦邑村"}},{"type":"Feature","geometry":{"type":"Point","coordinates":[110.82119,35.427902]},"properties":{"full_address":"山西省运城市万荣县解店镇西贾村"}},{"type":"Feature","geometry":{"type":"Point","coordinates":[111.22031,35.14136]},"properties":{"full_address":"山西省运城市夏县苏解村"}},{"type":"Feature","geometry":{"type":"Point","coordinates":[111.200661,35.152943]},"properties":{"full_address":"山西省运城市夏县中留西庄自然村"}},{"type":"Feature","geometry":{"type":"Point","coordinates":[111.13092,35.111866]},"properties":{"full_address":"山西省运城市夏县裴介镇老梁超市"}},{"type":"Feature","geometry":{"type":"Point","coordinates":[110.700851,34.707226]},"properties":{"full_address":"山西省运城市芮城县金茂首府小区"}},{"type":"Feature","geometry":{"type":"Point","coordinates":[110.69442,34.69365]},"properties":{"full_address":"山西省运城市芮城县科龙兽药厂"}},{"type":"Feature","geometry":{"type":"Point","coordinates":[110.697487,34.696201]},"properties":{"full_address":"山西省运城市芮城县古魏镇北关村部分区域：亚宝北路以东、育英路以西、洞宾东街以北、舍利东街以南区域"}},{"type":"Feature","geometry":{"type":"Point","coordinates":[110.50528,34.62338]},"properties":{"full_address":"山西省运城市芮城县永乐镇新村行政村下辖的南张、许湾自然村"}},{"type":"Feature","geometry":{"type":"Point","coordinates":[110.522873,34.62521]},"properties":{"full_address":"山西省运城市芮城县永乐镇西营行政村"}},{"type":"Feature","geometry":{"type":"Point","coordinates":[111.079982,39.021587]},"properties":{"full_address":"山西省忻州市保德县保德县东关镇前湾社区林涛大道由西向东从安康北巷至工商北巷（140号—185号）沿街楼栋"}},{"type":"Feature","geometry":{"type":"Point","coordinates":[111.088959,39.023301]},"properties":{"full_address":"山西省忻州市保德县保德县东关镇康乐社区府前大街以北，陈家塔商住楼和后沟商住楼以南，汽车站及以西区域，神华中学以东区域"}},{"type":"Feature","geometry":{"type":"Point","coordinates":[111.069816,39.020767]},"properties":{"full_address":"山西省忻州市保德县保德县东关镇马家滩村马家滩农贸市场区域"}},{"type":"Feature","geometry":{"type":"Point","coordinates":[111.902893,37.14687]},"properties":{"full_address":"山西省吕梁市孝义市大孝堡镇南小堡村"}},{"type":"Feature","geometry":{"type":"Point","coordinates":[111.911102,37.14246]},"properties":{"full_address":"山西省吕梁市孝义市南船头村"}},{"type":"Feature","geometry":{"type":"Point","coordinates":[111.90197,37.133781]},"properties":{"full_address":"山西省吕梁市孝义市大堡村"}},{"type":"Feature","geometry":{"type":"Point","coordinates":[111.70113,40.844453]},"properties":{"full_address":"内蒙古自治区呼和浩特市新城区丽苑阳光城小区"}},{"type":"Feature","geometry":{"type":"Point","coordinates":[111.942808,40.912936]},"properties":{"full_address":"内蒙古自治区呼和浩特市新城区保合少镇移民村"}},{"type":"Feature","geometry":{"type":"Point","coordinates":[111.661205,40.844571]},"properties":{"full_address":"内蒙古自治区呼和浩特市新城区供电局住宅楼"}},{"type":"Feature","geometry":{"type":"Point","coordinates":[111.84718,40.9852]},"properties":{"full_address":"内蒙古自治区呼和浩特市新城区小井沟素质教育基地"}},{"type":"Feature","geometry":{"type":"Point","coordinates":[111.837072,40.931535]},"properties":{"full_address":"内蒙古自治区呼和浩特市新城区古路板南村"}},{"type":"Feature","geometry":{"type":"Point","coordinates":[111.666354,40.843616]},"properties":{"full_address":"内蒙古自治区呼和浩特市新城区华新小区"}},{"type":"Feature","geometry":{"type":"Point","coordinates":[111.692234,40.856735]},"properties":{"full_address":"内蒙古自治区呼和浩特市新城区5303小区"}},{"type":"Feature","geometry":{"type":"Point","coordinates":[111.70119,40.860199]},"properties":{"full_address":"内蒙古自治区呼和浩特市新城区圣廷小区"}},{"type":"Feature","geometry":{"type":"Point","coordinates":[111.691399,40.842815]},"properties":{"full_address":"内蒙古自治区呼和浩特市新城区公路工程处家属院"}},{"type":"Feature","geometry":{"type":"Point","coordinates":[111.685929,40.830762]},"properties":{"full_address":"内蒙古自治区呼和浩特市新城区煤气小区"}},{"type":"Feature","geometry":{"type":"Point","coordinates":[111.69806,40.837317]},"properties":{"full_address":"内蒙古自治区呼和浩特市新城区鼎盛华世纪广场公寓楼"}},{"type":"Feature","geometry":{"type":"Point","coordinates":[111.677702,40.839498]},"properties":{"full_address":"内蒙古自治区呼和浩特市新城区凤凰新城小区(除12号楼)"}},{"type":"Feature","geometry":{"type":"Point","coordinates":[111.653183,40.848202]},"properties":{"full_address":"内蒙古自治区呼和浩特市新城区天府花园(除22号楼)"}},{"type":"Feature","geometry":{"type":"Point","coordinates":[111.717595,40.836826]},"properties":{"full_address":"内蒙古自治区呼和浩特市新城区预制厂小区（除5号楼）"}},{"type":"Feature","geometry":{"type":"Point","coordinates":[111.65358,40.829342]},"properties":{"full_address":"内蒙古自治区呼和浩特市新城区石油小区（除1号楼）"}},{"type":"Feature","geometry":{"type":"Point","coordinates":[111.659561,40.832821]},"properties":{"full_address":"内蒙古自治区呼和浩特市新城区道北5小区（除工程5号楼）"}},{"type":"Feature","geometry":{"type":"Point","coordinates":[111.651294,40.85633]},"properties":{"full_address":"内蒙古自治区呼和浩特市新城区维多利橄榄城（除6号楼、11号楼）"}},{"type":"Feature","geometry":{"type":"Point","coordinates":[111.679985,40.872517]},"properties":{"full_address":"内蒙古自治区呼和浩特市新城区团校巷宿舍楼（除2号楼）"}},{"type":"Feature","geometry":{"type":"Point","coordinates":[111.698868,40.832932]},"properties":{"full_address":"内蒙古自治区呼和浩特市新城区城建小区（除16号楼）"}},{"type":"Feature","geometry":{"type":"Point","coordinates":[111.677383,40.84346]},"properties":{"full_address":"内蒙古自治区呼和浩特市新城区爱民小区（除3号院、4号楼）"}},{"type":"Feature","geometry":{"type":"Point","coordinates":[111.676659,40.825119]},"properties":{"full_address":"内蒙古自治区呼和浩特市新城区财院西小区（西院）（除2号楼）"}},{"type":"Feature","geometry":{"type":"Point","coordinates":[111.719063,40.836548]},"properties":{"full_address":"内蒙古自治区呼和浩特市新城区电建二公司家属楼"}},{"type":"Feature","geometry":{"type":"Point","coordinates":[111.686104,40.824791]},"properties":{"full_address":"内蒙古自治区呼和浩特市新城区公安厅小区统建楼（除2号楼、3号楼）"}},{"type":"Feature","geometry":{"type":"Point","coordinates":[111.685188,40.830677]},"properties":{"full_address":"内蒙古自治区呼和浩特市新城区曙光街电子研究所家属楼（除2号楼）"}},{"type":"Feature","geometry":{"type":"Point","coordinates":[111.667305,40.854332]},"properties":{"full_address":"内蒙古自治区呼和浩特市新城区琦琳北辰小区（除1号楼）"}},{"type":"Feature","geometry":{"type":"Point","coordinates":[111.683693,40.853432]},"properties":{"full_address":"内蒙古自治区呼和浩特市新城区公园世家小区（除3号楼）"}},{"type":"Feature","geometry":{"type":"Point","coordinates":[111.649048,40.850849]},"properties":{"full_address":"内蒙古自治区呼和浩特市新城区公主花园小区（除13号楼）"}},{"type":"Feature","geometry":{"type":"Point","coordinates":[111.71553,40.837791]},"properties":{"full_address":"内蒙古自治区呼和浩特市新城区芳汀花园（除8号楼）"}},{"type":"Feature","geometry":{"type":"Point","coordinates":[111.656608,40.815228]},"properties":{"full_address":"内蒙古自治区呼和浩特市回民区三顺店西巷祥和四区"}},{"type":"Feature","geometry":{"type":"Point","coordinates":[111.658964,40.816931]},"properties":{"full_address":"内蒙古自治区呼和浩特市回民区三顺店西巷电影公司家属楼南楼"}},{"type":"Feature","geometry":{"type":"Point","coordinates":[111.659582,40.822896]},"properties":{"full_address":"内蒙古自治区呼和浩特市回民区医学院住宅小区"}},{"type":"Feature","geometry":{"type":"Point","coordinates":[111.635338,40.815807]},"properties":{"full_address":"内蒙古自治区呼和浩特市回民区工行家属院"}},{"type":"Feature","geometry":{"type":"Point","coordinates":[111.671733,40.858129]},"properties":{"full_address":"内蒙古自治区呼和浩特市回民区新华桥铁路小区"}},{"type":"Feature","geometry":{"type":"Point","coordinates":[111.5922,40.791621]},"properties":{"full_address":"内蒙古自治区呼和浩特市回民区西华庭"}},{"type":"Feature","geometry":{"type":"Point","coordinates":[111.651428,40.82917]},"properties":{"full_address":"内蒙古自治区呼和浩特市回民区动力小区"}},{"type":"Feature","geometry":{"type":"Point","coordinates":[111.603177,40.835517]},"properties":{"full_address":"内蒙古自治区呼和浩特市回民区慧谷兰庭"}},{"type":"Feature","geometry":{"type":"Point","coordinates":[111.656133,40.823893]},"properties":{"full_address":"内蒙古自治区呼和浩特市回民区华建小区"}},{"type":"Feature","geometry":{"type":"Point","coordinates":[111.641289,40.8456]},"properties":{"full_address":"内蒙古自治区呼和浩特市回民区塔布板村(除塔布板住宅小区)"}},{"type":"Feature","geometry":{"type":"Point","coordinates":[111.625707,40.802867]},"properties":{"full_address":"内蒙古自治区呼和浩特市回民区锦泽园小区(除11号楼)"}},{"type":"Feature","geometry":{"type":"Point","coordinates":[111.605333,40.825209]},"properties":{"full_address":"内蒙古自治区呼和浩特市回民区明珠丽景西区(除5号楼)"}},{"type":"Feature","geometry":{"type":"Point","coordinates":[111.644272,40.838249]},"properties":{"full_address":"内蒙古自治区呼和浩特市回民区昌盛家园(除3号楼)"}},{"type":"Feature","geometry":{"type":"Point","coordinates":[111.639519,40.849014]},"properties":{"full_address":"内蒙古自治区呼和浩特市回民区广龙苑小区（除17号楼）"}},{"type":"Feature","geometry":{"type":"Point","coordinates":[111.602558,40.840202]},"properties":{"full_address":"内蒙古自治区呼和浩特市回民区大天森林小区（除13号楼）"}},{"type":"Feature","geometry":{"type":"Point","coordinates":[111.60713,40.84041]},"properties":{"full_address":"内蒙古自治区呼和浩特市回民区新西蓝小区北区（除6号楼）"}},{"type":"Feature","geometry":{"type":"Point","coordinates":[111.616264,40.809315]},"properties":{"full_address":"内蒙古自治区呼和浩特市回民区光明城小区（除3号楼）"}},{"type":"Feature","geometry":{"type":"Point","coordinates":[111.586913,40.831283]},"properties":{"full_address":"内蒙古自治区呼和浩特市回民区东乌素图旧村（除前营子、二道营）"}},{"type":"Feature","geometry":{"type":"Point","coordinates":[111.640892,40.837563]},"properties":{"full_address":"内蒙古自治区呼和浩特市回民区阀门厂小区（除3号楼）"}},{"type":"Feature","geometry":{"type":"Point","coordinates":[111.647644,40.848766]},"properties":{"full_address":"内蒙古自治区呼和浩特市回民区呼运花园（除2号楼）"}},{"type":"Feature","geometry":{"type":"Point","coordinates":[111.637794,40.806313]},"properties":{"full_address":"内蒙古自治区呼和浩特市回民区桃源水榭南区（除3号楼）"}},{"type":"Feature","geometry":{"type":"Point","coordinates":[111.670502,40.8125]},"properties":{"full_address":"内蒙古自治区呼和浩特市回民区海亮名门（除11号楼）"}},{"type":"Feature","geometry":{"type":"Point","coordinates":[111.618004,40.793457]},"properties":{"full_address":"内蒙古自治区呼和浩特市回民区金苑小区（除2号楼）"}},{"type":"Feature","geometry":{"type":"Point","coordinates":[111.636375,40.814335]},"properties":{"full_address":"内蒙古自治区呼和浩特市回民区家和小区（除4号楼）"}},{"type":"Feature","geometry":{"type":"Point","coordinates":[111.649986,40.841221]},"properties":{"full_address":"内蒙古自治区呼和浩特市回民区机电学院宿舍（除3号楼）"}},{"type":"Feature","geometry":{"type":"Point","coordinates":[111.584641,40.835499]},"properties":{"full_address":"内蒙古自治区呼和浩特市回民区塞外安康新居（除10号楼)"}},{"type":"Feature","geometry":{"type":"Point","coordinates":[111.615601,40.802391]},"properties":{"full_address":"内蒙古自治区呼和浩特市回民区阙里人家C区（除5号楼）"}},{"type":"Feature","geometry":{"type":"Point","coordinates":[111.587036,40.827038]},"properties":{"full_address":"内蒙古自治区呼和浩特市回民区中铁诺德龙湾四地块（除2号楼）"}},{"type":"Feature","geometry":{"type":"Point","coordinates":[111.638092,40.796658]},"properties":{"full_address":"内蒙古自治区呼和浩特市回民区水润嘉苑（除30号楼）"}},{"type":"Feature","geometry":{"type":"Point","coordinates":[111.650284,40.821022]},"properties":{"full_address":"内蒙古自治区呼和浩特市回民区浩鑫丽景苑小区（除2号楼）"}},{"type":"Feature","geometry":{"type":"Point","coordinates":[111.634903,40.8134]},"properties":{"full_address":"内蒙古自治区呼和浩特市回民区呼钢小区(除12号楼）"}},{"type":"Feature","geometry":{"type":"Point","coordinates":[111.640999,40.817841]},"properties":{"full_address":"内蒙古自治区呼和浩特市回民区金园社区铁路小区（除1号楼、8号楼、9号楼）"}},{"type":"Feature","geometry":{"type":"Point","coordinates":[111.636181,40.777323]},"properties":{"full_address":"内蒙古自治区呼和浩特市玉泉区怡景萃华林"}},{"type":"Feature","geometry":{"type":"Point","coordinates":[111.675025,40.761746]},"properties":{"full_address":"内蒙古自治区呼和浩特市玉泉区香榭澜湾"}},{"type":"Feature","geometry":{"type":"Point","coordinates":[111.646552,40.793089]},"properties":{"full_address":"内蒙古自治区呼和浩特市玉泉区云中小区"}},{"type":"Feature","geometry":{"type":"Point","coordinates":[111.672636,40.789044]},"properties":{"full_address":"内蒙古自治区呼和浩特市玉泉区石羊桥路名品建筑"}},{"type":"Feature","geometry":{"type":"Point","coordinates":[111.68587,40.78469]},"properties":{"full_address":"内蒙古自治区呼和浩特市玉泉区石东路丰瑞公园1号B区"}},{"type":"Feature","geometry":{"type":"Point","coordinates":[111.683663,40.813871]},"properties":{"full_address":"内蒙古自治区呼和浩特市玉泉区纪检委小区"}},{"type":"Feature","geometry":{"type":"Point","coordinates":[111.628441,40.792377]},"properties":{"full_address":"内蒙古自治区呼和浩特市玉泉区兴隆小区"}},{"type":"Feature","geometry":{"type":"Point","coordinates":[111.663303,40.804753]},"properties":{"full_address":"内蒙古自治区呼和浩特市玉泉区嘉豪广场"}},{"type":"Feature","geometry":{"type":"Point","coordinates":[111.671569,40.751346]},"properties":{"full_address":"内蒙古自治区呼和浩特市玉泉区上国佳苑"}},{"type":"Feature","geometry":{"type":"Point","coordinates":[111.65969,40.800821]},"properties":{"full_address":"内蒙古自治区呼和浩特市玉泉区小召前街街道规划楼"}},{"type":"Feature","geometry":{"type":"Point","coordinates":[111.663575,40.784104]},"properties":{"full_address":"内蒙古自治区呼和浩特市玉泉区草库巷呼市木器厂宿舍"}},{"type":"Feature","geometry":{"type":"Point","coordinates":[111.637619,40.789043]},"properties":{"full_address":"内蒙古自治区呼和浩特市玉泉区西苑家园"}},{"type":"Feature","geometry":{"type":"Point","coordinates":[111.67041,40.81567]},"properties":{"full_address":"内蒙古自治区呼和浩特市玉泉区阿木南营"}},{"type":"Feature","geometry":{"type":"Point","coordinates":[111.674294,40.782539]},"properties":{"full_address":"内蒙古自治区呼和浩特市玉泉区绿波小区"}},{"type":"Feature","geometry":{"type":"Point","coordinates":[111.626128,40.793782]},"properties":{"full_address":"内蒙古自治区呼和浩特市玉泉区新苑家园"}},{"type":"Feature","geometry":{"type":"Point","coordinates":[111.648682,40.802569]},"properties":{"full_address":"内蒙古自治区呼和浩特市玉泉区汇豪天下"}},{"type":"Feature","geometry":{"type":"Point","coordinates":[111.688972,40.776634]},"properties":{"full_address":"内蒙古自治区呼和浩特市玉泉区秋实璟峯汇(除3号楼，A座、B座)"}},{"type":"Feature","geometry":{"type":"Point","coordinates":[111.665435,40.798913]},"properties":{"full_address":"内蒙古自治区呼和浩特市玉泉区五里营东小区"}},{"type":"Feature","geometry":{"type":"Point","coordinates":[111.640121,40.793163]},"properties":{"full_address":"内蒙古自治区呼和浩特市玉泉区西苑北小区(除3号楼)"}},{"type":"Feature","geometry":{"type":"Point","coordinates":[111.673881,40.753655]},"properties":{"full_address":"内蒙古自治区呼和浩特市玉泉区福缘名居(除5号楼)"}},{"type":"Feature","geometry":{"type":"Point","coordinates":[111.696851,40.733399]},"properties":{"full_address":"内蒙古自治区呼和浩特市玉泉区天颐尚居(除B1号楼)"}},{"type":"Feature","geometry":{"type":"Point","coordinates":[111.678345,40.779458]},"properties":{"full_address":"内蒙古自治区呼和浩特市玉泉区闻都世界城(除18A)"}},{"type":"Feature","geometry":{"type":"Point","coordinates":[111.676994,40.787361]},"properties":{"full_address":"内蒙古自治区呼和浩特市玉泉区富丽城B区(除4号楼)"}},{"type":"Feature","geometry":{"type":"Point","coordinates":[111.67543,40.75319]},"properties":{"full_address":"内蒙古自治区呼和浩特市玉泉区恒奥世纪华府（除5号楼）"}},{"type":"Feature","geometry":{"type":"Point","coordinates":[111.676706,40.779523]},"properties":{"full_address":"内蒙古自治区呼和浩特市玉泉区华隆小区（除13号楼）"}},{"type":"Feature","geometry":{"type":"Point","coordinates":[111.658684,40.800179]},"properties":{"full_address":"内蒙古自治区呼和浩特市玉泉区小召前街兴盛苑小区（除8号楼）"}},{"type":"Feature","geometry":{"type":"Point","coordinates":[111.67543,40.75319]},"properties":{"full_address":"内蒙古自治区呼和浩特市玉泉区恒奥凤凰城（除5号楼）"}},{"type":"Feature","geometry":{"type":"Point","coordinates":[111.660698,40.797138]},"properties":{"full_address":"内蒙古自治区呼和浩特市玉泉区金角苑小区（除1号楼、2号楼）"}},{"type":"Feature","geometry":{"type":"Point","coordinates":[111.657051,40.79092]},"properties":{"full_address":"内蒙古自治区呼和浩特市玉泉区永兴达小区（除1号楼）"}},{"type":"Feature","geometry":{"type":"Point","coordinates":[111.675133,40.798061]},"properties":{"full_address":"内蒙古自治区呼和浩特市玉泉区烟厂苁蓉小区（除8号楼、19号楼、22号楼）"}},{"type":"Feature","geometry":{"type":"Point","coordinates":[111.668747,40.78688]},"properties":{"full_address":"内蒙古自治区呼和浩特市玉泉区俪城小区A（除7号楼）"}},{"type":"Feature","geometry":{"type":"Point","coordinates":[111.684807,40.773041]},"properties":{"full_address":"内蒙古自治区呼和浩特市玉泉区万锦枫泽湾（除1号楼）"}},{"type":"Feature","geometry":{"type":"Point","coordinates":[111.672577,40.765129]},"properties":{"full_address":"内蒙古自治区呼和浩特市玉泉区蓝色港湾（除3号楼）"}},{"type":"Feature","geometry":{"type":"Point","coordinates":[111.668159,40.799995]},"properties":{"full_address":"内蒙古自治区呼和浩特市玉泉区养鱼池东巷小白楼"}},{"type":"Feature","geometry":{"type":"Point","coordinates":[111.61512,40.776306]},"properties":{"full_address":"内蒙古自治区呼和浩特市玉泉区玉泉人家4号楼"}},{"type":"Feature","geometry":{"type":"Point","coordinates":[111.66655,40.794689]},"properties":{"full_address":"内蒙古自治区呼和浩特市玉泉区大正小区1号楼"}},{"type":"Feature","geometry":{"type":"Point","coordinates":[111.680046,40.788589]},"properties":{"full_address":"内蒙古自治区呼和浩特市玉泉区颐和景园2号楼"}},{"type":"Feature","geometry":{"type":"Point","coordinates":[111.671211,40.799541]},"properties":{"full_address":"内蒙古自治区呼和浩特市玉泉区五塔花园5号楼"}},{"type":"Feature","geometry":{"type":"Point","coordinates":[111.647789,40.795269]},"properties":{"full_address":"内蒙古自治区呼和浩特市玉泉区印象江南东门（除5号院）"}},{"type":"Feature","geometry":{"type":"Point","coordinates":[111.661713,40.803944]},"properties":{"full_address":"内蒙古自治区呼和浩特市玉泉区新华小区（除1号楼）"}},{"type":"Feature","geometry":{"type":"Point","coordinates":[111.638603,40.778156]},"properties":{"full_address":"内蒙古自治区呼和浩特市玉泉区天骄熙岸（除8号楼）"}},{"type":"Feature","geometry":{"type":"Point","coordinates":[111.685432,40.748158]},"properties":{"full_address":"内蒙古自治区呼和浩特市玉泉区鼎盛国际（除B8号楼、G2号楼、G1号楼）"}},{"type":"Feature","geometry":{"type":"Point","coordinates":[111.664597,40.795082]},"properties":{"full_address":"内蒙古自治区呼和浩特市玉泉区御景苑北区（除1号楼）"}},{"type":"Feature","geometry":{"type":"Point","coordinates":[111.670189,40.782181]},"properties":{"full_address":"内蒙古自治区呼和浩特市玉泉区万象天地小区（除4号楼）"}},{"type":"Feature","geometry":{"type":"Point","coordinates":[111.665756,40.792309]},"properties":{"full_address":"内蒙古自治区呼和浩特市玉泉区二建小区（除2号楼）"}},{"type":"Feature","geometry":{"type":"Point","coordinates":[111.714264,40.826572]},"properties":{"full_address":"内蒙古自治区呼和浩特市赛罕区亚信小区"}},{"type":"Feature","geometry":{"type":"Point","coordinates":[111.68635,40.808234]},"properties":{"full_address":"内蒙古自治区呼和浩特市赛罕区地质局宿舍148号院"}},{"type":"Feature","geometry":{"type":"Point","coordinates":[111.729437,40.81867]},"properties":{"full_address":"内蒙古自治区呼和浩特市赛罕区春雨小区"}},{"type":"Feature","geometry":{"type":"Point","coordinates":[111.689947,40.802901]},"properties":{"full_address":"内蒙古自治区呼和浩特市赛罕区科委小区"}},{"type":"Feature","geometry":{"type":"Point","coordinates":[111.680569,40.799866]},"properties":{"full_address":"内蒙古自治区呼和浩特市赛罕区山丹小区"}},{"type":"Feature","geometry":{"type":"Point","coordinates":[111.695418,40.789874]},"properties":{"full_address":"内蒙古自治区呼和浩特市赛罕区舒心园小区"}},{"type":"Feature","geometry":{"type":"Point","coordinates":[111.698247,40.807542]},"properties":{"full_address":"内蒙古自治区呼和浩特市赛罕区林场小区"}},{"type":"Feature","geometry":{"type":"Point","coordinates":[111.680407,40.79093]},"properties":{"full_address":"内蒙古自治区呼和浩特市赛罕区灯泡厂小区"}},{"type":"Feature","geometry":{"type":"Point","coordinates":[111.724411,40.825523]},"properties":{"full_address":"内蒙古自治区呼和浩特市赛罕区御景101公馆"}},{"type":"Feature","geometry":{"type":"Point","coordinates":[111.730701,40.818926]},"properties":{"full_address":"内蒙古自治区呼和浩特市赛罕区丰泽园小区"}},{"type":"Feature","geometry":{"type":"Point","coordinates":[111.732696,40.773385]},"properties":{"full_address":"内蒙古自治区呼和浩特市赛罕区旺第嘉华小区"}},{"type":"Feature","geometry":{"type":"Point","coordinates":[111.712494,40.817697]},"properties":{"full_address":"内蒙古自治区呼和浩特市赛罕区河西乌兰小区"}},{"type":"Feature","geometry":{"type":"Point","coordinates":[111.675194,40.815689]},"properties":{"full_address":"内蒙古自治区呼和浩特市赛罕区土地局宿舍"}},{"type":"Feature","geometry":{"type":"Point","coordinates":[111.73024,40.787365]},"properties":{"full_address":"内蒙古自治区呼和浩特市赛罕区万豪美墅城"}},{"type":"Feature","geometry":{"type":"Point","coordinates":[111.918987,40.798066]},"properties":{"full_address":"内蒙古自治区呼和浩特市赛罕区添密湾村"}},{"type":"Feature","geometry":{"type":"Point","coordinates":[111.741588,40.805633]},"properties":{"full_address":"内蒙古自治区呼和浩特市赛罕区竹园小区东区"}},{"type":"Feature","geometry":{"type":"Point","coordinates":[111.730279,40.82155]},"properties":{"full_address":"内蒙古自治区呼和浩特市赛罕区徐家沙梁小区"}},{"type":"Feature","geometry":{"type":"Point","coordinates":[111.71508,40.82769]},"properties":{"full_address":"内蒙古自治区呼和浩特市赛罕区三干社区海外公寓（除3号楼）"}},{"type":"Feature","geometry":{"type":"Point","coordinates":[111.733044,40.815657]},"properties":{"full_address":"内蒙古自治区呼和浩特市赛罕区巨海城10区（除1号楼）"}},{"type":"Feature","geometry":{"type":"Point","coordinates":[111.767593,40.78846]},"properties":{"full_address":"内蒙古自治区呼和浩特市赛罕区民富家园（除2号楼）"}},{"type":"Feature","geometry":{"type":"Point","coordinates":[111.731819,40.7537]},"properties":{"full_address":"内蒙古自治区呼和浩特市赛罕区南锦绣嘉苑C区（除1号楼）"}},{"type":"Feature","geometry":{"type":"Point","coordinates":[111.711661,40.826727]},"properties":{"full_address":"内蒙古自治区呼和浩特市赛罕区中行小区（除3号楼）"}},{"type":"Feature","geometry":{"type":"Point","coordinates":[111.72564,40.76666]},"properties":{"full_address":"内蒙古自治区呼和浩特市赛罕区金城小区1号楼（1单元，3单元）"}},{"type":"Feature","geometry":{"type":"Point","coordinates":[111.72583,40.76334]},"properties":{"full_address":"内蒙古自治区呼和浩特市赛罕区民智苑小区B1号楼（除2单元）"}},{"type":"Feature","geometry":{"type":"Point","coordinates":[111.699059,40.801044]},"properties":{"full_address":"内蒙古自治区呼和浩特市赛罕区巧报镇政府家属院（除2号楼）"}},{"type":"Feature","geometry":{"type":"Point","coordinates":[111.69519,40.775539]},"properties":{"full_address":"内蒙古自治区呼和浩特市赛罕区赛罕区万锦合泰（除3号楼）"}},{"type":"Feature","geometry":{"type":"Point","coordinates":[111.695641,40.798409]},"properties":{"full_address":"内蒙古自治区呼和浩特市赛罕区东苑小区中心区（除7号楼）"}},{"type":"Feature","geometry":{"type":"Point","coordinates":[111.787224,40.804493]},"properties":{"full_address":"内蒙古自治区呼和浩特市赛罕区东方领海A区（除6号楼）"}},{"type":"Feature","geometry":{"type":"Point","coordinates":[111.776779,40.797722]},"properties":{"full_address":"内蒙古自治区呼和浩特市赛罕区东方科苑（除9号楼）"}},{"type":"Feature","geometry":{"type":"Point","coordinates":[111.766243,40.795692]},"properties":{"full_address":"内蒙古自治区呼和浩特市赛罕区南苑小区（除19号楼）"}},{"type":"Feature","geometry":{"type":"Point","coordinates":[111.732712,40.818459]},"properties":{"full_address":"内蒙古自治区呼和浩特市赛罕区澳华城市花园1期（除10号楼）"}},{"type":"Feature","geometry":{"type":"Point","coordinates":[111.717819,40.82782]},"properties":{"full_address":"内蒙古自治区呼和浩特市赛罕区长乐湾小区（除5号楼）"}},{"type":"Feature","geometry":{"type":"Point","coordinates":[111.72412,40.82439]},"properties":{"full_address":"内蒙古自治区呼和浩特市赛罕区东乐花园西区（除3号楼）"}},{"type":"Feature","geometry":{"type":"Point","coordinates":[111.710564,40.818691]},"properties":{"full_address":"内蒙古自治区呼和浩特市赛罕区祖光小区（除12号楼）"}},{"type":"Feature","geometry":{"type":"Point","coordinates":[111.706978,40.797729]},"properties":{"full_address":"内蒙古自治区呼和浩特市赛罕区牧机所小区（除8号楼）"}},{"type":"Feature","geometry":{"type":"Point","coordinates":[111.681747,40.804375]},"properties":{"full_address":"内蒙古自治区呼和浩特市赛罕区书香门第小区（除4号楼）"}},{"type":"Feature","geometry":{"type":"Point","coordinates":[111.713257,40.816952]},"properties":{"full_address":"内蒙古自治区呼和浩特市赛罕区乌兰小区（除11、12、13号楼）"}},{"type":"Feature","geometry":{"type":"Point","coordinates":[111.768738,40.796383]},"properties":{"full_address":"内蒙古自治区呼和浩特市赛罕区秀水佳园（除10号楼）"}},{"type":"Feature","geometry":{"type":"Point","coordinates":[111.781303,40.795399]},"properties":{"full_address":"内蒙古自治区呼和浩特市赛罕区东达景苑（除9号楼）"}},{"type":"Feature","geometry":{"type":"Point","coordinates":[111.708679,40.827141]},"properties":{"full_address":"内蒙古自治区呼和浩特市赛罕区金川地税局艺校家属楼（除1号楼）"}},{"type":"Feature","geometry":{"type":"Point","coordinates":[111.855064,40.891586]},"properties":{"full_address":"内蒙古自治区呼和浩特市赛罕区巴彦街道罗家营村陶然雅居B（除8号楼）"}},{"type":"Feature","geometry":{"type":"Point","coordinates":[111.722839,40.785751]},"properties":{"full_address":"内蒙古自治区呼和浩特市赛罕区中海蓝湾南区（除1号楼）"}},{"type":"Feature","geometry":{"type":"Point","coordinates":[111.708672,40.823383]},"properties":{"full_address":"内蒙古自治区呼和浩特市赛罕区自来水宿舍楼1号大院（除2号楼）"}},{"type":"Feature","geometry":{"type":"Point","coordinates":[111.752754,40.80394]},"properties":{"full_address":"内蒙古自治区呼和浩特市赛罕区锦绣福源B区（除8号楼）"}},{"type":"Feature","geometry":{"type":"Point","coordinates":[111.818825,40.785694]},"properties":{"full_address":"内蒙古自治区呼和浩特市赛罕区六犋牛村（除奶牛小区）"}},{"type":"Feature","geometry":{"type":"Point","coordinates":[111.739357,40.824032]},"properties":{"full_address":"内蒙古自治区呼和浩特市赛罕区检察家园（除3号楼）"}},{"type":"Feature","geometry":{"type":"Point","coordinates":[111.696724,40.772041]},"properties":{"full_address":"内蒙古自治区呼和浩特市赛罕区祥瑞家园（除8号楼）"}},{"type":"Feature","geometry":{"type":"Point","coordinates":[111.713501,40.790794]},"properties":{"full_address":"内蒙古自治区呼和浩特市赛罕区永泰城（除4号楼）"}},{"type":"Feature","geometry":{"type":"Point","coordinates":[111.515924,40.778361]},"properties":{"full_address":"内蒙古自治区呼和浩特市土默特左旗金山开发区亲亲城小区"}},{"type":"Feature","geometry":{"type":"Point","coordinates":[111.535652,40.788833]},"properties":{"full_address":"内蒙古自治区呼和浩特市土默特左旗宽城小区东区"}},{"type":"Feature","geometry":{"type":"Point","coordinates":[111.54834,40.779392]},"properties":{"full_address":"内蒙古自治区呼和浩特市土默特左旗金润华府小区B区"}},{"type":"Feature","geometry":{"type":"Point","coordinates":[111.103577,40.727413]},"properties":{"full_address":"内蒙古自治区呼和浩特市土默特左旗金华学府小区"}},{"type":"Feature","geometry":{"type":"Point","coordinates":[111.544681,40.780462]},"properties":{"full_address":"内蒙古自治区呼和浩特市土默特左旗金澜湾小区"}},{"type":"Feature","geometry":{"type":"Point","coordinates":[111.163902,40.729573]},"properties":{"full_address":"内蒙古自治区呼和浩特市土默特左旗易通机动车检测站"}},{"type":"Feature","geometry":{"type":"Point","coordinates":[111.544427,40.788621]},"properties":{"full_address":"内蒙古自治区呼和浩特市土默特左旗天佑花园小区"}},{"type":"Feature","geometry":{"type":"Point","coordinates":[111.540553,40.77934]},"properties":{"full_address":"内蒙古自治区呼和浩特市土默特左旗公元大道小区"}},{"type":"Feature","geometry":{"type":"Point","coordinates":[111.16358,40.72957]},"properties":{"full_address":"内蒙古自治区呼和浩特市土默特左旗金山开发区万枫美利山小区"}},{"type":"Feature","geometry":{"type":"Point","coordinates":[111.474894,40.759804]},"properties":{"full_address":"内蒙古自治区呼和浩特市土默特左旗金山开发区易购城小区B4栋"}},{"type":"Feature","geometry":{"type":"Point","coordinates":[111.534264,40.781517]},"properties":{"full_address":"内蒙古自治区呼和浩特市土默特左旗半山半水A区（除2号楼）"}},{"type":"Feature","geometry":{"type":"Point","coordinates":[111.549561,40.79834]},"properties":{"full_address":"内蒙古自治区呼和浩特市土默特左旗汇金区域服务中心御景嘉园小区（除4号楼）"}},{"type":"Feature","geometry":{"type":"Point","coordinates":[111.395073,40.589653]},"properties":{"full_address":"内蒙古自治区呼和浩特市土默特左旗金浩区域服务中心宽城西区寿园（除5号楼）"}},{"type":"Feature","geometry":{"type":"Point","coordinates":[111.7261,41.247205]},"properties":{"full_address":"内蒙古自治区呼和浩特市武川县哈乐镇三合泉村"}},{"type":"Feature","geometry":{"type":"Point","coordinates":[111.463371,41.078578]},"properties":{"full_address":"内蒙古自治区呼和浩特市武川县可镇荣金小区"}},{"type":"Feature","geometry":{"type":"Point","coordinates":[110.061028,40.567384]},"properties":{"full_address":"内蒙古自治区包头市东河区杨圪塄街道办事处北梁新区南五区"}},{"type":"Feature","geometry":{"type":"Point","coordinates":[110.031248,40.594462]},"properties":{"full_address":"内蒙古自治区包头市东河区东站街道办事处维多利新天地小区"}},{"type":"Feature","geometry":{"type":"Point","coordinates":[110.006599,40.602299]},"properties":{"full_address":"内蒙古自治区包头市东河区西脑包街道办事处富力院士廷一期小区"}},{"type":"Feature","geometry":{"type":"Point","coordinates":[110.036216,40.593737]},"properties":{"full_address":"内蒙古自治区包头市东河区回民街道办事处福瑞瓦西小区、西四区"}},{"type":"Feature","geometry":{"type":"Point","coordinates":[109.990158,40.598271]},"properties":{"full_address":"内蒙古自治区包头市东河区铁西街道办事处部分小区（居然警苑小区北墙以北，井坪路以南，铁西路以东，芳草路以西））"}},{"type":"Feature","geometry":{"type":"Point","coordinates":[110.039413,40.601883]},"properties":{"full_address":"内蒙古自治区包头市东河区回民街道办事处北梁西二区"}},{"type":"Feature","geometry":{"type":"Point","coordinates":[110.053635,40.573608]},"properties":{"full_address":"内蒙古自治区包头市东河区河东街道办事处阳光天福小区"}},{"type":"Feature","geometry":{"type":"Point","coordinates":[110.036652,40.577911]},"properties":{"full_address":"内蒙古自治区包头市东河区南门外街道办事处盛世小区"}},{"type":"Feature","geometry":{"type":"Point","coordinates":[109.988571,40.594639]},"properties":{"full_address":"内蒙古自治区包头市东河区铁西街道办事处三街二区"}},{"type":"Feature","geometry":{"type":"Point","coordinates":[110.031136,40.564766]},"properties":{"full_address":"内蒙古自治区包头市东河区天骄街道办事处二里半地矿小区AB区"}},{"type":"Feature","geometry":{"type":"Point","coordinates":[110.055771,40.563381]},"properties":{"full_address":"内蒙古自治区包头市东河区杨圪塄街道办事处北梁新区南六区"}},{"type":"Feature","geometry":{"type":"Point","coordinates":[110.029892,40.570431]},"properties":{"full_address":"内蒙古自治区包头市东河区南门外街道办事处东官房小区"}},{"type":"Feature","geometry":{"type":"Point","coordinates":[110.011307,40.586189]},"properties":{"full_address":"内蒙古自治区包头市东河区西脑包街道办事处西河景苑小区"}},{"type":"Feature","geometry":{"type":"Point","coordinates":[109.820468,40.632908]},"properties":{"full_address":"内蒙古自治区包头市昆都仑区东亚世纪城文雅苑小区"}},{"type":"Feature","geometry":{"type":"Point","coordinates":[109.840393,40.680221]},"properties":{"full_address":"内蒙古自治区包头市昆都仑区居然新城小区"}},{"type":"Feature","geometry":{"type":"Point","coordinates":[109.82304,40.62243]},"properties":{"full_address":"内蒙古自治区包头市昆都仑区天疆骊城小区"}},{"type":"Feature","geometry":{"type":"Point","coordinates":[109.842949,40.639961]},"properties":{"full_address":"内蒙古自治区包头市昆都仑区华丽家族小区"}},{"type":"Feature","geometry":{"type":"Point","coordinates":[109.800941,40.681023]},"properties":{"full_address":"内蒙古自治区包头市昆都仑区天赐新城小区"}},{"type":"Feature","geometry":{"type":"Point","coordinates":[109.808868,40.689621]},"properties":{"full_address":"内蒙古自治区包头市昆都仑区南排四组新村致富路北35—40栋，43、44栋，54、55栋"}},{"type":"Feature","geometry":{"type":"Point","coordinates":[109.808777,40.692986]},"properties":{"full_address":"内蒙古自治区包头市昆都仑区南排四组新村企业路中段南48、52、53栋"}},{"type":"Feature","geometry":{"type":"Point","coordinates":[109.804108,40.67173]},"properties":{"full_address":"内蒙古自治区包头市昆都仑区胜利佳苑小区"}},{"type":"Feature","geometry":{"type":"Point","coordinates":[109.663582,40.664013]},"properties":{"full_address":"内蒙古自治区包头市昆都仑区背锅窑村"}},{"type":"Feature","geometry":{"type":"Point","coordinates":[109.82959,40.663601]},"properties":{"full_address":"内蒙古自治区包头市昆都仑区少先31街坊79小区"}},{"type":"Feature","geometry":{"type":"Point","coordinates":[109.833359,40.643349]},"properties":{"full_address":"内蒙古自治区包头市昆都仑区友谊小区"}},{"type":"Feature","geometry":{"type":"Point","coordinates":[109.833359,40.643349]},"properties":{"full_address":"内蒙古自治区包头市昆都仑区友谊南小区"}},{"type":"Feature","geometry":{"type":"Point","coordinates":[109.825684,40.672142]},"properties":{"full_address":"内蒙古自治区包头市昆都仑区国际新城北区"}},{"type":"Feature","geometry":{"type":"Point","coordinates":[109.83859,40.64178]},"properties":{"full_address":"内蒙古自治区包头市昆都仑区团13街坊包钢院小区"}},{"type":"Feature","geometry":{"type":"Point","coordinates":[109.823326,40.62669]},"properties":{"full_address":"内蒙古自治区包头市昆都仑区帝景小区"}},{"type":"Feature","geometry":{"type":"Point","coordinates":[109.78363,40.641113]},"properties":{"full_address":"内蒙古自治区包头市昆都仑区孟家河湾村"}},{"type":"Feature","geometry":{"type":"Point","coordinates":[109.813263,40.609901]},"properties":{"full_address":"内蒙古自治区包头市昆都仑区万和城二期"}},{"type":"Feature","geometry":{"type":"Point","coordinates":[109.816399,40.63575]},"properties":{"full_address":"内蒙古自治区包头市昆都仑区黄河四区"}},{"type":"Feature","geometry":{"type":"Point","coordinates":[109.898252,40.651781]},"properties":{"full_address":"内蒙古自治区包头市青山区光辉三区"}},{"type":"Feature","geometry":{"type":"Point","coordinates":[109.876857,40.663401]},"properties":{"full_address":"内蒙古自治区包头市青山区幸福路七号街坊"}},{"type":"Feature","geometry":{"type":"Point","coordinates":[109.865282,40.69486]},"properties":{"full_address":"内蒙古自治区包头市青山区银海社区阳光上城上景园小区西区"}},{"type":"Feature","geometry":{"type":"Point","coordinates":[109.84906,40.650398]},"properties":{"full_address":"内蒙古自治区包头市青山区赵家营村部分区域（二区12栋以西、二区11栋以东、二区11栋和12栋南侧中间道路与村委会之间）"}},{"type":"Feature","geometry":{"type":"Point","coordinates":[109.865409,40.648995]},"properties":{"full_address":"内蒙古自治区包头市青山区春光四区"}},{"type":"Feature","geometry":{"type":"Point","coordinates":[109.91065,40.64492]},"properties":{"full_address":"内蒙古自治区包头市青山区健康阳光城北区"}},{"type":"Feature","geometry":{"type":"Point","coordinates":[109.931205,40.64618]},"properties":{"full_address":"内蒙古自治区包头市青山区当代菁英国际小区"}},{"type":"Feature","geometry":{"type":"Point","coordinates":[109.9123,40.655975]},"properties":{"full_address":"内蒙古自治区包头市青山区都兰小区"}},{"type":"Feature","geometry":{"type":"Point","coordinates":[109.895982,40.654357]},"properties":{"full_address":"内蒙古自治区包头市青山区鑫达佳园小区"}},{"type":"Feature","geometry":{"type":"Point","coordinates":[109.87345,40.67759]},"properties":{"full_address":"内蒙古自治区包头市青山区富强路10号街坊"}},{"type":"Feature","geometry":{"type":"Point","coordinates":[109.875946,40.649647]},"properties":{"full_address":"内蒙古自治区包头市青山区大连新型春意园"}},{"type":"Feature","geometry":{"type":"Point","coordinates":[109.862457,40.671131]},"properties":{"full_address":"内蒙古自治区包头市青山区金泰丽苑小区"}},{"type":"Feature","geometry":{"type":"Point","coordinates":[109.853317,40.650063]},"properties":{"full_address":"内蒙古自治区包头市青山区赵家营4区"}},{"type":"Feature","geometry":{"type":"Point","coordinates":[109.87756,40.66694]},"properties":{"full_address":"内蒙古自治区包头市青山区幸福路6号街坊"}},{"type":"Feature","geometry":{"type":"Point","coordinates":[109.908798,40.658821]},"properties":{"full_address":"内蒙古自治区包头市青山区朝阳一区"}},{"type":"Feature","geometry":{"type":"Point","coordinates":[109.87417,40.67843]},"properties":{"full_address":"内蒙古自治区包头市青山区富强路7号街坊"}},{"type":"Feature","geometry":{"type":"Point","coordinates":[109.92836,40.673622]},"properties":{"full_address":"内蒙古自治区包头市青山区松石国际城石榴园"}},{"type":"Feature","geometry":{"type":"Point","coordinates":[109.886353,40.669216]},"properties":{"full_address":"内蒙古自治区包头市青山区呼得木林新天地二区"}},{"type":"Feature","geometry":{"type":"Point","coordinates":[109.902733,40.648392]},"properties":{"full_address":"内蒙古自治区包头市青山区保利三期"}},{"type":"Feature","geometry":{"type":"Point","coordinates":[109.93527,40.64807]},"properties":{"full_address":"内蒙古自治区包头市青山区青山路5号街坊"}},{"type":"Feature","geometry":{"type":"Point","coordinates":[109.850182,40.646152]},"properties":{"full_address":"内蒙古自治区包头市青山区金苑小区"}},{"type":"Feature","geometry":{"type":"Point","coordinates":[109.859421,40.671391]},"properties":{"full_address":"内蒙古自治区包头市青山区迎宾二社区四运院"}},{"type":"Feature","geometry":{"type":"Point","coordinates":[109.860901,40.671558]},"properties":{"full_address":"内蒙古自治区包头市青山区恒荣景秀小区"}},{"type":"Feature","geometry":{"type":"Point","coordinates":[109.86583,40.66301]},"properties":{"full_address":"内蒙古自治区包头市青山区富强路13号街坊5栋-15栋"}},{"type":"Feature","geometry":{"type":"Point","coordinates":[109.87006,40.68162]},"properties":{"full_address":"内蒙古自治区包头市青山区青山路1号街坊（西至邻圃道、东至富强路，南至青山路，北至厂前路，不包含北重六小）"}},{"type":"Feature","geometry":{"type":"Point","coordinates":[109.89991,40.671772]},"properties":{"full_address":"内蒙古自治区包头市青山区观澜壹号"}},{"type":"Feature","geometry":{"type":"Point","coordinates":[109.87287,40.67608]},"properties":{"full_address":"内蒙古自治区包头市青山区富强路12号街坊"}},{"type":"Feature","geometry":{"type":"Point","coordinates":[109.914528,40.64996]},"properties":{"full_address":"内蒙古自治区包头市青山区佳福小区"}},{"type":"Feature","geometry":{"type":"Point","coordinates":[109.88772,40.66061]},"properties":{"full_address":"内蒙古自治区包头市青山区自由路8号街坊"}},{"type":"Feature","geometry":{"type":"Point","coordinates":[109.943863,40.634605]},"properties":{"full_address":"内蒙古自治区包头市青山区轻工学院二期家属楼"}},{"type":"Feature","geometry":{"type":"Point","coordinates":[109.888809,40.67345]},"properties":{"full_address":"内蒙古自治区包头市青山区兵工华居小区"}},{"type":"Feature","geometry":{"type":"Point","coordinates":[109.87259,40.66919]},"properties":{"full_address":"内蒙古自治区包头市青山区赛音道5号街坊2栋"}},{"type":"Feature","geometry":{"type":"Point","coordinates":[109.873198,40.677653]},"properties":{"full_address":"内蒙古自治区包头市青山区富强路1号街坊27栋"}},{"type":"Feature","geometry":{"type":"Point","coordinates":[109.84906,40.650398]},"properties":{"full_address":"内蒙古自治区包头市青山区赵家营村小西门258公寓"}},{"type":"Feature","geometry":{"type":"Point","coordinates":[109.918457,40.652378]},"properties":{"full_address":"内蒙古自治区包头市青山区六合成南二区5栋"}},{"type":"Feature","geometry":{"type":"Point","coordinates":[109.96586,41.759691]},"properties":{"full_address":"内蒙古自治区包头市白云鄂博矿区白云鄂博矿区巴润公寓"}},{"type":"Feature","geometry":{"type":"Point","coordinates":[109.969948,40.60038]},"properties":{"full_address":"内蒙古自治区包头市九原区沙河街道"}},{"type":"Feature","geometry":{"type":"Point","coordinates":[109.978609,40.620447]},"properties":{"full_address":"内蒙古自治区包头市九原区白音席勒街道"}},{"type":"Feature","geometry":{"type":"Point","coordinates":[109.93953,40.602999]},"properties":{"full_address":"内蒙古自治区包头市九原区赛汗街道"}},{"type":"Feature","geometry":{"type":"Point","coordinates":[109.596733,40.597439]},"properties":{"full_address":"内蒙古自治区包头市九原区麻池镇永土路及沼南路以东、万哈线以南、希望大道以北、九原区与高新区界以西"}},{"type":"Feature","geometry":{"type":"Point","coordinates":[109.90925,40.582583]},"properties":{"full_address":"内蒙古自治区包头市稀土高新区民馨路街道民馨六区"}},{"type":"Feature","geometry":{"type":"Point","coordinates":[109.933797,40.590371]},"properties":{"full_address":"内蒙古自治区包头市稀土高新区万水泉镇泉丰社区（果树队平房区）"}},{"type":"Feature","geometry":{"type":"Point","coordinates":[109.924049,40.582878]},"properties":{"full_address":"内蒙古自治区包头市稀土高新区万水泉镇水岸花都一区"}},{"type":"Feature","geometry":{"type":"Point","coordinates":[109.828751,40.581389]},"properties":{"full_address":"内蒙古自治区包头市稀土高新区稀土路街道二水厂小区（原市政养殖场）"}},{"type":"Feature","geometry":{"type":"Point","coordinates":[109.951454,40.568272]},"properties":{"full_address":"内蒙古自治区包头市稀土高新区万水泉镇万泉佳苑D区"}},{"type":"Feature","geometry":{"type":"Point","coordinates":[109.88166,40.635731]},"properties":{"full_address":"内蒙古自治区包头市稀土高新区稀土路街道中梁首府一号小区"}},{"type":"Feature","geometry":{"type":"Point","coordinates":[109.920853,40.568932]},"properties":{"full_address":"内蒙古自治区包头市稀土高新区万水泉镇安泰社区包哈公路以北、张三粮店道路以东、建华南路以西、包兰铁路以南区域"}},{"type":"Feature","geometry":{"type":"Point","coordinates":[109.849678,40.64225]},"properties":{"full_address":"内蒙古自治区包头市稀土高新区稀土路街道日月华庭二期"}},{"type":"Feature","geometry":{"type":"Point","coordinates":[109.909462,40.585178]},"properties":{"full_address":"内蒙古自治区包头市稀土高新区民馨路街道滨河第一城C区"}},{"type":"Feature","geometry":{"type":"Point","coordinates":[109.851669,40.643471]},"properties":{"full_address":"内蒙古自治区包头市稀土高新区稀土路街道银苑小区"}},{"type":"Feature","geometry":{"type":"Point","coordinates":[109.945648,40.565029]},"properties":{"full_address":"内蒙古自治区包头市稀土高新区万水泉镇万泉佳苑A区"}},{"type":"Feature","geometry":{"type":"Point","coordinates":[118.930608,42.325709]},"properties":{"full_address":"内蒙古自治区赤峰市红山区赤峰商贸物流服务园区朝阳路65号"}},{"type":"Feature","geometry":{"type":"Point","coordinates":[119.010216,42.286673]},"properties":{"full_address":"内蒙古自治区赤峰市红山区东城街道四季雅苑小区"}},{"type":"Feature","geometry":{"type":"Point","coordinates":[118.960232,42.257986]},"properties":{"full_address":"内蒙古自治区赤峰市红山区站前街道站前综合楼"}},{"type":"Feature","geometry":{"type":"Point","coordinates":[118.956072,42.25745]},"properties":{"full_address":"内蒙古自治区赤峰市红山区站前街道铁北小区"}},{"type":"Feature","geometry":{"type":"Point","coordinates":[118.949461,42.25982]},"properties":{"full_address":"内蒙古自治区赤峰市红山区站前街道金百合东区（除1号楼外）"}},{"type":"Feature","geometry":{"type":"Point","coordinates":[118.954358,42.272331]},"properties":{"full_address":"内蒙古自治区赤峰市红山区哈达街道万悦城B座、C座、D座"}},{"type":"Feature","geometry":{"type":"Point","coordinates":[118.9584,42.266654]},"properties":{"full_address":"内蒙古自治区赤峰市红山区西城街道百合和苑小区"}},{"type":"Feature","geometry":{"type":"Point","coordinates":[118.954603,42.262226]},"properties":{"full_address":"内蒙古自治区赤峰市红山区站前街道昭乌达社区便民市场以东、钢铁街以南、昭乌达路以西、昭乌达社区东西主路以北区域"}},{"type":"Feature","geometry":{"type":"Point","coordinates":[118.908764,42.288124]},"properties":{"full_address":"内蒙古自治区赤峰市松山区铁东街道北城嘉园小区（二期）"}},{"type":"Feature","geometry":{"type":"Point","coordinates":[118.908046,42.274768]},"properties":{"full_address":"内蒙古自治区赤峰市松山区铁东街道蓝山庭院西区"}},{"type":"Feature","geometry":{"type":"Point","coordinates":[118.911352,42.285075]},"properties":{"full_address":"内蒙古自治区赤峰市松山区铁东街道晨曦花苑小区（含临街商厅）"}},{"type":"Feature","geometry":{"type":"Point","coordinates":[118.908674,42.271327]},"properties":{"full_address":"内蒙古自治区赤峰市松山区玉龙大街以北，铁路线以东，乌梁苏街以南，富山路以西合围区域（除天通宾馆、七天连锁酒店、维也纳酒店外）"}},{"type":"Feature","geometry":{"type":"Point","coordinates":[118.894019,42.239288]},"properties":{"full_address":"内蒙古自治区赤峰市松山区松山区铁东街道蓝山庭院东区"}},{"type":"Feature","geometry":{"type":"Point","coordinates":[120.071705,43.870001]},"properties":{"full_address":"内蒙古自治区赤峰市阿鲁科尔沁旗天元小区四期21号楼"}},{"type":"Feature","geometry":{"type":"Point","coordinates":[120.296266,44.322129]},"properties":{"full_address":"内蒙古自治区赤峰市阿鲁科尔沁旗赛罕塔拉苏木查干花嘎查"}},{"type":"Feature","geometry":{"type":"Point","coordinates":[119.387764,44.003195]},"properties":{"full_address":"内蒙古自治区赤峰市巴林左旗林东镇兴隆地村前兴隆地自然村"}},{"type":"Feature","geometry":{"type":"Point","coordinates":[119.393065,43.97558]},"properties":{"full_address":"内蒙古自治区赤峰市巴林左旗临潢路契丹大街至沙里街段"}},{"type":"Feature","geometry":{"type":"Point","coordinates":[118.054063,43.594369]},"properties":{"full_address":"内蒙古自治区赤峰市林西县城南街道学府社区学府花园小区第22号楼、23号楼、廉租房1号楼、廉租房2号楼"}},{"type":"Feature","geometry":{"type":"Point","coordinates":[110.0374,40.36757]},"properties":{"full_address":"内蒙古自治区鄂尔多斯市东胜区铜川镇辖区范围内的内蒙古欧上家具智造有限公司厂区（添漫梁村欧上家具城）"}},{"type":"Feature","geometry":{"type":"Point","coordinates":[110.021551,39.802337]},"properties":{"full_address":"内蒙古自治区鄂尔多斯市东胜区林荫街道金色家园小区3#楼"}},{"type":"Feature","geometry":{"type":"Point","coordinates":[110.033023,39.806262]},"properties":{"full_address":"内蒙古自治区鄂尔多斯市东胜区富兴街道富兴花园南平房区"}},{"type":"Feature","geometry":{"type":"Point","coordinates":[109.37886,39.84763]},"properties":{"full_address":"内蒙古自治区鄂尔多斯市东胜区供电局巷子7号街坊31号及东面5户平房区"}},{"type":"Feature","geometry":{"type":"Point","coordinates":[110.03302,39.80727]},"properties":{"full_address":"内蒙古自治区鄂尔多斯市东胜区富兴花园小区南侧饭店"}},{"type":"Feature","geometry":{"type":"Point","coordinates":[110.012459,39.823742]},"properties":{"full_address":"内蒙古自治区鄂尔多斯市东胜区满都海巷12街坊58号及东边1户、西边17户平房区域"}},{"type":"Feature","geometry":{"type":"Point","coordinates":[110.011017,39.829132]},"properties":{"full_address":"内蒙古自治区鄂尔多斯市东胜区红波社区工行小区"}},{"type":"Feature","geometry":{"type":"Point","coordinates":[109.96144,39.82127]},"properties":{"full_address":"内蒙古自治区鄂尔多斯市东胜区公路工程家属小区"}},{"type":"Feature","geometry":{"type":"Point","coordinates":[110.037453,39.827648]},"properties":{"full_address":"内蒙古自治区鄂尔多斯市东胜区国电富兴苑小区"}},{"type":"Feature","geometry":{"type":"Point","coordinates":[110.030678,39.81002]},"properties":{"full_address":"内蒙古自治区鄂尔多斯市东胜区煜春园"}},{"type":"Feature","geometry":{"type":"Point","coordinates":[110.026863,39.834492]},"properties":{"full_address":"内蒙古自治区鄂尔多斯市东胜区炜业怡和丽景"}},{"type":"Feature","geometry":{"type":"Point","coordinates":[109.999062,39.799274]},"properties":{"full_address":"内蒙古自治区鄂尔多斯市东胜区金鹰万家小区"}},{"type":"Feature","geometry":{"type":"Point","coordinates":[109.98053,39.823471]},"properties":{"full_address":"内蒙古自治区鄂尔多斯市东胜区紫金苑小区"}},{"type":"Feature","geometry":{"type":"Point","coordinates":[110.056587,39.812729]},"properties":{"full_address":"内蒙古自治区鄂尔多斯市东胜区补拉塔移民区"}},{"type":"Feature","geometry":{"type":"Point","coordinates":[110.03302,39.80727]},"properties":{"full_address":"内蒙古自治区鄂尔多斯市东胜区富兴花园小区除高风险区域外的其他区域"}},{"type":"Feature","geometry":{"type":"Point","coordinates":[108.72981,39.831739]},"properties":{"full_address":"内蒙古自治区鄂尔多斯市杭锦旗金地佳苑1号楼一、二、四单元"}},{"type":"Feature","geometry":{"type":"Point","coordinates":[109.99475,39.820781]},"properties":{"full_address":"内蒙古自治区鄂尔多斯市杭锦旗邮电小区整体"}},{"type":"Feature","geometry":{"type":"Point","coordinates":[108.736208,39.833309]},"properties":{"full_address":"内蒙古自治区鄂尔多斯市杭锦旗邮政大楼"}},{"type":"Feature","geometry":{"type":"Point","coordinates":[119.916313,49.261051]},"properties":{"full_address":"内蒙古自治区呼伦贝尔市海拉尔区互助村2路4号平房"}},{"type":"Feature","geometry":{"type":"Point","coordinates":[119.745537,49.21316]},"properties":{"full_address":"内蒙古自治区呼伦贝尔市海拉尔区中国石油呼伦贝尔工业园区加油站（海拉尔区301国道附近）"}},{"type":"Feature","geometry":{"type":"Point","coordinates":[120.073822,49.189632]},"properties":{"full_address":"内蒙古自治区呼伦贝尔市海拉尔区哈克镇哈克村北一街以北、北三街以西、西一路以东区域"}},{"type":"Feature","geometry":{"type":"Point","coordinates":[123.3908,48.2635]},"properties":{"full_address":"内蒙古自治区呼伦贝尔市阿荣旗霍尔奇镇荣花村上七垧地组"}},{"type":"Feature","geometry":{"type":"Point","coordinates":[123.388367,48.275902]},"properties":{"full_address":"内蒙古自治区呼伦贝尔市阿荣旗霍尔奇镇荣花村下七垧地组"}},{"type":"Feature","geometry":{"type":"Point","coordinates":[119.759222,49.138477]},"properties":{"full_address":"内蒙古自治区呼伦贝尔市鄂温克族自治旗巴彦托海镇伊敏嘉园三期2号楼"}},{"type":"Feature","geometry":{"type":"Point","coordinates":[119.73687,49.163158]},"properties":{"full_address":"内蒙古自治区呼伦贝尔市鄂温克族自治旗巴彦托海镇金鼎上城南区每日精选生鲜超市"}},{"type":"Feature","geometry":{"type":"Point","coordinates":[119.737825,49.164215]},"properties":{"full_address":"内蒙古自治区呼伦贝尔市鄂温克族自治旗巴彦托海镇金鼎上城北区好宜家超市"}},{"type":"Feature","geometry":{"type":"Point","coordinates":[119.742859,49.150508]},"properties":{"full_address":"内蒙古自治区呼伦贝尔市鄂温克族自治旗巴彦托海镇龙景庭院三期万克米多多仓储超市"}},{"type":"Feature","geometry":{"type":"Point","coordinates":[119.755043,49.142284]},"properties":{"full_address":"内蒙古自治区呼伦贝尔市鄂温克族自治旗巴彦托海镇佳乐购超市"}},{"type":"Feature","geometry":{"type":"Point","coordinates":[119.736671,49.17157]},"properties":{"full_address":"内蒙古自治区呼伦贝尔市鄂温克族自治旗巴彦托海镇华晟宾馆"}},{"type":"Feature","geometry":{"type":"Point","coordinates":[119.736481,49.172029]},"properties":{"full_address":"内蒙古自治区呼伦贝尔市鄂温克族自治旗巴彦托海镇华晟蔬菜水果超市"}},{"type":"Feature","geometry":{"type":"Point","coordinates":[119.738853,49.155029]},"properties":{"full_address":"内蒙古自治区呼伦贝尔市鄂温克族自治旗移动小区及小区门市"}},{"type":"Feature","geometry":{"type":"Point","coordinates":[119.756531,49.13271]},"properties":{"full_address":"内蒙古自治区呼伦贝尔市鄂温克族自治旗伊敏路以西至南兴路、索伦街以南至南外环路以北整个区域"}},{"type":"Feature","geometry":{"type":"Point","coordinates":[116.818924,48.666002]},"properties":{"full_address":"内蒙古自治区呼伦贝尔市新巴尔虎右旗八一小区"}},{"type":"Feature","geometry":{"type":"Point","coordinates":[116.82369,48.672101]},"properties":{"full_address":"内蒙古自治区呼伦贝尔市新巴尔虎右旗芳草地智能宾馆"}},{"type":"Feature","geometry":{"type":"Point","coordinates":[116.810547,48.664143]},"properties":{"full_address":"内蒙古自治区呼伦贝尔市新巴尔虎右旗阿拉坦额莫勒镇邮政小区"}},{"type":"Feature","geometry":{"type":"Point","coordinates":[107.420578,40.77367]},"properties":{"full_address":"内蒙古自治区巴彦淖尔市临河区新华街道绿色家园小区"}},{"type":"Feature","geometry":{"type":"Point","coordinates":[107.417969,40.772949]},"properties":{"full_address":"内蒙古自治区巴彦淖尔市临河区新华街道绿岛新村小区"}},{"type":"Feature","geometry":{"type":"Point","coordinates":[113.12401,40.9906]},"properties":{"full_address":"内蒙古自治区乌兰察布市集宁区乌兰察布电商快递物流园区"}},{"type":"Feature","geometry":{"type":"Point","coordinates":[113.128064,41.03998]},"properties":{"full_address":"内蒙古自治区乌兰察布市集宁区天佐小区"}},{"type":"Feature","geometry":{"type":"Point","coordinates":[113.117142,41.037098]},"properties":{"full_address":"内蒙古自治区乌兰察布市集宁区安大小区"}},{"type":"Feature","geometry":{"type":"Point","coordinates":[113.08313,41.027222]},"properties":{"full_address":"内蒙古自治区乌兰察布市集宁区国营浴池"}},{"type":"Feature","geometry":{"type":"Point","coordinates":[113.123779,40.990689]},"properties":{"full_address":"内蒙古自治区乌兰察布市集宁区鹤壁轩石头店"}},{"type":"Feature","geometry":{"type":"Point","coordinates":[112.582628,40.895173]},"properties":{"full_address":"内蒙古自治区乌兰察布市卓资县卓资山镇人民北路丑妞化妆品店"}},{"type":"Feature","geometry":{"type":"Point","coordinates":[112.576023,40.895814]},"properties":{"full_address":"内蒙古自治区乌兰察布市卓资县卓资山镇人民北路康恩大药房"}},{"type":"Feature","geometry":{"type":"Point","coordinates":[112.576538,40.895173]},"properties":{"full_address":"内蒙古自治区乌兰察布市卓资县卓资山镇人民北路利达灯具店"}},{"type":"Feature","geometry":{"type":"Point","coordinates":[112.580641,40.901212]},"properties":{"full_address":"内蒙古自治区乌兰察布市卓资县卓资山镇龙胜路馨雅窗帘店"}},{"type":"Feature","geometry":{"type":"Point","coordinates":[112.556219,40.903069]},"properties":{"full_address":"内蒙古自治区乌兰察布市卓资县卓资山镇爱民街海平超市"}},{"type":"Feature","geometry":{"type":"Point","coordinates":[112.159332,40.980658]},"properties":{"full_address":"内蒙古自治区乌兰察布市卓资县旗下营镇后汽路（S105）小王轮胎店旁贾培花店铺"}},{"type":"Feature","geometry":{"type":"Point","coordinates":[112.172054,40.995636]},"properties":{"full_address":"内蒙古自治区乌兰察布市卓资县旗下营镇一间房物流园区修车店"}},{"type":"Feature","geometry":{"type":"Point","coordinates":[112.20723,40.895012]},"properties":{"full_address":"内蒙古自治区乌兰察布市卓资县旗下营镇蓿麻湾砂厂装卸货点"}},{"type":"Feature","geometry":{"type":"Point","coordinates":[112.580711,40.901123]},"properties":{"full_address":"内蒙古自治区乌兰察布市卓资县卓资山镇龙胜路雅美居布艺店、海清布艺店"}},{"type":"Feature","geometry":{"type":"Point","coordinates":[113.851143,40.87293]},"properties":{"full_address":"内蒙古自治区乌兰察布市卓资县旗下营镇张铁人家电百货"}},{"type":"Feature","geometry":{"type":"Point","coordinates":[112.185532,40.974842]},"properties":{"full_address":"内蒙古自治区乌兰察布市卓资县旗下营镇刘永生生熟肉店"}},{"type":"Feature","geometry":{"type":"Point","coordinates":[112.161079,40.980942]},"properties":{"full_address":"内蒙古自治区乌兰察布市卓资县旗下营镇伊香园馒头店"}},{"type":"Feature","geometry":{"type":"Point","coordinates":[112.159332,40.980658]},"properties":{"full_address":"内蒙古自治区乌兰察布市卓资县旗下营镇联通营业点"}},{"type":"Feature","geometry":{"type":"Point","coordinates":[112.163376,40.982906]},"properties":{"full_address":"内蒙古自治区乌兰察布市卓资县旗下营镇福鱼名烟名酒店"}},{"type":"Feature","geometry":{"type":"Point","coordinates":[112.185532,40.974842]},"properties":{"full_address":"内蒙古自治区乌兰察布市卓资县旗下营镇仟水秀超市"}},{"type":"Feature","geometry":{"type":"Point","coordinates":[112.185532,40.974842]},"properties":{"full_address":"内蒙古自治区乌兰察布市卓资县旗下营镇杭州包子铺"}},{"type":"Feature","geometry":{"type":"Point","coordinates":[113.579544,41.564579]},"properties":{"full_address":"内蒙古自治区乌兰察布市商都县龙湾小区（除12号楼以外）"}},{"type":"Feature","geometry":{"type":"Point","coordinates":[113.545746,41.559498]},"properties":{"full_address":"内蒙古自治区乌兰察布市商都县都德利超市（新风西路店）"}},{"type":"Feature","geometry":{"type":"Point","coordinates":[113.550392,41.55995]},"properties":{"full_address":"内蒙古自治区乌兰察布市商都县都德利超市（新风西路店）东温州香扒佬熟食城熟食城"}},{"type":"Feature","geometry":{"type":"Point","coordinates":[113.555862,41.56266]},"properties":{"full_address":"内蒙古自治区乌兰察布市商都县蒙辉超市对面偏东鲜面条主食厨房"}},{"type":"Feature","geometry":{"type":"Point","coordinates":[113.57718,41.5621]},"properties":{"full_address":"内蒙古自治区乌兰察布市商都县桥头东南转角二海军熟肉调料铺"}},{"type":"Feature","geometry":{"type":"Point","coordinates":[113.55476,41.563525]},"properties":{"full_address":"内蒙古自治区乌兰察布市商都县原鞋厂楼南路转角同仁大药房"}},{"type":"Feature","geometry":{"type":"Point","coordinates":[113.547859,41.558743]},"properties":{"full_address":"内蒙古自治区乌兰察布市商都县原装卸队大门西老宝中心蔬菜批发店"}},{"type":"Feature","geometry":{"type":"Point","coordinates":[113.556923,41.574501]},"properties":{"full_address":"内蒙古自治区乌兰察布市商都县棚户区西区大门北小门诊"}},{"type":"Feature","geometry":{"type":"Point","coordinates":[113.554773,41.559367]},"properties":{"full_address":"内蒙古自治区乌兰察布市商都县新风西路两侧金店（老凤祥金店、老庙金店、周大生珠宝、梦金园、中国珠宝、周大福、中国黄金、梦金园珠宝、金盾银楼、银鑫金店）"}},{"type":"Feature","geometry":{"type":"Point","coordinates":[113.824387,40.869781]},"properties":{"full_address":"内蒙古自治区乌兰察布市商都县雁北饺子楼"}},{"type":"Feature","geometry":{"type":"Point","coordinates":[111.682884,41.535233]},"properties":{"full_address":"内蒙古自治区乌兰察布市商都县老地方吊炉海鲜烧烤城"}},{"type":"Feature","geometry":{"type":"Point","coordinates":[113.57718,41.5621]},"properties":{"full_address":"内蒙古自治区乌兰察布市商都县小世界小区"}},{"type":"Feature","geometry":{"type":"Point","coordinates":[122.053383,46.071808]},"properties":{"full_address":"内蒙古自治区兴安盟乌兰浩特市都林花园小区2号楼6单元"}},{"type":"Feature","geometry":{"type":"Point","coordinates":[122.110825,46.071137]},"properties":{"full_address":"内蒙古自治区兴安盟乌兰浩特市恒大绿洲小区14号楼3单元"}},{"type":"Feature","geometry":{"type":"Point","coordinates":[122.09316,46.07282]},"properties":{"full_address":"内蒙古自治区兴安盟乌兰浩特市友好小区1号楼2单元"}},{"type":"Feature","geometry":{"type":"Point","coordinates":[122.050436,46.070183]},"properties":{"full_address":"内蒙古自治区兴安盟乌兰浩特市热电小区5号楼4单元"}},{"type":"Feature","geometry":{"type":"Point","coordinates":[122.083231,46.064404]},"properties":{"full_address":"内蒙古自治区兴安盟乌兰浩特市万恒世纪城小区15号楼5单元"}},{"type":"Feature","geometry":{"type":"Point","coordinates":[122.09316,46.07282]},"properties":{"full_address":"内蒙古自治区兴安盟乌兰浩特市友好小区1号楼3单元"}},{"type":"Feature","geometry":{"type":"Point","coordinates":[123.583122,41.854992]},"properties":{"full_address":"辽宁省沈阳市浑南区满堂街道英达村除高风险外的其他区域"}},{"type":"Feature","geometry":{"type":"Point","coordinates":[123.607071,41.875893]},"properties":{"full_address":"辽宁省沈阳市浑南区满堂街道东沟村"}},{"type":"Feature","geometry":{"type":"Point","coordinates":[123.593132,41.86692]},"properties":{"full_address":"辽宁省沈阳市浑南区满堂街道公家村"}},{"type":"Feature","geometry":{"type":"Point","coordinates":[123.181061,41.785332]},"properties":{"full_address":"辽宁省沈阳市于洪区沙岭街道水木成典小区除高风险外的其他区域"}},{"type":"Feature","geometry":{"type":"Point","coordinates":[123.177063,41.788067]},"properties":{"full_address":"辽宁省沈阳市于洪区沙岭街道万纬沈阳于洪冷链园"}},{"type":"Feature","geometry":{"type":"Point","coordinates":[123.046715,41.179131]},"properties":{"full_address":"辽宁省鞍山市立山区灵山街道红拖社区除红旗街12栋、钢绳街36栋以外的其他区域"}},{"type":"Feature","geometry":{"type":"Point","coordinates":[123.043907,41.183922]},"properties":{"full_address":"辽宁省鞍山市立山区灵山街道灵西社区"}},{"type":"Feature","geometry":{"type":"Point","coordinates":[122.4235,41.072392]},"properties":{"full_address":"辽宁省鞍山市台安县韭菜台镇韭菜台村外其余村"}},{"type":"Feature","geometry":{"type":"Point","coordinates":[122.471222,41.157654]},"properties":{"full_address":"辽宁省鞍山市台安县高力房镇大高村"}},{"type":"Feature","geometry":{"type":"Point","coordinates":[122.460381,41.34737]},"properties":{"full_address":"辽宁省鞍山市台安县台安高新农业产业开发区除鞍山九股河食品有限责任公司厂区外的其他区域"}},{"type":"Feature","geometry":{"type":"Point","coordinates":[122.428558,41.400791]},"properties":{"full_address":"辽宁省鞍山市台安县八角台街道西郊社区除一百户小区4、5、9号楼外的其他区域"}},{"type":"Feature","geometry":{"type":"Point","coordinates":[122.448757,40.969433]},"properties":{"full_address":"辽宁省鞍山市海城市西四镇（除高风险区以外其他区域）"}},{"type":"Feature","geometry":{"type":"Point","coordinates":[122.536227,40.948704]},"properties":{"full_address":"辽宁省鞍山市海城市牛庄镇（除高风险区以外其他区域）"}},{"type":"Feature","geometry":{"type":"Point","coordinates":[122.613976,40.913074]},"properties":{"full_address":"辽宁省鞍山市海城市东四街道"}},{"type":"Feature","geometry":{"type":"Point","coordinates":[122.741379,40.8511]},"properties":{"full_address":"辽宁省鞍山市海城市兴海街道局部（站前社区、永安社区、安铭社区、西关社区、永强社区、兴源社区）（除高风险区以外其他区域）"}},{"type":"Feature","geometry":{"type":"Point","coordinates":[122.744812,40.818192]},"properties":{"full_address":"辽宁省鞍山市海城市海城市八里镇南腰村"}},{"type":"Feature","geometry":{"type":"Point","coordinates":[123.99398,41.890076]},"properties":{"full_address":"辽宁省抚顺市顺城区前甸镇东华园东区"}},{"type":"Feature","geometry":{"type":"Point","coordinates":[123.969841,41.882328]},"properties":{"full_address":"辽宁省抚顺市顺城区长春街道新湖国际一期"}},{"type":"Feature","geometry":{"type":"Point","coordinates":[123.854309,41.870651]},"properties":{"full_address":"辽宁省抚顺市顺城区葛布街道后葛南棚改2号楼"}},{"type":"Feature","geometry":{"type":"Point","coordinates":[123.854309,41.870651]},"properties":{"full_address":"辽宁省抚顺市顺城区葛布街道后葛南棚改4号楼"}},{"type":"Feature","geometry":{"type":"Point","coordinates":[123.8826,41.87059]},"properties":{"full_address":"辽宁省抚顺市顺城区将军堡街道梅河路67号楼"}},{"type":"Feature","geometry":{"type":"Point","coordinates":[123.882383,41.870873]},"properties":{"full_address":"辽宁省抚顺市顺城区将军堡街道梅河路67-1号楼"}},{"type":"Feature","geometry":{"type":"Point","coordinates":[123.881118,41.87055]},"properties":{"full_address":"辽宁省抚顺市顺城区将军堡街道梅河路69-1号楼"}},{"type":"Feature","geometry":{"type":"Point","coordinates":[124.917936,42.08959]},"properties":{"full_address":"辽宁省抚顺市清原满族自治县清原镇金台合苑2号楼"}},{"type":"Feature","geometry":{"type":"Point","coordinates":[124.943718,42.104183]},"properties":{"full_address":"辽宁省抚顺市清原满族自治县清原镇金台合苑3号楼"}},{"type":"Feature","geometry":{"type":"Point","coordinates":[124.918022,42.089561]},"properties":{"full_address":"辽宁省抚顺市清原满族自治县清原镇日新小区18号楼"}},{"type":"Feature","geometry":{"type":"Point","coordinates":[124.913059,42.097024]},"properties":{"full_address":"辽宁省抚顺市清原满族自治县清原镇金地家园16号楼"}},{"type":"Feature","geometry":{"type":"Point","coordinates":[124.937958,42.101059]},"properties":{"full_address":"辽宁省抚顺市清原满族自治县清原镇白云社区居委会（白云街兴隆路73号）"}},{"type":"Feature","geometry":{"type":"Point","coordinates":[124.912994,42.095337]},"properties":{"full_address":"辽宁省抚顺市清原满族自治县清原镇歆海湖畔一期（不含17号楼）"}},{"type":"Feature","geometry":{"type":"Point","coordinates":[124.918022,42.089561]},"properties":{"full_address":"辽宁省抚顺市清原满族自治县清原镇铁北和谐家园（不含8号楼）"}},{"type":"Feature","geometry":{"type":"Point","coordinates":[124.907059,42.094002]},"properties":{"full_address":"辽宁省抚顺市清原满族自治县清原镇盛和林业家园（不含5号楼）"}},{"type":"Feature","geometry":{"type":"Point","coordinates":[123.839257,42.282667]},"properties":{"full_address":"辽宁省铁岭市银州区辽海街道市委党校家属楼南环路14A号（原党校综合楼门市）、14-1栋、14-2栋、14-3栋、14-4栋、14-5栋、14-6栋、14-7栋"}},{"type":"Feature","geometry":{"type":"Point","coordinates":[120.44337,41.553531]},"properties":{"full_address":"辽宁省朝阳市双塔区龙山街道文祥豪府一期西区(除高风险区以外)"}},{"type":"Feature","geometry":{"type":"Point","coordinates":[120.44783,41.59219]},"properties":{"full_address":"辽宁省朝阳市双塔区红旗街道辽河家园小区（除高风险区以外）"}},{"type":"Feature","geometry":{"type":"Point","coordinates":[120.456337,41.555]},"properties":{"full_address":"辽宁省朝阳市双塔区龙山街道凌河庄园小区（除高风险区以外）"}},{"type":"Feature","geometry":{"type":"Point","coordinates":[120.445374,41.553902]},"properties":{"full_address":"辽宁省朝阳市双塔区龙山街道文祥豪府小区（除高风险区以外）"}},{"type":"Feature","geometry":{"type":"Point","coordinates":[120.451424,41.54216]},"properties":{"full_address":"辽宁省朝阳市双塔区龙山街道光大领仕馆小区（除高风险区以外）"}},{"type":"Feature","geometry":{"type":"Point","coordinates":[120.427292,41.543743]},"properties":{"full_address":"辽宁省朝阳市双塔区龙山街道兴隆尚品小区（除高风险区以外）"}},{"type":"Feature","geometry":{"type":"Point","coordinates":[120.43145,41.544041]},"properties":{"full_address":"辽宁省朝阳市双塔区龙山街道三合家园小区（除高风险区以外）"}},{"type":"Feature","geometry":{"type":"Point","coordinates":[120.436653,41.574913]},"properties":{"full_address":"辽宁省朝阳市双塔区站南街道和平家园小区（除高风险区以外）"}},{"type":"Feature","geometry":{"type":"Point","coordinates":[120.457619,41.600544]},"properties":{"full_address":"辽宁省朝阳市双塔区凌河街道水岸华城小区（除高风险区以外）"}},{"type":"Feature","geometry":{"type":"Point","coordinates":[120.45152,41.57535]},"properties":{"full_address":"辽宁省朝阳市双塔区光明街道朝阳大街三段5号楼"}},{"type":"Feature","geometry":{"type":"Point","coordinates":[120.426392,41.604782]},"properties":{"full_address":"辽宁省朝阳市龙城区龙泉街道桃源雅居小区（除高风险区以外）"}},{"type":"Feature","geometry":{"type":"Point","coordinates":[120.42498,41.537601]},"properties":{"full_address":"辽宁省朝阳市朝阳县柳城街道柳城家园小区（除高风险区以外）"}},{"type":"Feature","geometry":{"type":"Point","coordinates":[120.948288,40.855583]},"properties":{"full_address":"辽宁省葫芦岛市连山区塔山乡孟屯村东、西孟屯"}},{"type":"Feature","geometry":{"type":"Point","coordinates":[120.895012,40.78297]},"properties":{"full_address":"辽宁省葫芦岛市连山区锦郊街道二台子村"}},{"type":"Feature","geometry":{"type":"Point","coordinates":[120.86422,40.75457]},"properties":{"full_address":"辽宁省葫芦岛市连山区站前街道群英街17号楼，站前街道群英街工会大厦，站前街道中央路17号楼"}},{"type":"Feature","geometry":{"type":"Point","coordinates":[120.666817,41.03273]},"properties":{"full_address":"辽宁省葫芦岛市南票区暖池塘镇除高风险区外的其他区域"}},{"type":"Feature","geometry":{"type":"Point","coordinates":[119.857338,40.055229]},"properties":{"full_address":"辽宁省葫芦岛市绥中县万家镇王家庄（前街）"}},{"type":"Feature","geometry":{"type":"Point","coordinates":[126.630628,45.660858]},"properties":{"full_address":"黑龙江省哈尔滨市香坊区朝阳镇前进村"}},{"type":"Feature","geometry":{"type":"Point","coordinates":[124.233307,47.552422]},"properties":{"full_address":"黑龙江省齐齐哈尔市富裕县塔哈工业园区除中建交通宿舍外其它区域"}},{"type":"Feature","geometry":{"type":"Point","coordinates":[130.261502,47.282211]},"properties":{"full_address":"黑龙江省鹤岗市兴安区光宇小区环宇路以东，安兴街以南，安国街以西，安中街以北，合围区域(除光宇小区C8号楼外)"}},{"type":"Feature","geometry":{"type":"Point","coordinates":[130.263908,47.280519]},"properties":{"full_address":"黑龙江省鹤岗市兴安区光宇小区B区A5号楼"}},{"type":"Feature","geometry":{"type":"Point","coordinates":[125.197242,46.451495]},"properties":{"full_address":"黑龙江省大庆市龙凤区乙烯一区1-21号楼"}},{"type":"Feature","geometry":{"type":"Point","coordinates":[127.478895,50.244896]},"properties":{"full_address":"黑龙江省黑河市爱辉区海兰街道温馨社区北国明珠小区7号楼1单元及1单元附属车库、18号楼2单元及2单元附属车库"}},{"type":"Feature","geometry":{"type":"Point","coordinates":[127.482375,50.256592]},"properties":{"full_address":"黑龙江省黑河市爱辉区西兴街道人保财险社区水岸华府小区2号楼1单元及1单元附属门市"}},{"type":"Feature","geometry":{"type":"Point","coordinates":[127.514015,50.239785]},"properties":{"full_address":"黑龙江省黑河市爱辉区花园街道长海社区龙滨花园小区3号楼及附属门市车库"}},{"type":"Feature","geometry":{"type":"Point","coordinates":[127.529472,50.232582]},"properties":{"full_address":"黑龙江省黑河市爱辉区中央东大街365号区域（不含9号楼）"}},{"type":"Feature","geometry":{"type":"Point","coordinates":[127.500237,50.242584]},"properties":{"full_address":"黑龙江省黑河市爱辉区兴安街道热电社区和谐家园小区及附属门市"}},{"type":"Feature","geometry":{"type":"Point","coordinates":[126.348717,46.255741]},"properties":{"full_address":"黑龙江省绥化市兰西县颜河街道金玉兰庭小区"}},{"type":"Feature","geometry":{"type":"Point","coordinates":[126.284767,46.244511]},"properties":{"full_address":"黑龙江省绥化市兰西县开元尚居小区5期3号楼"}},{"type":"Feature","geometry":{"type":"Point","coordinates":[126.242882,46.442631]},"properties":{"full_address":"黑龙江省绥化市兰西县北安乡北安村西围子屯"}},{"type":"Feature","geometry":{"type":"Point","coordinates":[126.088789,46.684153]},"properties":{"full_address":"黑龙江省绥化市青冈县电业局老家属楼"}},{"type":"Feature","geometry":{"type":"Point","coordinates":[127.527354,46.882587]},"properties":{"full_address":"黑龙江省绥化市庆安县皮革厂家属楼及附属商服、利民街富安新村1号楼安氏太和板面馆"}},{"type":"Feature","geometry":{"type":"Point","coordinates":[125.964478,46.062111]},"properties":{"full_address":"黑龙江省绥化市肇东市清华名苑B区"}},{"type":"Feature","geometry":{"type":"Point","coordinates":[125.978378,46.054089]},"properties":{"full_address":"黑龙江省绥化市肇东市翔龙城小区19号楼"}},{"type":"Feature","geometry":{"type":"Point","coordinates":[125.978378,46.054089]},"properties":{"full_address":"黑龙江省绥化市肇东市 翔龙城小区9号商服"}},{"type":"Feature","geometry":{"type":"Point","coordinates":[125.988846,46.058033]},"properties":{"full_address":"黑龙江省绥化市肇东市 十四道街万福国际小区D1、A1、A2商服"}},{"type":"Feature","geometry":{"type":"Point","coordinates":[125.883644,45.705181]},"properties":{"full_address":"黑龙江省绥化市肇东市   人民医院门诊楼"}},{"type":"Feature","geometry":{"type":"Point","coordinates":[125.994423,46.073711]},"properties":{"full_address":"黑龙江省绥化市肇东市三道街新纪元商场"}},{"type":"Feature","geometry":{"type":"Point","coordinates":[125.971741,46.062702]},"properties":{"full_address":"黑龙江省绥化市肇东市宏盛丽园小区8A商服"}},{"type":"Feature","geometry":{"type":"Point","coordinates":[125.84317,46.003429]},"properties":{"full_address":"黑龙江省绥化市肇东市       正阳郡小区（除1号楼3单元）"}},{"type":"Feature","geometry":{"type":"Point","coordinates":[125.97448,46.060192]},"properties":{"full_address":"黑龙江省绥化市肇东市江山帝景小区（除F座4单元）"}},{"type":"Feature","geometry":{"type":"Point","coordinates":[121.466306,31.223069]},"properties":{"full_address":"上海市上海市黄浦区瑞金二路街道巨鹿路158-168号"}},{"type":"Feature","geometry":{"type":"Point","coordinates":[121.47127,31.204745]},"properties":{"full_address":"上海市上海市黄浦区打浦桥街道打浦路15号低区斯格威铂尔曼大酒店"}},{"type":"Feature","geometry":{"type":"Point","coordinates":[121.469093,31.204451]},"properties":{"full_address":"上海市上海市黄浦区打浦桥街道打浦路38弄海华花园"}},{"type":"Feature","geometry":{"type":"Point","coordinates":[121.47088,31.204975]},"properties":{"full_address":"上海市上海市黄浦区打浦桥街道打浦路1号金玉兰广场4楼海底捞火锅店"}},{"type":"Feature","geometry":{"type":"Point","coordinates":[121.483751,31.226392]},"properties":{"full_address":"上海市上海市黄浦区豫园街道人民路875号"}},{"type":"Feature","geometry":{"type":"Point","coordinates":[121.432193,31.201327]},"properties":{"full_address":"上海市上海市长宁区新华路街道新华路24号（秋果酒店）"}},{"type":"Feature","geometry":{"type":"Point","coordinates":[121.391238,31.210194]},"properties":{"full_address":"上海市上海市长宁区仙霞新村街道茅台路364弄124号-126号、136号-141号及沿街商铺"}},{"type":"Feature","geometry":{"type":"Point","coordinates":[121.444808,31.239794]},"properties":{"full_address":"上海市上海市静安区江宁路街道陕西北路1155弄"}},{"type":"Feature","geometry":{"type":"Point","coordinates":[121.442796,31.305375]},"properties":{"full_address":"上海市上海市静安区彭浦新村街道场中路2471弄小区"}},{"type":"Feature","geometry":{"type":"Point","coordinates":[121.460312,31.25186]},"properties":{"full_address":"上海市上海市静安区芷江西路街道三兴大楼小区"}},{"type":"Feature","geometry":{"type":"Point","coordinates":[121.46822,31.26403]},"properties":{"full_address":"上海市上海市静安区共和新路街道中山北路311号"}},{"type":"Feature","geometry":{"type":"Point","coordinates":[121.47707,31.25673]},"properties":{"full_address":"上海市上海市静安区宝山路街道宝山路420号"}},{"type":"Feature","geometry":{"type":"Point","coordinates":[121.461604,31.253318]},"properties":{"full_address":"上海市上海市静安区芷江西路街道兴新小区（中兴路1279弄、中兴路1321弄、中华新路612号、中华新路618号、中华新路630号、中华新路640号）"}},{"type":"Feature","geometry":{"type":"Point","coordinates":[121.404776,31.240023]},"properties":{"full_address":"上海市上海市普陀区曹杨新村街道兰溪路锐思特酒店"}},{"type":"Feature","geometry":{"type":"Point","coordinates":[121.446861,31.26116]},"properties":{"full_address":"上海市上海市普陀区宜川路街道泰山一村小区"}},{"type":"Feature","geometry":{"type":"Point","coordinates":[121.44162,31.265957]},"properties":{"full_address":"上海市上海市普陀区长征镇丁香苑小区"}},{"type":"Feature","geometry":{"type":"Point","coordinates":[121.419877,31.258178]},"properties":{"full_address":"上海市上海市普陀区石泉路街道品尊国际公寓（二期）"}},{"type":"Feature","geometry":{"type":"Point","coordinates":[121.430786,31.247526]},"properties":{"full_address":"上海市上海市普陀区长寿路街道中山北路2088号智选假日酒店"}},{"type":"Feature","geometry":{"type":"Point","coordinates":[121.448868,31.254799]},"properties":{"full_address":"上海市上海市普陀区宜川路街道嘉华苑小区"}},{"type":"Feature","geometry":{"type":"Point","coordinates":[121.4261,31.26459]},"properties":{"full_address":"上海市上海市普陀区甘泉路街道宜君路80弄小区"}},{"type":"Feature","geometry":{"type":"Point","coordinates":[121.428459,31.257923]},"properties":{"full_address":"上海市上海市普陀区石泉路街道华池路58弄新体育广场"}},{"type":"Feature","geometry":{"type":"Point","coordinates":[121.437286,31.260031]},"properties":{"full_address":"上海市上海市普陀区宜川路街道宜川二村78-83号、101-109号、122-127号"}},{"type":"Feature","geometry":{"type":"Point","coordinates":[121.443237,31.240511]},"properties":{"full_address":"上海市上海市普陀区长寿路街道九茂小区"}},{"type":"Feature","geometry":{"type":"Point","coordinates":[121.4412,31.2587]},"properties":{"full_address":"上海市上海市普陀区宜川路街道农林光新小区"}},{"type":"Feature","geometry":{"type":"Point","coordinates":[121.379814,31.23996]},"properties":{"full_address":"上海市上海市普陀区长征镇真光路962弄1幢、2幢、8幢、9幢"}},{"type":"Feature","geometry":{"type":"Point","coordinates":[121.50217,31.26396]},"properties":{"full_address":"上海市上海市虹口区嘉兴路街道瑞虹路233弄小区"}},{"type":"Feature","geometry":{"type":"Point","coordinates":[121.473664,31.27382]},"properties":{"full_address":"上海市上海市虹口区广中路街道水电路191弄小区"}},{"type":"Feature","geometry":{"type":"Point","coordinates":[121.529252,31.285356]},"properties":{"full_address":"上海市上海市杨浦区控江路街道靖宇中路58弄1-9号、60号、70号及其沿街商铺"}},{"type":"Feature","geometry":{"type":"Point","coordinates":[121.529361,31.334719]},"properties":{"full_address":"上海市上海市杨浦区殷行街道闸殷路81弄（包括沿街商铺）"}},{"type":"Feature","geometry":{"type":"Point","coordinates":[121.51631,31.28776]},"properties":{"full_address":"上海市上海市杨浦区五角场街道国权路95弄(包括沿街商铺)"}},{"type":"Feature","geometry":{"type":"Point","coordinates":[121.529808,31.28458]},"properties":{"full_address":"上海市上海市杨浦区控江路街道控江六村及其沿街商铺"}},{"type":"Feature","geometry":{"type":"Point","coordinates":[121.524933,31.28524]},"properties":{"full_address":"上海市上海市杨浦区控江路街道控江四村及其沿街商铺"}},{"type":"Feature","geometry":{"type":"Point","coordinates":[121.434796,31.012112]},"properties":{"full_address":"上海市上海市闵行区江川路街道永平南路198弄东苑佳和园小区"}},{"type":"Feature","geometry":{"type":"Point","coordinates":[121.394497,31.045698]},"properties":{"full_address":"上海市上海市闵行区莘庄工业区中春路1299号"}},{"type":"Feature","geometry":{"type":"Point","coordinates":[121.46806,31.02712]},"properties":{"full_address":"上海市上海市闵行区吴泾镇东川路333弄紫竹半岛小区"}},{"type":"Feature","geometry":{"type":"Point","coordinates":[121.402449,31.039876]},"properties":{"full_address":"上海市上海市闵行区颛桥镇北松公路489号蹦床乐园"}},{"type":"Feature","geometry":{"type":"Point","coordinates":[121.377414,31.164033]},"properties":{"full_address":"上海市上海市闵行区七宝镇漕宝路1555弄大上海国际花园9区、13区、17区"}},{"type":"Feature","geometry":{"type":"Point","coordinates":[121.351517,31.166451]},"properties":{"full_address":"上海市上海市闵行区七宝镇航新路88弄330号-376号三佳苑小区"}},{"type":"Feature","geometry":{"type":"Point","coordinates":[121.372551,31.175364]},"properties":{"full_address":"上海市上海市闵行区虹桥镇吴中路1588弄胡桃里音乐酒馆所在建筑主体（含地下美食广场）及周边商铺"}},{"type":"Feature","geometry":{"type":"Point","coordinates":[121.402939,31.18148]},"properties":{"full_address":"上海市上海市闵行区虹桥镇吴中路511弄古北新城二期、四期（112号-120号）小区"}},{"type":"Feature","geometry":{"type":"Point","coordinates":[121.376251,31.170612]},"properties":{"full_address":"上海市上海市闵行区虹桥镇吴中路1065号虹桥吉祥公寓"}},{"type":"Feature","geometry":{"type":"Point","coordinates":[121.425911,31.30077]},"properties":{"full_address":"上海市上海市宝山区大场镇场中路3658弄美好家小区"}},{"type":"Feature","geometry":{"type":"Point","coordinates":[121.430113,31.334427]},"properties":{"full_address":"上海市上海市宝山区庙行镇场北路399弄"}},{"type":"Feature","geometry":{"type":"Point","coordinates":[121.49081,31.33273]},"properties":{"full_address":"上海市上海市宝山区淞南镇长江南路99弄3号同济公寓"}},{"type":"Feature","geometry":{"type":"Point","coordinates":[121.468365,31.398011]},"properties":{"full_address":"上海市上海市宝山区杨行镇友谊路1000弄"}},{"type":"Feature","geometry":{"type":"Point","coordinates":[121.373833,31.3251]},"properties":{"full_address":"上海市上海市宝山区大场镇保利叶之林小区"}},{"type":"Feature","geometry":{"type":"Point","coordinates":[121.4226,31.270994]},"properties":{"full_address":"上海市上海市宝山区大场镇南华苑小区"}},{"type":"Feature","geometry":{"type":"Point","coordinates":[121.403778,31.32885]},"properties":{"full_address":"上海市上海市宝山区大场镇纬地路88弄阳光水岸家园小区"}},{"type":"Feature","geometry":{"type":"Point","coordinates":[121.412193,31.28652]},"properties":{"full_address":"上海市上海市宝山区大场镇真华路1600弄玉华东苑小区"}},{"type":"Feature","geometry":{"type":"Point","coordinates":[121.4984,31.37288]},"properties":{"full_address":"上海市上海市宝山区吴淞街道淞兴路76弄"}},{"type":"Feature","geometry":{"type":"Point","coordinates":[121.48797,31.3676]},"properties":{"full_address":"上海市上海市宝山区吴淞街道淞兴西路258号"}},{"type":"Feature","geometry":{"type":"Point","coordinates":[121.412437,31.43091]},"properties":{"full_address":"上海市上海市宝山区浦镇月富路55弄昱翠家苑小区"}},{"type":"Feature","geometry":{"type":"Point","coordinates":[121.49328,31.31299]},"properties":{"full_address":"上海市上海市宝山区高境镇三门路485弄西区"}},{"type":"Feature","geometry":{"type":"Point","coordinates":[121.192413,31.27626]},"properties":{"full_address":"上海市上海市嘉定区安亭镇安拓路155弄、安研路66弄瑞仕华庭小区"}},{"type":"Feature","geometry":{"type":"Point","coordinates":[121.23547,31.3895]},"properties":{"full_address":"上海市上海市嘉定区菊园新区平城路1455号"}},{"type":"Feature","geometry":{"type":"Point","coordinates":[121.672218,31.282793]},"properties":{"full_address":"上海市上海市浦东新区曹路镇海鸣路98弄中虹家园小区"}},{"type":"Feature","geometry":{"type":"Point","coordinates":[121.76893,31.03303]},"properties":{"full_address":"上海市上海市浦东新区惠南镇靖海南路567弄"}},{"type":"Feature","geometry":{"type":"Point","coordinates":[121.220322,30.841383]},"properties":{"full_address":"上海市上海市金山区吕巷镇和平村5032号、5033号和5034号"}},{"type":"Feature","geometry":{"type":"Point","coordinates":[121.198349,30.823271]},"properties":{"full_address":"上海市上海市金山区吕巷镇荡田村戚埭18组、28组"}},{"type":"Feature","geometry":{"type":"Point","coordinates":[121.171448,30.853151]},"properties":{"full_address":"上海市上海市金山区吕巷镇姚家村16组1067号至1083号、1086号、1088号"}},{"type":"Feature","geometry":{"type":"Point","coordinates":[121.3055,31.14953]},"properties":{"full_address":"上海市上海市松江区九里亭街道涞坊路1010弄303室大桶大足浴"}},{"type":"Feature","geometry":{"type":"Point","coordinates":[121.30376,31.1481]},"properties":{"full_address":"上海市上海市松江区九里亭街道涞坊路1053号傲椒鱼火锅店松江九亭店"}},{"type":"Feature","geometry":{"type":"Point","coordinates":[121.250995,31.118262]},"properties":{"full_address":"上海市上海市松江区泗泾镇泗陈公路1888弄山水四季城一期"}},{"type":"Feature","geometry":{"type":"Point","coordinates":[121.30602,31.14886]},"properties":{"full_address":"上海市上海市松江区九里亭街道涞坊路1033弄英伦风尚小区"}},{"type":"Feature","geometry":{"type":"Point","coordinates":[121.246559,31.060015]},"properties":{"full_address":"上海市上海市松江区中山街道茸悦路208弄富悦财富广场B/C栋主楼及沿街商铺"}},{"type":"Feature","geometry":{"type":"Point","coordinates":[121.185151,31.211705]},"properties":{"full_address":"上海市上海市青浦区重固镇中新村陈家浜以东、华重公路以南、中新艾祁港以西、洞口泾以北的区域"}},{"type":"Feature","geometry":{"type":"Point","coordinates":[121.182121,31.192229]},"properties":{"full_address":"上海市上海市青浦区重固镇大街518弄逸皓华庭"}},{"type":"Feature","geometry":{"type":"Point","coordinates":[121.110633,31.141264]},"properties":{"full_address":"上海市上海市青浦区盈浦街道老朱青路41弄"}},{"type":"Feature","geometry":{"type":"Point","coordinates":[121.262904,31.157082]},"properties":{"full_address":"上海市上海市青浦区徐泾镇沪青平公路2103号杜家新区"}},{"type":"Feature","geometry":{"type":"Point","coordinates":[121.27417,31.18232]},"properties":{"full_address":"上海市上海市青浦区徐泾镇华徐公路以西、诸陆西路以南、徐盈路以东、沪青平公路以北（含迮庵支路以北至杨巷港、徐盈路以西至万家厍）的区域"}},{"type":"Feature","geometry":{"type":"Point","coordinates":[121.450592,31.600222]},"properties":{"full_address":"上海市上海市崇明区城桥镇侯南村内张网港河以东、蟠龙公路以西、崇明大道以南、长江大堤以北"}},{"type":"Feature","geometry":{"type":"Point","coordinates":[120.324341,31.534681]},"properties":{"full_address":"江苏省无锡市梁溪区五星家园C区"}},{"type":"Feature","geometry":{"type":"Point","coordinates":[120.285263,31.567751]},"properties":{"full_address":"江苏省无锡市梁溪区嘉德时代广场"}},{"type":"Feature","geometry":{"type":"Point","coordinates":[120.31519,31.53996]},"properties":{"full_address":"江苏省无锡市梁溪区沁园新村五星小区东区678-683号"}},{"type":"Feature","geometry":{"type":"Point","coordinates":[120.43491,31.56215]},"properties":{"full_address":"江苏省无锡市新吴区锡泰路242号"}},{"type":"Feature","geometry":{"type":"Point","coordinates":[120.370789,31.550171]},