{"type":"FeatureCollection","features":[{"type":"Feature","geometry":{"type":"Point","coordinates":[116.464610724,39.895466465]},"properties":{"full_address":"北京市朝阳区双井街道百子湾南二路76号院6号楼"}},{"type":"Feature","geometry":{"type":"Point","coordinates":[116.610638,39.922061]},"properties":{"full_address":"北京市朝阳区管庄（地区）乡常营南路45号院2号楼2单元"}},{"type":"Feature","geometry":{"type":"Point","coordinates":[116.588631,39.915712]},"properties":{"full_address":"北京市朝阳区管庄（地区）乡管庄西里16号楼"}},{"type":"Feature","geometry":{"type":"Point","coordinates":[116.583911775,39.914589391]},"properties":{"full_address":"北京市朝阳区管庄（地区）乡管庄西里22号楼"}},{"type":"Feature","geometry":{"type":"Point","coordinates":[116.420959,39.982929]},"properties":{"full_address":"北京市朝阳区小关街道惠新西里2区1号楼"}},{"type":"Feature","geometry":{"type":"Point","coordinates":[116.407304407,39.982551818]},"properties":{"full_address":"北京市朝阳区小关街道安苑东里一区8号楼"}},{"type":"Feature","geometry":{"type":"Point","coordinates":[116.41415,39.96249]},"properties":{"full_address":"北京市朝阳区和平街街道兴化路甲2号院10号楼"}},{"type":"Feature","geometry":{"type":"Point","coordinates":[116.486719,39.981466]},"properties":{"full_address":"北京市朝阳区酒仙桥街道大山子南里15号楼"}},{"type":"Feature","geometry":{"type":"Point","coordinates":[116.49952,39.99234]},"properties":{"full_address":"北京市朝阳区酒仙桥街道银枫家园3号楼"}},{"type":"Feature","geometry":{"type":"Point","coordinates":[116.507477,39.91861]},"properties":{"full_address":"北京市朝阳区八里庄街道十里堡东里113号楼"}},{"type":"Feature","geometry":{"type":"Point","coordinates":[116.39574,39.9724]},"properties":{"full_address":"北京市朝阳区安贞街道安贞西里二区23号楼"}},{"type":"Feature","geometry":{"type":"Point","coordinates":[116.39997,39.96251]},"properties":{"full_address":"北京市朝阳区安贞街道外馆斜街6号院1号楼"}},{"type":"Feature","geometry":{"type":"Point","coordinates":[116.40238,39.97513]},"properties":{"full_address":"北京市朝阳区安贞街道安贞里1区29号楼"}},{"type":"Feature","geometry":{"type":"Point","coordinates":[116.40387,39.9636]},"properties":{"full_address":"北京市朝阳区安贞街道安华里五区8号楼"}},{"type":"Feature","geometry":{"type":"Point","coordinates":[116.39776,39.96711]},"properties":{"full_address":"北京市朝阳区安贞街道安华西里一区20号楼、22号楼、25号楼"}},{"type":"Feature","geometry":{"type":"Point","coordinates":[116.40284,39.96718]},"properties":{"full_address":"北京市朝阳区安贞街道安华里二区2号楼"}},{"type":"Feature","geometry":{"type":"Point","coordinates":[116.3986,39.96701]},"properties":{"full_address":"北京市朝阳区安贞街道安华西里一区18号楼"}},{"type":"Feature","geometry":{"type":"Point","coordinates":[116.40272,39.96506]},"properties":{"full_address":"北京市朝阳区安贞街道安华里五区1号楼"}},{"type":"Feature","geometry":{"type":"Point","coordinates":[116.397682,39.966591]},"properties":{"full_address":"北京市朝阳区安贞街道外馆社区（黄寺大街）甲3号院3号楼"}},{"type":"Feature","geometry":{"type":"Point","coordinates":[116.397682,39.966591]},"properties":{"full_address":"北京市朝阳区安贞街道外馆社区（黄寺大街）甲3号院5号楼"}},{"type":"Feature","geometry":{"type":"Point","coordinates":[116.39766,39.9635]},"properties":{"full_address":"北京市朝阳区安贞街道外馆斜街1号楼（外管西街1号楼）"}},{"type":"Feature","geometry":{"type":"Point","coordinates":[116.40403,39.962288]},"properties":{"full_address":"北京市朝阳区安贞街道外馆斜街51号凯景铭座1号楼及底商"}},{"type":"Feature","geometry":{"type":"Point","coordinates":[116.3982,39.96338]},"properties":{"full_address":"北京市朝阳区安贞街道安华西里二区10号楼、外馆西街2号楼"}},{"type":"Feature","geometry":{"type":"Point","coordinates":[116.3972,39.96557]},"properties":{"full_address":"北京市朝阳区安贞街道安华西里二区5号楼、6号楼、15号楼、17号楼、7号楼、1号楼"}},{"type":"Feature","geometry":{"type":"Point","coordinates":[116.39354,39.96612]},"properties":{"full_address":"北京市朝阳区安贞街道黄寺后身36号院2号楼"}},{"type":"Feature","geometry":{"type":"Point","coordinates":[116.457033,40.00126]},"properties":{"full_address":"北京市朝阳区望京街道世安家园104号楼"}},{"type":"Feature","geometry":{"type":"Point","coordinates":[116.45643,39.99829]},"properties":{"full_address":"北京市朝阳区望京街道银领国际小区128号楼"}},{"type":"Feature","geometry":{"type":"Point","coordinates":[116.480019,39.999523]},"properties":{"full_address":"北京市朝阳区望京街道宝星国际109号楼"}},{"type":"Feature","geometry":{"type":"Point","coordinates":[116.474106,39.987411]},"properties":{"full_address":"北京市朝阳区望京街道精英家园"}},{"type":"Feature","geometry":{"type":"Point","coordinates":[116.44411,39.96348]},"properties":{"full_address":"北京市朝阳区香河园街道国际展览中心商务楼（北三环东路6号）"}},{"type":"Feature","geometry":{"type":"Point","coordinates":[116.470047,39.873745]},"properties":{"full_address":"北京市朝阳区潘家园街道松榆里5号楼"}},{"type":"Feature","geometry":{"type":"Point","coordinates":[116.41359,39.99259]},"properties":{"full_address":"北京市朝阳区亚运村街道安慧里一区21号楼"}},{"type":"Feature","geometry":{"type":"Point","coordinates":[116.41075,39.99188]},"properties":{"full_address":"北京市朝阳区亚运村街道安慧里三区3号楼"}},{"type":"Feature","geometry":{"type":"Point","coordinates":[116.409081,39.984646]},"properties":{"full_address":"北京市朝阳区亚运村街道安苑北里14、15、16、17、18、11号楼、19号楼、9号楼"}},{"type":"Feature","geometry":{"type":"Point","coordinates":[116.48297,39.9241]},"properties":{"full_address":"北京市朝阳区六里屯街道甜水园东里23号楼、甲23号楼"}},{"type":"Feature","geometry":{"type":"Point","coordinates":[116.540924,39.922401]},"properties":{"full_address":"北京市朝阳区高碑店（地区）乡大黄庄9号"}},{"type":"Feature","geometry":{"type":"Point","coordinates":[116.529854,39.87281]},"properties":{"full_address":"北京市朝阳区王四营（地区）乡燕保百湾家园10号楼"}},{"type":"Feature","geometry":{"type":"Point","coordinates":[116.46933,39.87072]},"properties":{"full_address":"北京市朝阳区南磨房（地区）乡美景东方1号楼"}},{"type":"Feature","geometry":{"type":"Point","coordinates":[116.453278,39.826553]},"properties":{"full_address":"北京市朝阳区小红门（地区）乡鸿博家园F区6号楼"}},{"type":"Feature","geometry":{"type":"Point","coordinates":[116.464211,39.822563]},"properties":{"full_address":"北京市朝阳区小红门（地区）乡三台山村临甲1号及周边平房"}},{"type":"Feature","geometry":{"type":"Point","coordinates":[116.458969,39.833313]},"properties":{"full_address":"北京市朝阳区小红门（地区）乡李宝龙大院以西、鸿博北街以北、白糖萌宠北墙以东、铁路沿线以南的合围区域"}},{"type":"Feature","geometry":{"type":"Point","coordinates":[116.47644,39.839001]},"properties":{"full_address":"北京市朝阳区十八里店（地区）乡后祁庄68号院及周边67号院、69号院、70号院、71号院"}},{"type":"Feature","geometry":{"type":"Point","coordinates":[116.50912,39.84636]},"properties":{"full_address":"北京市朝阳区十八里店（地区）乡绿洲家园31号楼"}},{"type":"Feature","geometry":{"type":"Point","coordinates":[116.474907,39.837437]},"properties":{"full_address":"北京市朝阳区十八里店（地区）乡前祁庄163号院、171号院"}},{"type":"Feature","geometry":{"type":"Point","coordinates":[116.564476,39.939281]},"properties":{"full_address":"北京市朝阳区平房（地区）乡石各庄村303号、341号、572号院、214号、223号、347号、355号、357号、373号、386号"}},{"type":"Feature","geometry":{"type":"Point","coordinates":[116.53663,39.96587]},"properties":{"full_address":"北京市朝阳区东坝（地区）乡东坝中街11号院42号楼"}},{"type":"Feature","geometry":{"type":"Point","coordinates":[116.55837,39.96035]},"properties":{"full_address":"北京市朝阳区东坝（地区）乡东泽园1号院1号楼"}},{"type":"Feature","geometry":{"type":"Point","coordinates":[116.55701,39.96039]},"properties":{"full_address":"北京市朝阳区东坝（地区）乡东泽园1号院2号楼2单元"}},{"type":"Feature","geometry":{"type":"Point","coordinates":[116.55833,39.95893]},"properties":{"full_address":"北京市朝阳区东坝（地区）乡东泽园1号院7号楼"}},{"type":"Feature","geometry":{"type":"Point","coordinates":[116.559616,39.959766]},"properties":{"full_address":"北京市朝阳区东坝（地区）乡东泽园2号院"}},{"type":"Feature","geometry":{"type":"Point","coordinates":[116.54644,39.957409]},"properties":{"full_address":"北京市朝阳区东坝（地区）乡高杨树北里平房1-5排"}},{"type":"Feature","geometry":{"type":"Point","coordinates":[116.56884,39.963017]},"properties":{"full_address":"北京市朝阳区东坝（地区）乡华瀚福园A区6号楼"}},{"type":"Feature","geometry":{"type":"Point","coordinates":[116.573402,39.958839]},"properties":{"full_address":"北京市朝阳区东坝（地区）乡华瀚福园D区421、424、432号"}},{"type":"Feature","geometry":{"type":"Point","coordinates":[116.54644,39.957409]},"properties":{"full_address":"北京市朝阳区东坝（地区）乡郊野公园北门西侧甲6号"}},{"type":"Feature","geometry":{"type":"Point","coordinates":[116.56829,39.95934]},"properties":{"full_address":"北京市朝阳区东坝（地区）乡金驹家园F区209号楼1单元、F区205号楼、207号楼"}},{"type":"Feature","geometry":{"type":"Point","coordinates":[116.55057,39.95519]},"properties":{"full_address":"北京市朝阳区东坝（地区）乡金泰丽富30号院8号楼"}},{"type":"Feature","geometry":{"type":"Point","coordinates":[116.607971,39.92614]},"properties":{"full_address":"北京市朝阳区东坝（地区）乡锦安家园1区2号楼"}},{"type":"Feature","geometry":{"type":"Point","coordinates":[116.55765,39.96]},"properties":{"full_address":"北京市朝阳区东坝（地区）乡东泽园1号院4号楼"}},{"type":"Feature","geometry":{"type":"Point","coordinates":[116.55714,39.95914]},"properties":{"full_address":"北京市朝阳区东坝（地区）乡东泽园1号院8号楼"}},{"type":"Feature","geometry":{"type":"Point","coordinates":[116.573402,39.958839]},"properties":{"full_address":"北京市朝阳区东坝（地区）乡华瀚福园D区430号楼"}},{"type":"Feature","geometry":{"type":"Point","coordinates":[116.563866,39.955082]},"properties":{"full_address":"北京市朝阳区金盏（地区）乡金泽家园A区2号楼、5号楼、1号楼、7号楼、8号楼"}},{"type":"Feature","geometry":{"type":"Point","coordinates":[116.563728,39.959663]},"properties":{"full_address":"北京市朝阳区金盏（地区）乡金泽家园C区1号楼、8号楼、9号楼、5号楼（即308号楼）"}},{"type":"Feature","geometry":{"type":"Point","coordinates":[116.56174,40.00889]},"properties":{"full_address":"北京市朝阳区金盏（地区）乡金盏嘉园A区9号楼"}},{"type":"Feature","geometry":{"type":"Point","coordinates":[116.55847,40.01067]},"properties":{"full_address":"北京市朝阳区金盏（地区）乡金盏嘉园B区2号楼、10号楼、3号楼、7号楼"}},{"type":"Feature","geometry":{"type":"Point","coordinates":[116.55434,40.00892]},"properties":{"full_address":"北京市朝阳区金盏（地区）乡金盏嘉园C区12号楼、5号楼、8号楼"}},{"type":"Feature","geometry":{"type":"Point","coordinates":[116.550842,40.008766]},"properties":{"full_address":"北京市朝阳区金盏（地区）乡金盏嘉园D区8号楼、9号楼、12号楼、16号楼、17号楼"}},{"type":"Feature","geometry":{"type":"Point","coordinates":[116.59079,39.977825]},"properties":{"full_address":"北京市朝阳区金盏（地区）乡长店中街7号院7号楼"}},{"type":"Feature","geometry":{"type":"Point","coordinates":[116.563866,39.955082]},"properties":{"full_address":"北京市朝阳区金盏（地区）乡金泽家园A区9号楼及底商"}},{"type":"Feature","geometry":{"type":"Point","coordinates":[116.569344,40.002972]},"properties":{"full_address":"北京市朝阳区金盏（地区）乡东村6片区177号至181号"}},{"type":"Feature","geometry":{"type":"Point","coordinates":[116.569344,40.002972]},"properties":{"full_address":"北京市朝阳区金盏（地区）乡西村113号、114号、128号至134号、157号至166号、406号"}},{"type":"Feature","geometry":{"type":"Point","coordinates":[116.59079,39.977825]},"properties":{"full_address":"北京市朝阳区金盏（地区）乡小店村网格5区全域、网格8区231号、网格6区194号、网格9区全域"}},{"type":"Feature","geometry":{"type":"Point","coordinates":[116.563362,39.957333]},"properties":{"full_address":"北京市朝阳区金盏（地区）乡金泽家园B区6号楼"}},{"type":"Feature","geometry":{"type":"Point","coordinates":[116.631912,39.973774]},"properties":{"full_address":"北京市朝阳区金盏（地区）乡黎各庄村1号院、109号院、255号院、429号院、460号院"}},{"type":"Feature","geometry":{"type":"Point","coordinates":[116.40656,40.00695]},"properties":{"full_address":"北京市朝阳区大屯街道慧忠北里东片108号楼"}},{"type":"Feature","geometry":{"type":"Point","coordinates":[116.416031,39.999199]},"properties":{"full_address":"北京市朝阳区大屯街道安慧北里逸园10号楼"}},{"type":"Feature","geometry":{"type":"Point","coordinates":[116.404472,40.007648]},"properties":{"full_address":"北京市朝阳区大屯街道慧忠北里西片218号楼及底商"}},{"type":"Feature","geometry":{"type":"Point","coordinates":[116.38004,39.99731]},"properties":{"full_address":"北京市朝阳区奥运村街道科学园南里六区601号楼"}},{"type":"Feature","geometry":{"type":"Point","coordinates":[116.416084,40.035667]},"properties":{"full_address":"北京市朝阳区奥运村街道绿色家园社区天畅园小区3号楼"}},{"type":"Feature","geometry":{"type":"Point","coordinates":[116.41015,40.05413]},"properties":{"full_address":"北京市朝阳区来广营（地区）乡立水桥奥北中心南区2号楼"}},{"type":"Feature","geometry":{"type":"Point","coordinates":[116.424728,40.010792]},"properties":{"full_address":"北京市朝阳区崔各庄（地区）乡东辛店村224号"}},{"type":"Feature","geometry":{"type":"Point","coordinates":[116.503578,40.008881]},"properties":{"full_address":"北京市朝阳区崔各庄（地区）乡东辛店村195号院"}},{"type":"Feature","geometry":{"type":"Point","coordinates":[116.424728,40.010792]},"properties":{"full_address":"北京市朝阳区崔各庄（地区）乡东辛店村190号"}},{"type":"Feature","geometry":{"type":"Point","coordinates":[116.607201,39.887901]},"properties":{"full_address":"北京市朝阳区黑庄户（地区）乡双桥温泉东里小区6号楼"}},{"type":"Feature","geometry":{"type":"Point","coordinates":[116.604263,39.882179]},"properties":{"full_address":"北京市朝阳区黑庄户（地区）乡双桥嘉园1号楼"}},{"type":"Feature","geometry":{"type":"Point","coordinates":[116.61496,39.854172]},"properties":{"full_address":"北京市朝阳区黑庄户（地区）乡四合庄村1号至25号、79号至113号、118号、119号、183号至186号、194号、196号、198号、209号、235号至237号、239号、261号、268号"}},{"type":"Feature","geometry":{"type":"Point","coordinates":[116.600067,39.865341]},"properties":{"full_address":"北京市朝阳区黑庄户（地区）乡万子营东村29、63、64、65、66、67、93-94、95、97、98、99、100、138、139、140、141、142、143、175-176、177、178、179、180、181、197、198、200、201、202、234、235、668号"}},{"type":"Feature","geometry":{"type":"Point","coordinates":[116.552895,39.91346]},"properties":{"full_address":"北京市朝阳区三间房（地区）乡定福庄西里1号院15号楼"}},{"type":"Feature","geometry":{"type":"Point","coordinates":[116.58513,39.9056]},"properties":{"full_address":"北京市朝阳区三间房（地区）乡康惠园1号院8号楼"}},{"type":"Feature","geometry":{"type":"Point","coordinates":[116.569321,39.916313]},"properties":{"full_address":"北京市朝阳区三间房（地区）乡双柳巷小区9号楼"}},{"type":"Feature","geometry":{"type":"Point","coordinates":[116.553772,39.911743]},"properties":{"full_address":"北京市朝阳区三间房（地区）乡中蓝公寓I期B区、C区"}},{"type":"Feature","geometry":{"type":"Point","coordinates":[116.53994,40.032742]},"properties":{"full_address":"北京市朝阳区孙河（地区）乡康营家园17区4号楼"}},{"type":"Feature","geometry":{"type":"Point","coordinates":[116.540604,40.050842]},"properties":{"full_address":"北京市朝阳区孙河（地区）乡康营家园23期1号楼"}},{"type":"Feature","geometry":{"type":"Point","coordinates":[116.54734,40.034443]},"properties":{"full_address":"北京市朝阳区孙河（地区）乡康营家园11区5号楼"}},{"type":"Feature","geometry":{"type":"Point","coordinates":[116.540604,40.050842]},"properties":{"full_address":"北京市朝阳区孙河（地区）乡康营家园25区"}},{"type":"Feature","geometry":{"type":"Point","coordinates":[116.540604,40.050842]},"properties":{"full_address":"北京市朝阳区孙河（地区）乡康营家园29区1号楼、4号楼"}},{"type":"Feature","geometry":{"type":"Point","coordinates":[116.463469,40.004569]},"properties":{"full_address":"北京市朝阳区东湖街道南湖东园一区107号楼"}},{"type":"Feature","geometry":{"type":"Point","coordinates":[116.31942,39.882641]},"properties":{"full_address":"北京市丰台区太平桥街道精图雅苑"}},{"type":"Feature","geometry":{"type":"Point","coordinates":[116.23744,39.89806]},"properties":{"full_address":"北京市石景山区八宝山街道远洋山水南区38号楼6单元"}},{"type":"Feature","geometry":{"type":"Point","coordinates":[116.20554,39.93628]},"properties":{"full_address":"北京市石景山区苹果园街道西黄新村北里2号楼"}},{"type":"Feature","geometry":{"type":"Point","coordinates":[116.226387,39.90255]},"properties":{"full_address":"北京市石景山区鲁谷街道永乐西区20号楼"}},{"type":"Feature","geometry":{"type":"Point","coordinates":[116.10572,39.94825]},"properties":{"full_address":"北京市门头沟区城子街道阁外山水4号楼"}},{"type":"Feature","geometry":{"type":"Point","coordinates":[116.103676,39.887501]},"properties":{"full_address":"北京市门头沟区东辛房街道紫金新园三区14号楼"}},{"type":"Feature","geometry":{"type":"Point","coordinates":[116.024315,39.598671]},"properties":{"full_address":"北京市房山区琉璃河（地区）镇滨水雅苑东区19号楼"}},{"type":"Feature","geometry":{"type":"Point","coordinates":[116.06616,39.68683]},"properties":{"full_address":"北京市房山区窦店镇腾龙家园一区4号楼"}},{"type":"Feature","geometry":{"type":"Point","coordinates":[116.222313,39.735043]},"properties":{"full_address":"北京市房山区长阳镇朱岗子村一区96号院"}},{"type":"Feature","geometry":{"type":"Point","coordinates":[116.705544,39.987469]},"properties":{"full_address":"北京市通州区宋庄镇大庞村第1、6、7、8、10 、11、12、13、14网格区"}},{"type":"Feature","geometry":{"type":"Point","coordinates":[116.678871,39.989021]},"properties":{"full_address":"北京市通州区宋庄镇草寺村第4、5、6网格"}},{"type":"Feature","geometry":{"type":"Point","coordinates":[116.661072,39.965004]},"properties":{"full_address":"北京市通州区宋庄镇富豪村"}},{"type":"Feature","geometry":{"type":"Point","coordinates":[116.553642,39.766441]},"properties":{"full_address":"北京市通州区马驹桥镇北门口村77-81号，104、105、109、110、111、116号"}},{"type":"Feature","geometry":{"type":"Point","coordinates":[116.56759,39.79974]},"properties":{"full_address":"北京市通州区台湖镇定海园二里13号楼2单元"}},{"type":"Feature","geometry":{"type":"Point","coordinates":[116.55838,39.819511]},"properties":{"full_address":"北京市通州区台湖镇凯悦国际大楼及底商"}},{"type":"Feature","geometry":{"type":"Point","coordinates":[116.646538,39.806259]},"properties":{"full_address":"北京市通州区台湖镇北火垡村"}},{"type":"Feature","geometry":{"type":"Point","coordinates":[116.63446,39.75983]},"properties":{"full_address":"北京市通州区张家湾镇姚辛庄村"}},{"type":"Feature","geometry":{"type":"Point","coordinates":[116.68455,39.89681]},"properties":{"full_address":"北京市通州区玉桥街道乔庄北区13号楼、14号楼、15号楼"}},{"type":"Feature","geometry":{"type":"Point","coordinates":[116.68762,39.8929]},"properties":{"full_address":"北京市通州区玉桥街道乔庄西区24号楼2单元、10、11、13、14、15、16号楼"}},{"type":"Feature","geometry":{"type":"Point","coordinates":[116.691376,39.887077]},"properties":{"full_address":"北京市通州区玉桥街道玉桥东里南社区101号楼"}},{"type":"Feature","geometry":{"type":"Point","coordinates":[116.69751,39.873653]},"properties":{"full_address":"北京市通州区临河里街道金隅花石匠小区二期东区117号楼"}},{"type":"Feature","geometry":{"type":"Point","coordinates":[116.701675,39.877274]},"properties":{"full_address":"北京市通州区临河里街道金隅自由筑一期第一段、第二段区域"}},{"type":"Feature","geometry":{"type":"Point","coordinates":[116.69016,39.87391]},"properties":{"full_address":"北京市通州区临河里街道方恒东景小区106号楼"}},{"type":"Feature","geometry":{"type":"Point","coordinates":[116.6313,39.90058]},"properties":{"full_address":"北京市通州区杨庄街道新华联锦园小区30号楼"}},{"type":"Feature","geometry":{"type":"Point","coordinates":[116.689472,39.935166]},"properties":{"full_address":"北京市通州区潞邑街道通瑞嘉苑小区14号楼"}},{"type":"Feature","geometry":{"type":"Point","coordinates":[116.311752,40.141922]},"properties":{"full_address":"北京市昌平区沙河（地区）镇辛力屯老村东至辉煌街与兴辉街交叉口，南至南四街，西至北六街西街，北至金利源超市同排宅基地（含文化馆及东侧四户）"}},{"type":"Feature","geometry":{"type":"Point","coordinates":[116.275438,40.143254]},"properties":{"full_address":"北京市昌平区沙河（地区）镇沙河镇顺沙路19号院1区6号楼1单元和1号楼1单元"}},{"type":"Feature","geometry":{"type":"Point","coordinates":[116.309395,40.098526]},"properties":{"full_address":"北京市昌平区史各庄街道朱辛庄小区南区3号楼和10号楼"}},{"type":"Feature","geometry":{"type":"Point","coordinates":[116.289642,40.098473]},"properties":{"full_address":"北京市昌平区史各庄街道珠江摩尔小区8号楼"}},{"type":"Feature","geometry":{"type":"Point","coordinates":[116.287949,39.78278]},"properties":{"full_address":"北京市大兴区黄村（地区）镇狼垡二村东至六队库房西路，西至高庙路，南至狼垡三条，北至狼垡四条区域"}},{"type":"Feature","geometry":{"type":"Point","coordinates":[116.30874,39.62662]},"properties":{"full_address":"北京市大兴区庞各庄镇龙景湾丁区123号楼"}},{"type":"Feature","geometry":{"type":"Point","coordinates":[116.456932,39.72472]},"properties":{"full_address":"北京市大兴区青云店镇北野场村中村"}},{"type":"Feature","geometry":{"type":"Point","coordinates":[116.43657,39.81693]},"properties":{"full_address":"北京市大兴区旧宫（地区）镇成和园小区6号楼2单元"}},{"type":"Feature","geometry":{"type":"Point","coordinates":[116.454895,39.793217]},"properties":{"full_address":"北京市大兴区旧宫（地区）镇东亚五环国际小区1-11号楼"}},{"type":"Feature","geometry":{"type":"Point","coordinates":[116.454781,39.798706]},"properties":{"full_address":"北京市大兴区旧宫（地区）镇旧宫新苑南区"}},{"type":"Feature","geometry":{"type":"Point","coordinates":[116.459831,39.815071]},"properties":{"full_address":"北京市大兴区旧宫（地区）镇德林园小区2号楼"}},{"type":"Feature","geometry":{"type":"Point","coordinates":[116.515198,39.819313]},"properties":{"full_address":"北京市大兴区亦庄（地区）镇三羊里小区11-31号楼"}},{"type":"Feature","geometry":{"type":"Point","coordinates":[116.357918,39.739983]},"properties":{"full_address":"北京市大兴区观音寺街道新居里小区9、18-24、26-32楼及物业院"}},{"type":"Feature","geometry":{"type":"Point","coordinates":[116.364632,39.747295]},"properties":{"full_address":"北京市大兴区观音寺街道首座御园一里社区10号楼"}},{"type":"Feature","geometry":{"type":"Point","coordinates":[116.340569,39.775261]},"properties":{"full_address":"北京市大兴区高米店街道郁花园一里社区30号楼"}},{"type":"Feature","geometry":{"type":"Point","coordinates":[117.11206,40.15776]},"properties":{"full_address":"北京市平谷区兴谷街道腾龙源城小区1号楼"}},{"type":"Feature","geometry":{"type":"Point","coordinates":[116.83243,40.37546]},"properties":{"full_address":"北京市密云区果园街道果园新里北区19号楼"}},{"type":"Feature","geometry":{"type":"Point","coordinates":[116.82715,40.3741]},"properties":{"full_address":"北京市密云区果园街道果园西里甲12号楼"}},{"type":"Feature","geometry":{"type":"Point","coordinates":[115.888077,40.372952]},"properties":{"full_address":"北京市延庆区康庄镇康庄镇榆林堡新村"}},{"type":"Feature","geometry":{"type":"Point","coordinates":[117.323559,39.103043]},"properties":{"full_address":"天津市天津市东丽区新立街贵环花园小区6号楼旁平房区"}},{"type":"Feature","geometry":{"type":"Point","coordinates":[117.038712,39.128029]},"properties":{"full_address":"天津市天津市西青区中北镇兴苑别墅公寓楼1号楼、兴苑别墅一区22号楼"}},{"type":"Feature","geometry":{"type":"Point","coordinates":[117.056358,39.149281]},"properties":{"full_address":"天津市天津市西青区美乐福多多超市（奥森物流A区南门左侧80米)"}},{"type":"Feature","geometry":{"type":"Point","coordinates":[117.12188,39.05029]},"properties":{"full_address":"天津市天津市西青区精武镇荣水里6号楼"}},{"type":"Feature","geometry":{"type":"Point","coordinates":[117.088562,39.14465]},"properties":{"full_address":"天津市天津市西青区中北镇云锦世家澜锦园13号楼"}},{"type":"Feature","geometry":{"type":"Point","coordinates":[117.062752,39.134155]},"properties":{"full_address":"天津市天津市西青区中北镇御宏家园2号楼2门、4号楼1门"}},{"type":"Feature","geometry":{"type":"Point","coordinates":[117.062752,39.134155]},"properties":{"full_address":"天津市天津市西青区中北镇御宏家园6号楼1楼门"}},{"type":"Feature","geometry":{"type":"Point","coordinates":[117.068436,39.124123]},"properties":{"full_address":"天津市天津市西青区中北镇溪悦园17号楼1门"}},{"type":"Feature","geometry":{"type":"Point","coordinates":[117.035822,39.062648]},"properties":{"full_address":"天津市天津市西青区张家窝镇人祥北里13号楼1门"}},{"type":"Feature","geometry":{"type":"Point","coordinates":[117.024799,39.119563]},"properties":{"full_address":"天津市天津市西青区杨柳青镇美泉苑11号楼3门"}},{"type":"Feature","geometry":{"type":"Point","coordinates":[117.022672,39.137151]},"properties":{"full_address":"天津市天津市西青区杨柳青镇星河湾花苑18号楼1门"}},{"type":"Feature","geometry":{"type":"Point","coordinates":[117.026807,39.1403]},"properties":{"full_address":"天津市天津市西青区杨柳青镇青馨园15号楼2门"}},{"type":"Feature","geometry":{"type":"Point","coordinates":[117.033615,39.141357]},"properties":{"full_address":"天津市天津市西青区杨柳青镇建业里一条、建业里二条四号、五号"}},{"type":"Feature","geometry":{"type":"Point","coordinates":[117.2135,39.05959]},"properties":{"full_address":"天津市天津市西青区津门湖街海逸长洲瀚景园1号楼2门"}},{"type":"Feature","geometry":{"type":"Point","coordinates":[117.038719,39.128273]},"properties":{"full_address":"天津市天津市西青区中北镇兴苑别墅三区16号楼"}},{"type":"Feature","geometry":{"type":"Point","coordinates":[117.272995,39.006424]},"properties":{"full_address":"天津市天津市西青区赤龙南街亲和静园8号至15号楼"}},{"type":"Feature","geometry":{"type":"Point","coordinates":[117.203835,39.056839]},"properties":{"full_address":"天津市天津市西青区津门湖街鸣泉花园4号楼"}},{"type":"Feature","geometry":{"type":"Point","coordinates":[117.013931,39.128731]},"properties":{"full_address":"天津市天津市西青区杨柳青镇商贸街谢宝林烤肉饭"}},{"type":"Feature","geometry":{"type":"Point","coordinates":[117.270973,39.004402]},"properties":{"full_address":"天津市天津市西青区赤龙南街亲和泰园3号楼"}},{"type":"Feature","geometry":{"type":"Point","coordinates":[117.277817,39.015663]},"properties":{"full_address":"天津市天津市津南区双新街首创昆芳苑28号楼"}},{"type":"Feature","geometry":{"type":"Point","coordinates":[117.040184,39.162941]},"properties":{"full_address":"天津市天津市北辰区青光镇铁锅店村良友胡同1-5号，致成道1号，兴旺胡同2号"}},{"type":"Feature","geometry":{"type":"Point","coordinates":[117.454695,38.859145]},"properties":{"full_address":"天津市天津市滨海新区大港街道地球村南区28号楼"}},{"type":"Feature","geometry":{"type":"Point","coordinates":[117.742661,39.110325]},"properties":{"full_address":"天津市天津市滨海新区中新天津生态城鲲玺园5号楼"}},{"type":"Feature","geometry":{"type":"Point","coordinates":[117.819885,39.259033]},"properties":{"full_address":"天津市天津市滨海新区汉沽街道学仕府15号楼"}},{"type":"Feature","geometry":{"type":"Point","coordinates":[117.985252,39.273132]},"properties":{"full_address":"天津市天津市滨海新区杨家泊镇高庄村文明街（29-34排）、中华街（22、26、29-32排）"}},{"type":"Feature","geometry":{"type":"Point","coordinates":[117.6693,39.03293]},"properties":{"full_address":"天津市天津市滨海新区杭州道街道韶山北里2号楼"}},{"type":"Feature","geometry":{"type":"Point","coordinates":[117.621651,39.033661]},"properties":{"full_address":"天津市天津市滨海新区新河街道福升园二期7号楼"}},{"type":"Feature","geometry":{"type":"Point","coordinates":[117.814133,39.319149]},"properties":{"full_address":"天津市天津市宁河区芦台街世纪花园（顺驰）小区6号楼"}},{"type":"Feature","geometry":{"type":"Point","coordinates":[117.829887,39.322269]},"properties":{"full_address":"天津市天津市宁河区芦台街朝阳花园45号楼"}},{"type":"Feature","geometry":{"type":"Point","coordinates":[117.821022,39.327026]},"properties":{"full_address":"天津市天津市宁河区芦台街鸿宾楼3号楼"}},{"type":"Feature","geometry":{"type":"Point","coordinates":[117.84449,39.35075]},"properties":{"full_address":"天津市天津市宁河区芦台街曹庄村"}},{"type":"Feature","geometry":{"type":"Point","coordinates":[117.796577,39.338654]},"properties":{"full_address":"天津市天津市宁河区桥北街宁新花园9号楼"}},{"type":"Feature","geometry":{"type":"Point","coordinates":[117.556793,39.419899]},"properties":{"full_address":"天津市天津市宁河区东棘坨镇躲军甸村"}},{"type":"Feature","geometry":{"type":"Point","coordinates":[117.813873,39.396931]},"properties":{"full_address":"天津市天津市宁河区苗庄镇大沙窝村"}},{"type":"Feature","geometry":{"type":"Point","coordinates":[116.788109,39.02813]},"properties":{"full_address":"天津市天津市静海区台头镇建设村东至郝润海胡同、南至村北二号路、西至郝文强胡同、北至新村委路合围区域；建设村东至梁台路、南至刘金树胡同、西至二号坑塘、北至郝家霞胡同合围区域；和平村东至和至巷、南至清河古道北岸、和吉巷、西至和意巷、北至明星路合围区域"}},{"type":"Feature","geometry":{"type":"Point","coordinates":[116.920616,38.93206]},"properties":{"full_address":"天津市天津市静海区静海镇古韵阳光家园4号楼"}},{"type":"Feature","geometry":{"type":"Point","coordinates":[116.788109,39.02813]},"properties":{"full_address":"天津市天津市静海区台头镇和平村东至章士道、南至明星路、西至和至巷、北至兴企路合围区域；建设村东至老东街水泥路、南至郝家祠堂南侧水泥路、西至和平三号胡同、北至三号巷王德龙房后合围区域；义和村东至利民道西端、南至义和针织厂、西至中心大街、北至义新道合围区域"}},{"type":"Feature","geometry":{"type":"Point","coordinates":[116.923851,38.905663]},"properties":{"full_address":"天津市天津市静海区静海镇范庄子村还迁6号楼及北侧25号联排楼"}},{"type":"Feature","geometry":{"type":"Point","coordinates":[117.236443,40.013683]},"properties":{"full_address":"天津市天津市蓟州区白涧镇田吉素村一区5排8-10号、12号、14号、15号，6排8-16号，7排8-12号、15号、16号、24号，8排5-14号，9排6-12号，10排5号、6号、8-10号、13号"}},{"type":"Feature","geometry":{"type":"Point","coordinates":[117.265488,39.998463]},"properties":{"full_address":"天津市天津市蓟州区邦均镇王胜明停车场（邦均镇宝平路信忠管业对面）"}},{"type":"Feature","geometry":{"type":"Point","coordinates":[117.236443,40.013683]},"properties":{"full_address":"天津市天津市蓟州区白涧镇田吉素村1区1排7-8号、11-15号、18号、30号，2排8-12号、14-16号、22号，3排7-16号，4排8-17号，8排1-3号，8排4号（天启佳副食百货），4区1排16号"}},{"type":"Feature","geometry":{"type":"Point","coordinates":[114.550903,38.104137]},"properties":{"full_address":"河北省石家庄市长安区高营镇山水家园小区A座"}},{"type":"Feature","geometry":{"type":"Point","coordinates":[114.529762,38.085438]},"properties":{"full_address":"河北省石家庄市长安区桃园镇恒立苑小区13号楼"}},{"type":"Feature","geometry":{"type":"Point","coordinates":[114.50085,38.09158]},"properties":{"full_address":"河北省石家庄市长安区陈章小区7号楼"}},{"type":"Feature","geometry":{"type":"Point","coordinates":[114.518906,38.053345]},"properties":{"full_address":"河北省石家庄市长安区铂宫时代2号楼"}},{"type":"Feature","geometry":{"type":"Point","coordinates":[114.54447,38.04548]},"properties":{"full_address":"河北省石家庄市长安区河东街道河纺北大院2号楼"}},{"type":"Feature","geometry":{"type":"Point","coordinates":[114.499168,38.049122]},"properties":{"full_address":"河北省石家庄市长安区阜康街道市政公司宿舍4号楼"}},{"type":"Feature","geometry":{"type":"Point","coordinates":[114.49969,38.05043]},"properties":{"full_address":"河北省石家庄市长安区社保局宿舍1号楼"}},{"type":"Feature","geometry":{"type":"Point","coordinates":[114.49977,38.06204]},"properties":{"full_address":"河北省石家庄市长安区神州嘉园15号楼"}},{"type":"Feature","geometry":{"type":"Point","coordinates":[114.554321,38.087418]},"properties":{"full_address":"河北省石家庄市长安区高营镇北高营新村高层8号楼"}},{"type":"Feature","geometry":{"type":"Point","coordinates":[114.546333,38.042973]},"properties":{"full_address":"河北省石家庄市长安区劳技小区1号楼"}},{"type":"Feature","geometry":{"type":"Point","coordinates":[114.557888,38.086291]},"properties":{"full_address":"河北省石家庄市长安区南高营回迁二区13号楼"}},{"type":"Feature","geometry":{"type":"Point","coordinates":[114.50268,38.05633]},"properties":{"full_address":"河北省石家庄市长安区建安街道荣景园9号楼、14号楼、21号楼"}},{"type":"Feature","geometry":{"type":"Point","coordinates":[114.502121,38.049152]},"properties":{"full_address":"河北省石家庄市长安区中基礼域15号楼"}},{"type":"Feature","geometry":{"type":"Point","coordinates":[114.50558,38.05923]},"properties":{"full_address":"河北省石家庄市长安区御景园小区1号楼"}},{"type":"Feature","geometry":{"type":"Point","coordinates":[114.51292,38.06411]},"properties":{"full_address":"河北省石家庄市长安区建北街道新浩城北区1号楼"}},{"type":"Feature","geometry":{"type":"Point","coordinates":[114.51349,38.07127]},"properties":{"full_address":"河北省石家庄市长安区尚乘源6号楼"}},{"type":"Feature","geometry":{"type":"Point","coordinates":[114.505104,38.036961]},"properties":{"full_address":"河北省石家庄市长安区房管所宿舍1号楼"}},{"type":"Feature","geometry":{"type":"Point","coordinates":[114.51569,38.08511]},"properties":{"full_address":"河北省石家庄市长安区胜北街道国粹小区2号楼"}},{"type":"Feature","geometry":{"type":"Point","coordinates":[114.52068,38.09225]},"properties":{"full_address":"河北省石家庄市长安区化肥四区15号楼"}},{"type":"Feature","geometry":{"type":"Point","coordinates":[114.503967,38.070377]},"properties":{"full_address":"河北省石家庄市长安区南屏园7号楼"}},{"type":"Feature","geometry":{"type":"Point","coordinates":[114.51133,38.07706]},"properties":{"full_address":"河北省石家庄市长安区石纺小区25号楼"}},{"type":"Feature","geometry":{"type":"Point","coordinates":[114.52164,38.08394]},"properties":{"full_address":"河北省石家庄市长安区庄窠小区34号楼"}},{"type":"Feature","geometry":{"type":"Point","coordinates":[114.506844,38.08839]},"properties":{"full_address":"河北省石家庄市长安区桃园镇都市怡景小区6号楼、16号楼、17号楼、23号楼"}},{"type":"Feature","geometry":{"type":"Point","coordinates":[114.52375,38.098721]},"properties":{"full_address":"河北省石家庄市长安区聚鑫园社区2号楼、6号楼、8号楼、12号楼、14号楼"}},{"type":"Feature","geometry":{"type":"Point","coordinates":[114.521507,38.085621]},"properties":{"full_address":"河北省石家庄市长安区古运码头二期5号楼"}},{"type":"Feature","geometry":{"type":"Point","coordinates":[114.511551,38.094112]},"properties":{"full_address":"河北省石家庄市长安区荣昌西花园5号楼"}},{"type":"Feature","geometry":{"type":"Point","coordinates":[114.518501,38.073837]},"properties":{"full_address":"河北省石家庄市长安区长丰街道北城国际A区11号楼"}},{"type":"Feature","geometry":{"type":"Point","coordinates":[114.559433,38.07103]},"properties":{"full_address":"河北省石家庄市长安区天洲沁园小区1号楼"}},{"type":"Feature","geometry":{"type":"Point","coordinates":[114.49338,38.09968]},"properties":{"full_address":"河北省石家庄市长安区区桃园镇肖家营小区15号楼"}},{"type":"Feature","geometry":{"type":"Point","coordinates":[114.522507,38.106628]},"properties":{"full_address":"河北省石家庄市长安区半岛名邸回迁区6号楼"}},{"type":"Feature","geometry":{"type":"Point","coordinates":[114.51473,38.09248]},"properties":{"full_address":"河北省石家庄市长安区胜北街道柳阳佳园1号楼"}},{"type":"Feature","geometry":{"type":"Point","coordinates":[114.51808,38.09093]},"properties":{"full_address":"河北省石家庄市长安区顺柳巷4号院17号楼"}},{"type":"Feature","geometry":{"type":"Point","coordinates":[114.570648,38.044682]},"properties":{"full_address":"河北省石家庄市长安区谈固街道东方魅力商住大厦1号楼"}},{"type":"Feature","geometry":{"type":"Point","coordinates":[114.540611,38.095131]},"properties":{"full_address":"河北省石家庄市长安区高营镇东古城村高层1号楼"}},{"type":"Feature","geometry":{"type":"Point","coordinates":[114.52726,38.049522]},"properties":{"full_address":"河北省石家庄市长安区广安街道棉四小区42号楼"}},{"type":"Feature","geometry":{"type":"Point","coordinates":[114.507851,38.05246]},"properties":{"full_address":"河北省石家庄市长安区建安街道华平苑8号楼"}},{"type":"Feature","geometry":{"type":"Point","coordinates":[114.519577,38.052299]},"properties":{"full_address":"河北省石家庄市长安区建北街道谈后小区6号楼"}},{"type":"Feature","geometry":{"type":"Point","coordinates":[114.515366,38.064095]},"properties":{"full_address":"河北省石家庄市长安区花园小区A区7号楼"}},{"type":"Feature","geometry":{"type":"Point","coordinates":[114.529991,38.047001]},"properties":{"full_address":"河北省石家庄市长安区育才街道碧景园小区6、10、14号楼"}},{"type":"Feature","geometry":{"type":"Point","coordinates":[114.516426,38.080605]},"properties":{"full_address":"河北省石家庄市长安区胜北街道石家庄铁道大学家属院12、20、30号楼"}},{"type":"Feature","geometry":{"type":"Point","coordinates":[114.52507,38.08711]},"properties":{"full_address":"河北省石家庄市长安区石泵宿舍12号楼"}},{"type":"Feature","geometry":{"type":"Point","coordinates":[114.51729,38.08299]},"properties":{"full_address":"河北省石家庄市长安区胜利北街277号9号楼"}},{"type":"Feature","geometry":{"type":"Point","coordinates":[114.504799,38.075813]},"properties":{"full_address":"河北省石家庄市长安区银都花园2、8、28号楼"}},{"type":"Feature","geometry":{"type":"Point","coordinates":[114.55865,38.04397]},"properties":{"full_address":"河北省石家庄市长安区谈固街道嘉和广场3号楼"}},{"type":"Feature","geometry":{"type":"Point","coordinates":[114.506721,38.062431]},"properties":{"full_address":"河北省石家庄市长安区建安街道宏业花园2、10号楼"}},{"type":"Feature","geometry":{"type":"Point","coordinates":[114.498497,38.057541]},"properties":{"full_address":"河北省石家庄市长安区动力厂二宿舍2号楼"}},{"type":"Feature","geometry":{"type":"Point","coordinates":[114.527153,38.070423]},"properties":{"full_address":"河北省石家庄市长安区建北街道国赫红珊湾5、6、7号楼"}},{"type":"Feature","geometry":{"type":"Point","coordinates":[114.52446,38.07133]},"properties":{"full_address":"河北省石家庄市长安区宏丰苑9号楼"}},{"type":"Feature","geometry":{"type":"Point","coordinates":[114.517258,38.072159]},"properties":{"full_address":"河北省石家庄市长安区万科紫郡9号楼"}},{"type":"Feature","geometry":{"type":"Point","coordinates":[114.51923,38.04057]},"properties":{"full_address":"河北省石家庄市长安区青园街道范华小区7号楼"}},{"type":"Feature","geometry":{"type":"Point","coordinates":[114.649239,38.08741]},"properties":{"full_address":"河北省石家庄市长安区南村镇中塔口社区福华巷1号"}},{"type":"Feature","geometry":{"type":"Point","coordinates":[114.641342,38.062466]},"properties":{"full_address":"河北省石家庄市长安区南村社区梨园街55号"}},{"type":"Feature","geometry":{"type":"Point","coordinates":[114.679146,38.085377]},"properties":{"full_address":"河北省石家庄市长安区南中奉社区红旗路201号"}},{"type":"Feature","geometry":{"type":"Point","coordinates":[114.54693,38.047947]},"properties":{"full_address":"河北省石家庄市长安区跃进街道石煤机一生活区24号楼"}},{"type":"Feature","geometry":{"type":"Point","coordinates":[114.54646,38.05079]},"properties":{"full_address":"河北省石家庄市长安区工商银行宿舍1号楼"}},{"type":"Feature","geometry":{"type":"Point","coordinates":[114.495392,38.094971]},"properties":{"full_address":"河北省石家庄市长安区桃园镇水岸丽景1号楼"}},{"type":"Feature","geometry":{"type":"Point","coordinates":[114.5009,38.102867]},"properties":{"full_address":"河北省石家庄市长安区高远森林城5、8、15号楼"}},{"type":"Feature","geometry":{"type":"Point","coordinates":[114.53952,38.03647]},"properties":{"full_address":"河北省石家庄市长安区聚合港物流园"}},{"type":"Feature","geometry":{"type":"Point","coordinates":[114.499931,38.055573]},"properties":{"full_address":"河北省石家庄市长安区阜康街道紫晶苑3A、3B、3C号楼"}},{"type":"Feature","geometry":{"type":"Point","coordinates":[114.584801,38.050049]},"properties":{"full_address":"河北省石家庄市长安区谈固街道白佛村白佛西小街1704号、北片楼区公路1016、1206号、集市大街600-601号"}},{"type":"Feature","geometry":{"type":"Point","coordinates":[114.518654,38.107189]},"properties":{"full_address":"河北省石家庄市长安区桃园镇柳林铺小区2、3、15、18、20号楼"}},{"type":"Feature","geometry":{"type":"Point","coordinates":[114.496483,38.104416]},"properties":{"full_address":"河北省石家庄市长安区弘金府3、5、8、14号楼"}},{"type":"Feature","geometry":{"type":"Point","coordinates":[114.500549,38.094841]},"properties":{"full_address":"河北省石家庄市长安区中基碧域5、11、18号楼"}},{"type":"Feature","geometry":{"type":"Point","coordinates":[114.51767,38.092709]},"properties":{"full_address":"河北省石家庄市长安区荣昌东花园1、2号楼"}},{"type":"Feature","geometry":{"type":"Point","coordinates":[114.578522,38.08025]},"properties":{"full_address":"河北省石家庄市长安区西兆通镇南石家庄西区1、2、7号楼"}},{"type":"Feature","geometry":{"type":"Point","coordinates":[114.5756,38.078129]},"properties":{"full_address":"河北省石家庄市长安区天洲视界城B区3、4、7号楼"}},{"type":"Feature","geometry":{"type":"Point","coordinates":[114.55307,38.04723]},"properties":{"full_address":"河北省石家庄市长安区跃进街道上东城2、3、7、8号楼"}},{"type":"Feature","geometry":{"type":"Point","coordinates":[114.544449,38.048328]},"properties":{"full_address":"河北省石家庄市长安区河东街道乐城苑西区4、5号楼"}},{"type":"Feature","geometry":{"type":"Point","coordinates":[114.519966,38.045216]},"properties":{"full_address":"河北省石家庄市长安区青园街道汇景家园棉二生活区15号楼"}},{"type":"Feature","geometry":{"type":"Point","coordinates":[114.518967,38.040859]},"properties":{"full_address":"河北省石家庄市长安区范华小区12中南宿舍"}},{"type":"Feature","geometry":{"type":"Point","coordinates":[114.515366,38.064095]},"properties":{"full_address":"河北省石家庄市长安区建北街道花园小区A区1、10、11、12、13号楼"}},{"type":"Feature","geometry":{"type":"Point","coordinates":[114.523468,38.046402]},"properties":{"full_address":"河北省石家庄市长安区广安街道棉三小区26、48、49、50、71、74号楼"}},{"type":"Feature","geometry":{"type":"Point","coordinates":[114.524292,38.049469]},"properties":{"full_address":"河北省石家庄市长安区棉四小区22、30、31、34、36号楼"}},{"type":"Feature","geometry":{"type":"Point","coordinates":[114.532898,38.069592]},"properties":{"full_address":"河北省石家庄市长安区长丰街道仁华家园3、4、5、6号楼"}},{"type":"Feature","geometry":{"type":"Point","coordinates":[114.55542,38.059471]},"properties":{"full_address":"河北省石家庄市长安区长丰街道紫晶悦城2号地10号楼1单元、11号楼1单元，7号地1号楼1单元、2、3号楼，9号地2号楼、8号楼2单元，12号地2号楼1单元、6号楼1单元，16号地1号楼2单元、3号楼"}},{"type":"Feature","geometry":{"type":"Point","coordinates":[114.571674,38.067031]},"properties":{"full_address":"河北省石家庄市长安区秋景怡园西区6、11号楼"}},{"type":"Feature","geometry":{"type":"Point","coordinates":[114.542725,38.075062]},"properties":{"full_address":"河北省石家庄市长安区福华家园1、4号楼"}},{"type":"Feature","geometry":{"type":"Point","coordinates":[114.520226,38.076946]},"properties":{"full_address":"河北省石家庄市长安区北城国际C区6、7号楼,北城国际B区1、8、9、14号楼"}},{"type":"Feature","geometry":{"type":"Point","coordinates":[114.503838,38.088863]},"properties":{"full_address":"河北省石家庄市长安区柳董庄南区29号楼"}},{"type":"Feature","geometry":{"type":"Point","coordinates":[114.519768,38.118031]},"properties":{"full_address":"河北省石家庄市长安区国际总部花园1号楼"}},{"type":"Feature","geometry":{"type":"Point","coordinates":[114.5665,38.04616]},"properties":{"full_address":"河北省石家庄市长安区谈固街道瑞城A区5号楼1单元、6号楼2单元、C区3号楼1单元、6号楼1单元"}},{"type":"Feature","geometry":{"type":"Point","coordinates":[114.571289,38.052502]},"properties":{"full_address":"河北省石家庄市长安区瑞府小区1、2、3、4、12、13号楼"}},{"type":"Feature","geometry":{"type":"Point","coordinates":[114.575539,38.044914]},"properties":{"full_address":"河北省石家庄市长安区金谈固家园月坛园8、12号楼、地坛园14号楼2单元、日坛园1号楼2单元"}},{"type":"Feature","geometry":{"type":"Point","coordinates":[114.573235,38.041985]},"properties":{"full_address":"河北省石家庄市长安区谈固新村2排9号"}},{"type":"Feature","geometry":{"type":"Point","coordinates":[114.584801,38.050049]},"properties":{"full_address":"河北省石家庄市长安区白佛村1988号、西环路4排11号"}},{"type":"Feature","geometry":{"type":"Point","coordinates":[114.519966,38.045216]},"properties":{"full_address":"河北省石家庄市长安区青园街道汇景家园棉二生活区3号楼1单元、7号楼3单元、16号楼、33号楼1单元、38号楼2单元、53号楼4单元"}},{"type":"Feature","geometry":{"type":"Point","coordinates":[114.517784,38.038342]},"properties":{"full_address":"河北省石家庄市长安区范西路新华书店宿舍3号楼1单元"}},{"type":"Feature","geometry":{"type":"Point","coordinates":[114.517296,38.049873]},"properties":{"full_address":"河北省石家庄市长安区谈阁北区园东苑1号楼3单元、3号楼7单元、9号楼1单元"}},{"type":"Feature","geometry":{"type":"Point","coordinates":[114.544449,38.048328]},"properties":{"full_address":"河北省石家庄市长安区乐城苑西区1号楼1单元、2单元"}},{"type":"Feature","geometry":{"type":"Point","coordinates":[114.53952,38.03647]},"properties":{"full_address":"河北省石家庄市长安区81号院4号楼2单元、11号楼1单元"}},{"type":"Feature","geometry":{"type":"Point","coordinates":[114.543893,38.043596]},"properties":{"full_address":"河北省石家庄市长安区河纺小区北区27号楼2单元、3单元、33号楼3单元、37号楼2单元"}},{"type":"Feature","geometry":{"type":"Point","coordinates":[114.548462,38.040447]},"properties":{"full_address":"河北省石家庄市长安区水泵厂宿舍西院10号楼2单元、15号楼2单元"}},{"type":"Feature","geometry":{"type":"Point","coordinates":[114.5568,38.04401]},"properties":{"full_address":"河北省石家庄市长安区尚达家园4号楼1单元"}},{"type":"Feature","geometry":{"type":"Point","coordinates":[114.507042,38.048538]},"properties":{"full_address":"河北省石家庄市长安区中山东路街道银宏花苑4、11、号楼、16号楼9单元"}},{"type":"Feature","geometry":{"type":"Point","coordinates":[114.508315,38.047487]},"properties":{"full_address":"河北省石家庄市长安区新源燕府2号楼"}},{"type":"Feature","geometry":{"type":"Point","coordinates":[114.506264,38.049492]},"properties":{"full_address":"河北省石家庄市长安区金恒花园2、3号楼"}},{"type":"Feature","geometry":{"type":"Point","coordinates":[114.56443,38.081425]},"properties":{"full_address":"河北省石家庄市长安区富瀛苏园北区2、3、4、6、7、9号楼、南区14、15、17、18、21、23、24号楼"}},{"type":"Feature","geometry":{"type":"Point","coordinates":[114.53566,38.094608]},"properties":{"full_address":"河北省石家庄市长安区东古城新村1、3、4号楼"}},{"type":"Feature","geometry":{"type":"Point","coordinates":[114.557888,38.086291]},"properties":{"full_address":"河北省石家庄市长安区南高营回迁三区26、27号楼"}},{"type":"Feature","geometry":{"type":"Point","coordinates":[114.562294,38.086632]},"properties":{"full_address":"河北省石家庄市长安区恒大御景半岛25号楼"}},{"type":"Feature","geometry":{"type":"Point","coordinates":[114.515404,38.063972]},"properties":{"full_address":"河北省石家庄市长安区建北街道花园小区A片"}},{"type":"Feature","geometry":{"type":"Point","coordinates":[114.520248,38.050919]},"properties":{"full_address":"河北省石家庄市长安区谈后小区1、2、7、12、13、14、15、18号楼"}},{"type":"Feature","geometry":{"type":"Point","coordinates":[114.514351,38.072399]},"properties":{"full_address":"河北省石家庄市长安区尚乘源4、7、10、12、15号楼"}},{"type":"Feature","geometry":{"type":"Point","coordinates":[114.527153,38.070423]},"properties":{"full_address":"河北省石家庄市长安区国赫红珊湾4号楼"}},{"type":"Feature","geometry":{"type":"Point","coordinates":[114.519241,38.070992]},"properties":{"full_address":"河北省石家庄市长安区北城国际南区17、18号楼"}},{"type":"Feature","geometry":{"type":"Point","coordinates":[114.517258,38.072159]},"properties":{"full_address":"河北省石家庄市长安区万科紫郡8号楼"}},{"type":"Feature","geometry":{"type":"Point","coordinates":[114.548477,38.056393]},"properties":{"full_address":"河北省石家庄市长安区跃进街道和华家园2、3号楼"}},{"type":"Feature","geometry":{"type":"Point","coordinates":[114.54326,38.05091]},"properties":{"full_address":"河北省石家庄市长安区冀兴尊园12号楼1单元"}},{"type":"Feature","geometry":{"type":"Point","coordinates":[114.54274,38.05244]},"properties":{"full_address":"河北省石家庄市长安区书香华苑9号楼1单元"}},{"type":"Feature","geometry":{"type":"Point","coordinates":[114.55597,38.05177]},"properties":{"full_address":"河北省石家庄市长安区简筑家园4号楼1单元"}},{"type":"Feature","geometry":{"type":"Point","coordinates":[114.55788,38.0508]},"properties":{"full_address":"河北省石家庄市长安区卓达明郡东区7号楼1单元"}},{"type":"Feature","geometry":{"type":"Point","coordinates":[114.498405,38.05381]},"properties":{"full_address":"河北省石家庄市长安区阜康街道自由港小区"}},{"type":"Feature","geometry":{"type":"Point","coordinates":[114.502098,38.06123]},"properties":{"full_address":"河北省石家庄市长安区神州嘉园2、9、13、15、18、26、27号楼"}},{"type":"Feature","geometry":{"type":"Point","coordinates":[114.498512,38.051151]},"properties":{"full_address":"河北省石家庄市长安区栗新小区回迁商品楼"}},{"type":"Feature","geometry":{"type":"Point","coordinates":[114.513687,38.072182]},"properties":{"full_address":"河北省石家庄市长安区新阳小区1、2、5、9、10号楼"}},{"type":"Feature","geometry":{"type":"Point","coordinates":[114.504189,38.066673]},"properties":{"full_address":"河北省石家庄市长安区七四二零南苑小区3、4、5、7号楼"}},{"type":"Feature","geometry":{"type":"Point","coordinates":[114.496696,38.055679]},"properties":{"full_address":"河北省石家庄市长安区明日郡4、6、7号楼"}},{"type":"Feature","geometry":{"type":"Point","coordinates":[114.537384,38.049076]},"properties":{"full_address":"河北省石家庄市长安区育才街道化肥三区22号楼4单元"}},{"type":"Feature","geometry":{"type":"Point","coordinates":[119.64759,29.07812]},"properties":{"full_address":"河北省石家庄市长安区金华北区3号楼3单元"}},{"type":"Feature","geometry":{"type":"Point","coordinates":[114.532837,38.059589]},"properties":{"full_address":"河北省石家庄市长安区静和园1号楼1单元"}},{"type":"Feature","geometry":{"type":"Point","coordinates":[114.530792,38.05286]},"properties":{"full_address":"河北省石家庄市长安区元泰嘉园5号楼1单元"}},{"type":"Feature","geometry":{"type":"Point","coordinates":[114.53632,38.04637]},"properties":{"full_address":"河北省石家庄市长安区医科大学宿舍17号楼3单元"}},{"type":"Feature","geometry":{"type":"Point","coordinates":[114.50372,38.05511]},"properties":{"full_address":"河北省石家庄市长安区建安街道荣景园2号楼、11号楼2单元、15号楼1单元、16号楼3单元、22号楼2单元"}},{"type":"Feature","geometry":{"type":"Point","coordinates":[114.502281,38.051441]},"properties":{"full_address":"河北省石家庄市长安区中基礼域8号楼2单元、18号楼2单元、21号楼1、2单元、26号楼2单元、28号楼2单元"}},{"type":"Feature","geometry":{"type":"Point","coordinates":[114.50544,38.05958]},"properties":{"full_address":"河北省石家庄市长安区御景园2号楼3单元、3号楼3单元、8号楼2单元、9号楼2单元"}},{"type":"Feature","geometry":{"type":"Point","coordinates":[114.50967,38.0661]},"properties":{"full_address":"河北省石家庄市长安区建北小区1号楼2单元、3号楼3单元"}},{"type":"Feature","geometry":{"type":"Point","coordinates":[114.658783,38.087273]},"properties":{"full_address":"河北省石家庄市长安区南村镇东塔口社区金华胡同1号"}},{"type":"Feature","geometry":{"type":"Point","coordinates":[114.647331,38.050182]},"properties":{"full_address":"河北省石家庄市长安区吴家营社区团结路27号"}},{"type":"Feature","geometry":{"type":"Point","coordinates":[114.64129,38.05858]},"properties":{"full_address":"河北省石家庄市长安区南村社区新南家园1号楼3单元"}},{"type":"Feature","geometry":{"type":"Point","coordinates":[114.574593,38.080963]},"properties":{"full_address":"河北省石家庄市长安区西兆通镇天洲视界城D区1号楼2单元、6号楼2单元"}},{"type":"Feature","geometry":{"type":"Point","coordinates":[114.581805,38.074443]},"properties":{"full_address":"河北省石家庄市长安区观天下1号楼3单元、6号楼1单元、15号楼2单元"}},{"type":"Feature","geometry":{"type":"Point","coordinates":[114.57763,38.06955]},"properties":{"full_address":"河北省石家庄市长安区水木青城21号楼1单元"}},{"type":"Feature","geometry":{"type":"Point","coordinates":[114.493118,38.08873]},"properties":{"full_address":"河北省石家庄市长安区北城公馆B座1单元、2单元"}},{"type":"Feature","geometry":{"type":"Point","coordinates":[114.51635,38.08559]},"properties":{"full_address":"河北省石家庄市长安区财富天下3号楼1单元、4号楼1单元"}},{"type":"Feature","geometry":{"type":"Point","coordinates":[114.513474,38.122608]},"properties":{"full_address":"河北省石家庄市长安区航测生活区16号楼3单元"}},{"type":"Feature","geometry":{"type":"Point","coordinates":[114.594841,38.156483]},"properties":{"full_address":"河北省石家庄市长安区石铝小区1号楼4单元,2号楼2单元"}},{"type":"Feature","geometry":{"type":"Point","coordinates":[114.49405,38.10331]},"properties":{"full_address":"河北省石家庄市长安区鑫龙湾小区3号楼3单元"}},{"type":"Feature","geometry":{"type":"Point","coordinates":[114.521507,38.085659]},"properties":{"full_address":"河北省石家庄市长安区胜北街道庄窠小区一号路、二号楼、三号路、四号路"}},{"type":"Feature","geometry":{"type":"Point","coordinates":[114.571297,38.038345]},"properties":{"full_address":"河北省石家庄市长安区石纺小区一区、二区、三区、四区"}},{"type":"Feature","geometry":{"type":"Point","coordinates":[114.507103,38.07225]},"properties":{"full_address":"河北省石家庄市长安区国瑞园西片、北片"}},{"type":"Feature","geometry":{"type":"Point","coordinates":[114.521179,38.09251]},"properties":{"full_address":"河北省石家庄市长安区化肥四区（东柳路）南区、北区"}},{"type":"Feature","geometry":{"type":"Point","coordinates":[114.52506,38.08902]},"properties":{"full_address":"河北省石家庄市长安区石泵宿舍2号楼、10号楼、14号楼"}},{"type":"Feature","geometry":{"type":"Point","coordinates":[114.52486,38.04575]},"properties":{"full_address":"河北省石家庄市长安区广安街道谈南路一印宿舍8号楼、8号楼南侧平房"}},{"type":"Feature","geometry":{"type":"Point","coordinates":[114.523468,38.046402]},"properties":{"full_address":"河北省石家庄市长安区棉三生活区33号楼4单元"}},{"type":"Feature","geometry":{"type":"Point","coordinates":[114.497101,38.044102]},"properties":{"full_address":"河北省石家庄市长安区荣盛华府A区3号楼、D区5号楼一单元"}},{"type":"Feature","geometry":{"type":"Point","coordinates":[114.521271,38.055481]},"properties":{"full_address":"河北省石家庄市长安区名门社区9、10号楼"}},{"type":"Feature","geometry":{"type":"Point","coordinates":[114.522758,38.046963]},"properties":{"full_address":"河北省石家庄市长安区广安大厦西单元"}},{"type":"Feature","geometry":{"type":"Point","coordinates":[114.404594,38.061531]},"properties":{"full_address":"河北省石家庄市桥西区留营街道良城逸园小区"}},{"type":"Feature","geometry":{"type":"Point","coordinates":[114.46104,38.00407]},"properties":{"full_address":"河北省石家庄市桥西区联邦外国语学校"}},{"type":"Feature","geometry":{"type":"Point","coordinates":[114.448982,38.03532]},"properties":{"full_address":"河北省石家庄市桥西区友谊街道市场园西园"}},{"type":"Feature","geometry":{"type":"Point","coordinates":[114.461639,37.978779]},"properties":{"full_address":"河北省石家庄市桥西区红旗街道河北工业职业技术大学"}},{"type":"Feature","geometry":{"type":"Point","coordinates":[114.456085,38.011703]},"properties":{"full_address":"河北省石家庄市桥西区河北师范大学附属民族学院"}},{"type":"Feature","geometry":{"type":"Point","coordinates":[114.429672,38.049931]},"properties":{"full_address":"河北省石家庄市桥西区留营街道创新天卉学校"}},{"type":"Feature","geometry":{"type":"Point","coordinates":[114.4186,38.05617]},"properties":{"full_address":"河北省石家庄市桥西区南简良东区22、24号楼"}},{"type":"Feature","geometry":{"type":"Point","coordinates":[114.503983,38.02177]},"properties":{"full_address":"河北省石家庄市桥西区东风街道石运小区3号楼"}},{"type":"Feature","geometry":{"type":"Point","coordinates":[114.426705,38.031368]},"properties":{"full_address":"河北省石家庄市桥西区西里街道北杜旧村"}},{"type":"Feature","geometry":{"type":"Point","coordinates":[114.46856,37.99557]},"properties":{"full_address":"河北省石家庄市桥西区红旗街道滨河新城小区39号楼"}},{"type":"Feature","geometry":{"type":"Point","coordinates":[114.49759,38.04087]},"properties":{"full_address":"河北省石家庄市桥西区东华街道天滋嘉鲤南区2号楼"}},{"type":"Feature","geometry":{"type":"Point","coordinates":[114.426384,38.062454]},"properties":{"full_address":"河北省石家庄市桥西区留营街道东简良旧村"}},{"type":"Feature","geometry":{"type":"Point","coordinates":[114.415169,38.061302]},"properties":{"full_address":"河北省石家庄市桥西区良兴美嘉城30、31号楼"}},{"type":"Feature","geometry":{"type":"Point","coordinates":[114.490364,38.044514]},"properties":{"full_address":"河北省石家庄市桥西区中山街道金裕公寓"}},{"type":"Feature","geometry":{"type":"Point","coordinates":[114.487213,38.055962]},"properties":{"full_address":"河北省石家庄市桥西区友谊街道和平家园7、8、16号楼"}},{"type":"Feature","geometry":{"type":"Point","coordinates":[114.495155,38.04044]},"properties":{"full_address":"河北省石家庄市桥西区东华街道中山华府丁香院"}},{"type":"Feature","geometry":{"type":"Point","coordinates":[114.482635,38.097149]},"properties":{"full_address":"河北省石家庄市新华区赵佗路街道赵二街小区"}},{"type":"Feature","geometry":{"type":"Point","coordinates":[114.482231,38.079563]},"properties":{"full_address":"河北省石家庄市新华区石岗街道柏林北区"}},{"type":"Feature","geometry":{"type":"Point","coordinates":[114.466949,38.09201]},"properties":{"full_address":"河北省石家庄市新华区赵陵铺路街道赵一街西区"}},{"type":"Feature","geometry":{"type":"Point","coordinates":[114.485023,38.052528]},"properties":{"full_address":"河北省石家庄市新华区新华路街道宁安小区"}},{"type":"Feature","geometry":{"type":"Point","coordinates":[114.461227,38.100029]},"properties":{"full_address":"河北省石家庄市新华区赵陵铺路街道都市阳光小区"}},{"type":"Feature","geometry":{"type":"Point","coordinates":[114.471909,38.109261]},"properties":{"full_address":"河北省石家庄市新华区杜北街道乾园小区"}},{"type":"Feature","geometry":{"type":"Point","coordinates":[114.46846,38.111351]},"properties":{"full_address":"河北省石家庄市新华区南高基小区"}},{"type":"Feature","geometry":{"type":"Point","coordinates":[114.47171,38.09398]},"properties":{"full_address":"河北省石家庄市新华区赵陵铺路街道新苑小区9、42号楼"}},{"type":"Feature","geometry":{"type":"Point","coordinates":[114.464478,38.095821]},"properties":{"full_address":"河北省石家庄市新华区世纪康城16、20号楼"}},{"type":"Feature","geometry":{"type":"Point","coordinates":[114.456558,38.101051]},"properties":{"full_address":"河北省石家庄市新华区丽都河畔12、18、19号楼"}},{"type":"Feature","geometry":{"type":"Point","coordinates":[114.47303,38.098022]},"properties":{"full_address":"河北省石家庄市新华区北郡B区2、4、9号楼"}},{"type":"Feature","geometry":{"type":"Point","coordinates":[114.467842,38.095814]},"properties":{"full_address":"河北省石家庄市新华区北郡C区6、9、12号楼"}},{"type":"Feature","geometry":{"type":"Point","coordinates":[114.411583,38.078503]},"properties":{"full_address":"河北省石家庄市新华区大郭街道水印城2、10号楼"}},{"type":"Feature","geometry":{"type":"Point","coordinates":[114.405479,38.085934]},"properties":{"full_address":"河北省石家庄市新华区聚和苑西区1号楼"}},{"type":"Feature","geometry":{"type":"Point","coordinates":[114.486221,38.049744]},"properties":{"full_address":"河北省石家庄市新华区新华路街道北后东区14、15、18号楼"}},{"type":"Feature","geometry":{"type":"Point","coordinates":[114.487137,38.048859]},"properties":{"full_address":"河北省石家庄市新华区美麟花园1、6号楼"}},{"type":"Feature","geometry":{"type":"Point","coordinates":[114.443489,38.120815]},"properties":{"full_address":"河北省石家庄市新华区杜北街道御江南小区35、39号楼"}},{"type":"Feature","geometry":{"type":"Point","coordinates":[114.443123,38.127258]},"properties":{"full_address":"河北省石家庄市新华区香水岸3、4、10号楼"}},{"type":"Feature","geometry":{"type":"Point","coordinates":[114.456367,38.106216]},"properties":{"full_address":"河北省石家庄市新华区润佳花园小区17、18号楼"}},{"type":"Feature","geometry":{"type":"Point","coordinates":[114.480545,38.092117]},"properties":{"full_address":"河北省石家庄市新华区赵佗路街道华瑞苑小区"}},{"type":"Feature","geometry":{"type":"Point","coordinates":[114.485374,38.087906]},"properties":{"full_address":"河北省石家庄市新华区明珠花苑小区2、8、11、15、20号楼"}},{"type":"Feature","geometry":{"type":"Point","coordinates":[114.474159,38.10054]},"properties":{"full_address":"河北省石家庄市新华区赵二街花苑小区1、3、10号楼"}},{"type":"Feature","geometry":{"type":"Point","coordinates":[114.487648,38.094475]},"properties":{"full_address":"河北省石家庄市新华区安康花园小区1、2、3号楼"}},{"type":"Feature","geometry":{"type":"Point","coordinates":[114.488808,38.087952]},"properties":{"full_address":"河北省石家庄市新华区天域嘉园小区2、6、9号楼"}},{"type":"Feature","geometry":{"type":"Point","coordinates":[114.475761,38.09597]},"properties":{"full_address":"河北省石家庄市新华区赵陵铺路街道新苑南区"}},{"type":"Feature","geometry":{"type":"Point","coordinates":[114.455009,38.11771]},"properties":{"full_address":"河北省石家庄市新华区杜北街道西营上水园17号楼"}},{"type":"Feature","geometry":{"type":"Point","coordinates":[114.465889,38.072929]},"properties":{"full_address":"河北省石家庄市新华区东营社区（阳光胡同、幸福东路、商贸一巷、商贸二巷）"}},{"type":"Feature","geometry":{"type":"Point","coordinates":[114.489159,38.091808]},"properties":{"full_address":"河北省石家庄市新华区赵佗路街道红星国际2、7、11号楼"}},{"type":"Feature","geometry":{"type":"Point","coordinates":[114.490532,38.092171]},"properties":{"full_address":"河北省石家庄市新华区水墨紫庭6、7号楼"}},{"type":"Feature","geometry":{"type":"Point","coordinates":[114.475952,38.063053]},"properties":{"full_address":"河北省石家庄市新华区东焦街道工行宿舍"}},{"type":"Feature","geometry":{"type":"Point","coordinates":[114.47537,38.06358]},"properties":{"full_address":"河北省石家庄市新华区市庄村（霞光街48号、旭光街46号、市庄路6号、大理寺胡同、兴民里胡同）"}},{"type":"Feature","geometry":{"type":"Point","coordinates":[114.43866,38.08162]},"properties":{"full_address":"河北省石家庄市新华区西三庄街道西三庄西区B5号楼1单元"}},{"type":"Feature","geometry":{"type":"Point","coordinates":[114.482964,38.047592]},"properties":{"full_address":"河北省石家庄市新华区新华路街道金指数B座"}},{"type":"Feature","geometry":{"type":"Point","coordinates":[114.45046,38.08913]},"properties":{"full_address":"河北省石家庄市新华区天苑街道天苑小区G区2号楼"}},{"type":"Feature","geometry":{"type":"Point","coordinates":[114.458267,38.072788]},"properties":{"full_address":"河北省石家庄市新华区联盟路街道万信城市花园B2号楼"}},{"type":"Feature","geometry":{"type":"Point","coordinates":[114.473915,38.091492]},"properties":{"full_address":"河北省石家庄市新华区赵陵铺街道党家庄高层30号楼1单元、29号楼3单元、27号楼1、2单元、26号楼1单元、23号楼2单元、17号楼1单元"}},{"type":"Feature","geometry":{"type":"Point","coordinates":[114.4673,38.090534]},"properties":{"full_address":"河北省石家庄市新华区党家庄多层34号楼2单元、32号楼2单元、25号楼5、2单元、12号楼2单元、2号6单元"}},{"type":"Feature","geometry":{"type":"Point","coordinates":[114.564549,37.99165]},"properties":{"full_address":"河北省石家庄市裕华区裕强街道安苑小区B区3号楼"}},{"type":"Feature","geometry":{"type":"Point","coordinates":[114.56515,38.03326]},"properties":{"full_address":"河北省石家庄市裕华区东苑街道槐北路粮油所小区4号楼"}},{"type":"Feature","geometry":{"type":"Point","coordinates":[114.520805,37.997898]},"properties":{"full_address":"河北省石家庄市裕华区裕翔街道河北师范大学"}},{"type":"Feature","geometry":{"type":"Point","coordinates":[114.589302,37.986401]},"properties":{"full_address":"河北省石家庄市裕华区方村镇西京北村"}},{"type":"Feature","geometry":{"type":"Point","coordinates":[114.51544,38.01487]},"properties":{"full_address":"河北省石家庄市裕华区建通街道碧水青园小区16号楼"}},{"type":"Feature","geometry":{"type":"Point","coordinates":[114.507652,38.009666]},"properties":{"full_address":"河北省石家庄市裕华区现代城小区7号楼"}},{"type":"Feature","geometry":{"type":"Point","coordinates":[114.594833,38.054142]},"properties":{"full_address":"河北省石家庄市裕华区裕东街道保利茉莉公馆小区"}},{"type":"Feature","geometry":{"type":"Point","coordinates":[114.567169,37.992149]},"properties":{"full_address":"河北省石家庄市裕华区裕强街道安苑小区BC区"}},{"type":"Feature","geometry":{"type":"Point","coordinates":[114.531395,37.99498]},"properties":{"full_address":"河北省石家庄市裕华区建华南街道南焦新村牡丹园小区"}},{"type":"Feature","geometry":{"type":"Point","coordinates":[114.535706,38.004772]},"properties":{"full_address":"河北省石家庄市裕华区裕兴街道保利拉菲公馆10号楼保障房"}},{"type":"Feature","geometry":{"type":"Point","coordinates":[114.50296,38.002621]},"properties":{"full_address":"河北省石家庄市裕华区建通街道盛邦花园八区公租房小区2号楼"}},{"type":"Feature","geometry":{"type":"Point","coordinates":[114.56546,38.035282]},"properties":{"full_address":"河北省石家庄市裕华区东苑街道国际丽都"}},{"type":"Feature","geometry":{"type":"Point","coordinates":[114.554237,38.030499]},"properties":{"full_address":"河北省石家庄市裕华区省直东苑小区北院1号楼"}},{"type":"Feature","geometry":{"type":"Point","coordinates":[114.55442,38.010273]},"properties":{"full_address":"河北省石家庄市裕华区裕兴街道联邦空中花园小区2号楼"}},{"type":"Feature","geometry":{"type":"Point","coordinates":[114.560944,38.00877]},"properties":{"full_address":"河北省石家庄市裕华区裕强街道卓达书香园一区8、16、48、53号楼"}},{"type":"Feature","geometry":{"type":"Point","coordinates":[114.560318,38.01128]},"properties":{"full_address":"河北省石家庄市裕华区新天地自然康城小区22、25号楼"}},{"type":"Feature","geometry":{"type":"Point","coordinates":[114.576042,38.014961]},"properties":{"full_address":"河北省石家庄市裕华区国大全城小区6、18号楼"}},{"type":"Feature","geometry":{"type":"Point","coordinates":[114.50866,37.97798]},"properties":{"full_address":"河北省石家庄市裕华区裕翔街道紫荆家园1号楼"}},{"type":"Feature","geometry":{"type":"Point","coordinates":[114.513702,37.999481]},"properties":{"full_address":"河北省石家庄市裕华区等级面粉厂宿舍"}},{"type":"Feature","geometry":{"type":"Point","coordinates":[114.52046,38.01161]},"properties":{"full_address":"河北省石家庄市裕华区建通街道青南小区23号楼乡政府宿舍"}},{"type":"Feature","geometry":{"type":"Point","coordinates":[114.50621,38.003033]},"properties":{"full_address":"河北省石家庄市裕华区盛邦六区8号楼"}},{"type":"Feature","geometry":{"type":"Point","coordinates":[114.528046,38.020546]},"properties":{"full_address":"河北省石家庄市裕华区槐底街道河北地质大学家属院"}},{"type":"Feature","geometry":{"type":"Point","coordinates":[114.54272,38.01676]},"properties":{"full_address":"河北省石家庄市裕华区世纪花园小区东区10号楼"}},{"type":"Feature","geometry":{"type":"Point","coordinates":[114.525726,38.026081]},"properties":{"full_address":"河北省石家庄市裕华区槐底二区13号楼"}},{"type":"Feature","geometry":{"type":"Point","coordinates":[114.498581,38.026932]},"properties":{"full_address":"河北省石家庄市裕华区市工商局宿舍"}},{"type":"Feature","geometry":{"type":"Point","coordinates":[114.542,38.025871]},"properties":{"full_address":"河北省石家庄市裕华区万达B1北区6号楼"}},{"type":"Feature","geometry":{"type":"Point","coordinates":[114.554352,37.986435]},"properties":{"full_address":"河北省石家庄市裕华区方村镇众美城廊桥四季B区2号楼1单元"}},{"type":"Feature","geometry":{"type":"Point","coordinates":[114.559452,37.986255]},"properties":{"full_address":"河北省石家庄市裕华区众美城廊桥四季C区3号楼2单元"}},{"type":"Feature","geometry":{"type":"Point","coordinates":[114.574211,37.980392]},"properties":{"full_address":"河北省石家庄市裕华区恒大雅苑D区19号楼1单元、21号楼1单元"}},{"type":"Feature","geometry":{"type":"Point","coordinates":[114.57116,37.989067]},"properties":{"full_address":"河北省石家庄市裕华区方兴小区215号楼2单元、225号楼3单元"}},{"type":"Feature","geometry":{"type":"Point","coordinates":[114.536491,37.984901]},"properties":{"full_address":"河北省石家庄市裕华区贾村新村B区11号楼1单元"}},{"type":"Feature","geometry":{"type":"Point","coordinates":[114.57164,38.01438]},"properties":{"full_address":"河北省石家庄市裕华区裕强街道东方观邸小区4号楼3单元"}},{"type":"Feature","geometry":{"type":"Point","coordinates":[114.556633,38.0149]},"properties":{"full_address":"河北省石家庄市裕华区神兴小区1期25号楼"}},{"type":"Feature","geometry":{"type":"Point","coordinates":[114.54363,38.02938]},"properties":{"full_address":"河北省石家庄市裕华区东苑街道尖岭小区23号楼1单元"}},{"type":"Feature","geometry":{"type":"Point","coordinates":[114.56543,38.03371]},"properties":{"full_address":"河北省石家庄市裕华区粮油所宿舍2号楼2单元"}},{"type":"Feature","geometry":{"type":"Point","coordinates":[114.55911,38.03562]},"properties":{"full_address":"河北省石家庄市裕华区裕东小区5区43号楼1单元"}},{"type":"Feature","geometry":{"type":"Point","coordinates":[114.561768,38.035332]},"properties":{"full_address":"河北省石家庄市裕华区河北省谷子研究所宿舍"}},{"type":"Feature","geometry":{"type":"Point","coordinates":[114.537041,38.031891]},"properties":{"full_address":"河北省石家庄市裕华区25中宿舍Ｂ座3单元"}},{"type":"Feature","geometry":{"type":"Point","coordinates":[114.56881,38.0302]},"properties":{"full_address":"河北省石家庄市裕华区国际城三期47号楼1单元"}},{"type":"Feature","geometry":{"type":"Point","coordinates":[114.55045,38.02923]},"properties":{"full_address":"河北省石家庄市裕华区豪景丽园2号楼2单元、10号楼2单元"}},{"type":"Feature","geometry":{"type":"Point","coordinates":[114.5574,38.03366]},"properties":{"full_address":"河北省石家庄市裕华区裕东小区南区70号楼1单元"}},{"type":"Feature","geometry":{"type":"Point","coordinates":[114.529305,38.028763]},"properties":{"full_address":"河北省石家庄市裕华区省文物局宿舍"}},{"type":"Feature","geometry":{"type":"Point","coordinates":[114.535896,38.033203]},"properties":{"full_address":"河北省石家庄市裕华区方北新村8号楼2单元"}},{"type":"Feature","geometry":{"type":"Point","coordinates":[114.5594,38.03531]},"properties":{"full_address":"河北省石家庄市裕华区裕东小区北区57号楼3单元、68号楼1单元"}},{"type":"Feature","geometry":{"type":"Point","coordinates":[114.567886,38.034138]},"properties":{"full_address":"河北省石家庄市裕华区国际城四期61号楼1单元、70号楼1单元"}},{"type":"Feature","geometry":{"type":"Point","coordinates":[114.56717,38.01863]},"properties":{"full_address":"河北省石家庄市裕华区裕东街道大马庄园15号楼"}},{"type":"Feature","geometry":{"type":"Point","coordinates":[114.557068,38.020267]},"properties":{"full_address":"河北省石家庄市裕华区金域蓝湾4号楼1单元"}},{"type":"Feature","geometry":{"type":"Point","coordinates":[114.5868,38.03549]},"properties":{"full_address":"河北省石家庄市裕华区东方花园小区3号楼4单元"}},{"type":"Feature","geometry":{"type":"Point","coordinates":[114.5647,38.01718]},"properties":{"full_address":"河北省石家庄市裕华区藏龙福地小区4号楼1单元、16号楼2单元"}},{"type":"Feature","geometry":{"type":"Point","coordinates":[114.50296,38.002621]},"properties":{"full_address":"河北省石家庄市裕华区建通街道盛邦花园八区1号楼1单元"}},{"type":"Feature","geometry":{"type":"Point","coordinates":[114.53653,37.987083]},"properties":{"full_address":"河北省石家庄市裕华区方村镇贾村新村A区2号楼1单元"}},{"type":"Feature","geometry":{"type":"Point","coordinates":[114.536491,37.984901]},"properties":{"full_address":"河北省石家庄市裕华区贾村新村B区12号楼2单元"}},{"type":"Feature","geometry":{"type":"Point","coordinates":[114.534417,37.981681]},"properties":{"full_address":"河北省石家庄市裕华区南岭小区西区14号楼1单元"}},{"type":"Feature","geometry":{"type":"Point","coordinates":[114.558052,37.988075]},"properties":{"full_address":"河北省石家庄市裕华区众美城廊桥四季A区8号楼1单元、10号楼1单元"}},{"type":"Feature","geometry":{"type":"Point","coordinates":[114.557564,37.985889]},"properties":{"full_address":"河北省石家庄市裕华区众美城廊桥四季C区11号楼1单元"}},{"type":"Feature","geometry":{"type":"Point","coordinates":[114.545166,37.984203]},"properties":{"full_address":"河北省石家庄市裕华区融创臻澜园3号楼1单元"}},{"type":"Feature","geometry":{"type":"Point","coordinates":[114.580307,38.028988]},"properties":{"full_address":"河北省石家庄市裕华区裕东街道花溪畔2号楼2单元"}},{"type":"Feature","geometry":{"type":"Point","coordinates":[114.572075,38.034687]},"properties":{"full_address":"河北省石家庄市裕华区汇源酒店宿舍1号楼2单元"}},{"type":"Feature","geometry":{"type":"Point","coordinates":[114.56722,38.01708]},"properties":{"full_address":"河北省石家庄市裕华区大马庄园4号楼"}},{"type":"Feature","geometry":{"type":"Point","coordinates":[114.56337,38.024921]},"properties":{"full_address":"河北省石家庄市裕华区金马小区腾飞园26号楼1单元"}},{"type":"Feature","geometry":{"type":"Point","coordinates":[114.559303,38.020233]},"properties":{"full_address":"河北省石家庄市裕华区小马新村22号楼1单元"}},{"type":"Feature","geometry":{"type":"Point","coordinates":[114.5651,38.02416]},"properties":{"full_address":"河北省石家庄市裕华区西美五洲天地6号楼1单元"}},{"type":"Feature","geometry":{"type":"Point","coordinates":[114.52428,38.01639]},"properties":{"full_address":"河北省石家庄市裕华区槐底街道家乐园2号楼4单元"}},{"type":"Feature","geometry":{"type":"Point","coordinates":[114.527684,38.023509]},"properties":{"full_address":"河北省石家庄市裕华区槐底一区1号楼"}},{"type":"Feature","geometry":{"type":"Point","coordinates":[114.552526,38.023678]},"properties":{"full_address":"河北省石家庄市裕华区石门小区30号楼2单元"}},{"type":"Feature","geometry":{"type":"Point","coordinates":[114.545883,38.024479]},"properties":{"full_address":"河北省石家庄市裕华区尖岭万达B2南区2号楼2单元"}},{"type":"Feature","geometry":{"type":"Point","coordinates":[114.52837,38.01476]},"properties":{"full_address":"河北省石家庄市裕华区燕港新村30号楼5单元"}},{"type":"Feature","geometry":{"type":"Point","coordinates":[114.55164,37.99092]},"properties":{"full_address":"河北省石家庄市裕华区建华南街道风尚水郡北区8号楼"}},{"type":"Feature","geometry":{"type":"Point","coordinates":[114.539428,37.992174]},"properties":{"full_address":"河北省石家庄市裕华区水韵华庭10号楼2单元"}},{"type":"Feature","geometry":{"type":"Point","coordinates":[114.538788,37.992756]},"properties":{"full_address":"河北省石家庄市裕华区南焦新村玉兰园18号楼1单元"}},{"type":"Feature","geometry":{"type":"Point","coordinates":[114.527748,37.985661]},"properties":{"full_address":"河北省石家庄市裕华区裕翔街道锦绣学府10号楼1单元"}},{"type":"Feature","geometry":{"type":"Point","coordinates":[114.542351,38.011353]},"properties":{"full_address":"河北省石家庄市裕华区裕兴街道东王新村1号楼1单元"}},{"type":"Feature","geometry":{"type":"Point","coordinates":[114.53815,38.01324]},"properties":{"full_address":"河北省石家庄市裕华区八五零小区5号楼2单元"}},{"type":"Feature","geometry":{"type":"Point","coordinates":[114.53418,38.008034]},"properties":{"full_address":"河北省石家庄市裕华区丽晶园小区5号楼1单元"}},{"type":"Feature","geometry":{"type":"Point","coordinates":[114.563354,38.444813]},"properties":{"full_address":"河北省石家庄市裕华区东方明珠小区4号楼2单元"}},{"type":"Feature","geometry":{"type":"Point","coordinates":[114.540009,38.012676]},"properties":{"full_address":"河北省石家庄市裕华区华兴小区7号楼4单元"}},{"type":"Feature","geometry":{"type":"Point","coordinates":[114.567558,38.01088]},"properties":{"full_address":"河北省石家庄市裕华区裕强街道国仕山小区14号楼"}},{"type":"Feature","geometry":{"type":"Point","coordinates":[114.565178,38.009052]},"properties":{"full_address":"河北省石家庄市裕华区位同新村西区南1号楼1单元"}},{"type":"Feature","geometry":{"type":"Point","coordinates":[114.502464,37.993523]},"properties":{"full_address":"河北省石家庄市裕华区建通街道绿家小区6号楼2单元"}},{"type":"Feature","geometry":{"type":"Point","coordinates":[114.506587,38.008646]},"properties":{"full_address":"河北省石家庄市裕华区现代城5号楼1单元"}},{"type":"Feature","geometry":{"type":"Point","coordinates":[114.50419,38.00882]},"properties":{"full_address":"河北省石家庄市裕华区孙村长宏锦园三区1号楼1单元"}},{"type":"Feature","geometry":{"type":"Point","coordinates":[114.430389,38.095928]},"properties":{"full_address":"河北省石家庄市鹿泉区河北传媒学院（鹿泉校区）"}},{"type":"Feature","geometry":{"type":"Point","coordinates":[114.595639,37.958059]},"properties":{"full_address":"河北省石家庄市栾城区冶河镇卓达太阳城希望之州12号楼"}},{"type":"Feature","geometry":{"type":"Point","coordinates":[114.558922,38.134941]},"properties":{"full_address":"河北省石家庄市正定县滨河悦秀1号楼1单元"}},{"type":"Feature","geometry":{"type":"Point","coordinates":[114.565135,38.145694]},"properties":{"full_address":"河北省石家庄市正定县长德教育园区"}},{"type":"Feature","geometry":{"type":"Point","coordinates":[114.49765,38.177769]},"properties":{"full_address":"河北省石家庄市正定县小孙村"}},{"type":"Feature","geometry":{"type":"Point","coordinates":[114.606788,38.202737]},"properties":{"full_address":"河北省石家庄市正定县木庄村"}},{"type":"Feature","geometry":{"type":"Point","coordinates":[114.549843,38.140835]},"properties":{"full_address":"河北省石家庄市正定县正洋花园2号楼1单元"}},{"type":"Feature","geometry":{"type":"Point","coordinates":[114.677401,38.214499]},"properties":{"full_address":"河北省石家庄市正定县东杨庄村"}},{"type":"Feature","geometry":{"type":"Point","coordinates":[114.679382,38.285732]},"properties":{"full_address":"河北省石家庄市正定县北王庄村"}},{"type":"Feature","geometry":{"type":"Point","coordinates":[114.55469,38.16508]},"properties":{"full_address":"河北省石家庄市正定县小商品板材市场"}},{"type":"Feature","geometry":{"type":"Point","coordinates":[114.583031,38.191811]},"properties":{"full_address":"河北省石家庄市正定县岸下村"}},{"type":"Feature","geometry":{"type":"Point","coordinates":[118.075876,39.850889]},"properties":{"full_address":"河北省唐山市丰润区丰润镇中心卫生院"}},{"type":"Feature","geometry":{"type":"Point","coordinates":[118.91252,39.42564]},"properties":{"full_address":"河北省唐山市乐亭县二十二冶小区97楼"}},{"type":"Feature","geometry":{"type":"Point","coordinates":[119.5983,39.92412]},"properties":{"full_address":"河北省秦皇岛市海港区滨海城小区4栋1单元"}},{"type":"Feature","geometry":{"type":"Point","coordinates":[119.632301,39.92659]},"properties":{"full_address":"河北省秦皇岛市海港区工人南里17栋3单元"}},{"type":"Feature","geometry":{"type":"Point","coordinates":[119.634507,39.930527]},"properties":{"full_address":"河北省秦皇岛市海港区添鑫超市煤港里社区店"}},{"type":"Feature","geometry":{"type":"Point","coordinates":[119.601372,39.92202]},"properties":{"full_address":"河北省秦皇岛市海港区原麦时光滨海城店"}},{"type":"Feature","geometry":{"type":"Point","coordinates":[119.60641,39.93136]},"properties":{"full_address":"河北省秦皇岛市海港区秦皇小区62栋4单元"}},{"type":"Feature","geometry":{"type":"Point","coordinates":[119.573288,39.932922]},"properties":{"full_address":"河北省秦皇岛市海港区万象城3号楼"}},{"type":"Feature","geometry":{"type":"Point","coordinates":[119.571205,39.93177]},"properties":{"full_address":"河北省秦皇岛市海港区在水一方A区9栋1单元"}},{"type":"Feature","geometry":{"type":"Point","coordinates":[119.567932,39.959892]},"properties":{"full_address":"河北省秦皇岛市海港区上城汤廷小区12栋1单元"}},{"type":"Feature","geometry":{"type":"Point","coordinates":[118.976608,40.413197]},"properties":{"full_address":"河北省秦皇岛市青龙满族自治县阳光逸城小区"}},{"type":"Feature","geometry":{"type":"Point","coordinates":[118.944267,40.401001]},"properties":{"full_address":"河北省秦皇岛市青龙满族自治县翠屏湾东区"}},{"type":"Feature","geometry":{"type":"Point","coordinates":[119.212982,40.50386]},"properties":{"full_address":"河北省秦皇岛市青龙满族自治县土门子镇水泉村"}},{"type":"Feature","geometry":{"type":"Point","coordinates":[118.966194,40.427921]},"properties":{"full_address":"河北省秦皇岛市青龙满族自治县青龙镇拉马沟村"}},{"type":"Feature","geometry":{"type":"Point","coordinates":[119.148598,40.479931]},"properties":{"full_address":"河北省秦皇岛市青龙满族自治县土门子镇西蒿村"}},{"type":"Feature","geometry":{"type":"Point","coordinates":[118.981941,40.409565]},"properties":{"full_address":"河北省秦皇岛市青龙满族自治县都阳路街道万城尚景B区17号楼"}},{"type":"Feature","geometry":{"type":"Point","coordinates":[118.961746,40.408218]},"properties":{"full_address":"河北省秦皇岛市青龙满族自治县花园小区2号楼"}},{"type":"Feature","geometry":{"type":"Point","coordinates":[118.970779,40.413582]},"properties":{"full_address":"河北省秦皇岛市青龙满族自治县育龙湾（A5、A8、B4、B5、B6）"}},{"type":"Feature","geometry":{"type":"Point","coordinates":[118.95012,40.40692]},"properties":{"full_address":"河北省秦皇岛市青龙满族自治县县社家属院第一排1-7户"}},{"type":"Feature","geometry":{"type":"Point","coordinates":[118.927491,40.411976]},"properties":{"full_address":"河北省秦皇岛市青龙满族自治县金伯世家3号楼"}},{"type":"Feature","geometry":{"type":"Point","coordinates":[118.956642,40.405972]},"properties":{"full_address":"河北省秦皇岛市青龙满族自治县金源小区一号院（5号、6号楼）"}},{"type":"Feature","geometry":{"type":"Point","coordinates":[118.929199,40.410904]},"properties":{"full_address":"河北省秦皇岛市青龙满族自治县如意小区5号楼"}},{"type":"Feature","geometry":{"type":"Point","coordinates":[118.953094,40.408394]},"properties":{"full_address":"河北省秦皇岛市青龙满族自治县泰丰首府11号楼2单元"}},{"type":"Feature","geometry":{"type":"Point","coordinates":[118.97057,40.40751]},"properties":{"full_address":"河北省秦皇岛市青龙满族自治县森源领秀城东区（20号楼、21号楼、22号楼）"}},{"type":"Feature","geometry":{"type":"Point","coordinates":[118.963654,40.409821]},"properties":{"full_address":"河北省秦皇岛市青龙满族自治县嘉和园小区一期2号楼5单元"}},{"type":"Feature","geometry":{"type":"Point","coordinates":[118.944946,40.41069]},"properties":{"full_address":"河北省秦皇岛市青龙满族自治县燕山家园15号楼"}},{"type":"Feature","geometry":{"type":"Point","coordinates":[118.960449,40.407749]},"properties":{"full_address":"河北省秦皇岛市青龙满族自治县家园旅社所在楼栋"}},{"type":"Feature","geometry":{"type":"Point","coordinates":[118.955788,40.408272]},"properties":{"full_address":"河北省秦皇岛市青龙满族自治县青龙镇兴嘉小区民宿"}},{"type":"Feature","geometry":{"type":"Point","coordinates":[118.97583,40.407921]},"properties":{"full_address":"河北省秦皇岛市青龙满族自治县龙岛家园1、2号楼"}},{"type":"Feature","geometry":{"type":"Point","coordinates":[118.901512,40.41251]},"properties":{"full_address":"河北省秦皇岛市青龙满族自治县逃军山村山南片"}},{"type":"Feature","geometry":{"type":"Point","coordinates":[118.984512,40.411942]},"properties":{"full_address":"河北省秦皇岛市青龙满族自治县前庄村三门店片"}},{"type":"Feature","geometry":{"type":"Point","coordinates":[118.938583,40.407951]},"properties":{"full_address":"河北省秦皇岛市青龙满族自治县土坎子村井沿子片"}},{"type":"Feature","geometry":{"type":"Point","coordinates":[118.930344,40.413639]},"properties":{"full_address":"河北省秦皇岛市青龙满族自治县土坎子村草房庄片"}},{"type":"Feature","geometry":{"type":"Point","coordinates":[119.006889,40.139862]},"properties":{"full_address":"河北省秦皇岛市青龙满族自治县三杈榆树村水泉沟片"}},{"type":"Feature","geometry":{"type":"Point","coordinates":[119.197052,40.337532]},"properties":{"full_address":"河北省秦皇岛市青龙满族自治县双山子镇沟口子村"}},{"type":"Feature","geometry":{"type":"Point","coordinates":[119.050461,40.5411]},"properties":{"full_address":"河北省秦皇岛市青龙满族自治县马圈子镇张杖子村"}},{"type":"Feature","geometry":{"type":"Point","coordinates":[119.07431,40.5508]},"properties":{"full_address":"河北省秦皇岛市青龙满族自治县杨杖子村"}},{"type":"Feature","geometry":{"type":"Point","coordinates":[114.567162,36.65453]},"properties":{"full_address":"河北省邯郸市经开区多多买菜邯郸1仓（荀子大街店）"}},{"type":"Feature","geometry":{"type":"Point","coordinates":[114.507263,37.070141]},"properties":{"full_address":"河北省邢台市襄都区南长街街道红星东小区10号楼2单元"}},{"type":"Feature","geometry":{"type":"Point","coordinates":[114.517387,37.080383]},"properties":{"full_address":"河北省邢台市襄都区恒大城1号楼1单元、2号楼1单元"}},{"type":"Feature","geometry":{"type":"Point","coordinates":[114.500374,37.05793]},"properties":{"full_address":"河北省邢台市襄都区西大街街道金属公司家属院"}},{"type":"Feature","geometry":{"type":"Point","coordinates":[114.496201,37.0485]},"properties":{"full_address":"河北省邢台市襄都区开元御园1号楼2单元，"}},{"type":"Feature","geometry":{"type":"Point","coordinates":[114.50708,37.05151]},"properties":{"full_address":"河北省邢台市襄都区顺德鑫苑5号楼1单元、8号楼"}},{"type":"Feature","geometry":{"type":"Point","coordinates":[114.513314,37.056797]},"properties":{"full_address":"河北省邢台市襄都区北大街街道月亮湾小区2、3、4、5、7号楼"}},{"type":"Feature","geometry":{"type":"Point","coordinates":[114.503677,37.07309]},"properties":{"full_address":"河北省邢台市襄都区九中家属院1号楼2单元"}},{"type":"Feature","geometry":{"type":"Point","coordinates":[114.5199,37.11577]},"properties":{"full_address":"河北省邢台市襄都区泉东街道长信村"}},{"type":"Feature","geometry":{"type":"Point","coordinates":[114.51577,37.03915]},"properties":{"full_address":"河北省邢台市襄都区东郭村镇淮家屯东区23、24、25、28、30、31号楼"}},{"type":"Feature","geometry":{"type":"Point","coordinates":[114.5572,37.10973]},"properties":{"full_address":"河北省邢台市襄都区晏家屯镇阳光尚城3号楼"}},{"type":"Feature","geometry":{"type":"Point","coordinates":[114.507263,37.070141]},"properties":{"full_address":"河北省邢台市襄都区南长街街道红星东小区2号楼"}},{"type":"Feature","geometry":{"type":"Point","coordinates":[114.500374,37.05793]},"properties":{"full_address":"河北省邢台市襄都区西大街街道化工楼区2号楼"}},{"type":"Feature","geometry":{"type":"Point","coordinates":[114.499199,37.044746]},"properties":{"full_address":"河北省邢台市襄都区车站南路488号化轻公司家属楼"}},{"type":"Feature","geometry":{"type":"Point","coordinates":[114.503372,37.078598]},"properties":{"full_address":"河北省邢台市襄都区西门里街道北迁小区1、4号楼"}},{"type":"Feature","geometry":{"type":"Point","coordinates":[114.497513,37.08252]},"properties":{"full_address":"河北省邢台市襄都区襄湾壹号2号楼2单元、4号楼1单元"}},{"type":"Feature","geometry":{"type":"Point","coordinates":[114.49939,37.073112]},"properties":{"full_address":"河北省邢台市襄都区拖南小区18号楼"}},{"type":"Feature","geometry":{"type":"Point","coordinates":[114.47683,37.081722]},"properties":{"full_address":"河北省邢台市信都区中华大街街道烟草家属院楼1单元"}},{"type":"Feature","geometry":{"type":"Point","coordinates":[114.454056,37.057995]},"properties":{"full_address":"河北省邢台市信都区邮政局家属院2号楼4单元"}},{"type":"Feature","geometry":{"type":"Point","coordinates":[114.466599,37.076962]},"properties":{"full_address":"河北省邢台市信都区金华舒怡苑1号楼3单元"}},{"type":"Feature","geometry":{"type":"Point","coordinates":[114.469549,37.064337]},"properties":{"full_address":"河北省邢台市信都区矿北生活区22号楼1单元"}},{"type":"Feature","geometry":{"type":"Point","coordinates":[114.467667,37.04863]},"properties":{"full_address":"河北省邢台市信都区中兴路街道塔林南小区5号楼2单元"}},{"type":"Feature","geometry":{"type":"Point","coordinates":[114.486,37.07923]},"properties":{"full_address":"河北省邢台市信都区团结路街道团结中生活区3号楼"}},{"type":"Feature","geometry":{"type":"Point","coordinates":[114.477699,37.080875]},"properties":{"full_address":"河北省邢台市信都区交通之家1号楼4单元"}},{"type":"Feature","geometry":{"type":"Point","coordinates":[114.48035,37.06777]},"properties":{"full_address":"河北省邢台市信都区行署家属院5号楼3单元"}},{"type":"Feature","geometry":{"type":"Point","coordinates":[114.48467,37.06828]},"properties":{"full_address":"河北省邢台市信都区滨苑小区11号楼3单元、3号楼4单元"}},{"type":"Feature","geometry":{"type":"Point","coordinates":[114.483078,37.073532]},"properties":{"full_address":"河北省邢台市信都区政法小区2号楼1单元"}},{"type":"Feature","geometry":{"type":"Point","coordinates":[114.480499,37.077999]},"properties":{"full_address":"河北省邢台市信都区煤科院7号楼1单元"}},{"type":"Feature","geometry":{"type":"Point","coordinates":[114.49016,37.0846]},"properties":{"full_address":"河北省邢台市信都区泉南西大街131号"}},{"type":"Feature","geometry":{"type":"Point","coordinates":[114.453743,37.064682]},"properties":{"full_address":"河北省邢台市信都区南大郭镇富强家园10号楼2单元"}},{"type":"Feature","geometry":{"type":"Point","coordinates":[114.439957,37.068119]},"properties":{"full_address":"河北省邢台市信都区和谐雅居9号楼1单元"}},{"type":"Feature","geometry":{"type":"Point","coordinates":[114.453,37.0679]},"properties":{"full_address":"河北省邢台市信都区阳光印象11号楼"}},{"type":"Feature","geometry":{"type":"Point","coordinates":[114.466744,37.079367]},"properties":{"full_address":"河北省邢台市信都区泉西街道燕云台小区2号楼1单元、28号楼1单元"}},{"type":"Feature","geometry":{"type":"Point","coordinates":[114.464931,37.105198]},"properties":{"full_address":"河北省邢台市信都区保利茉莉公馆12号楼2单元"}},{"type":"Feature","geometry":{"type":"Point","coordinates":[114.461105,37.101212]},"properties":{"full_address":"河北省邢台市信都区张东东区19号楼1单元"}},{"type":"Feature","geometry":{"type":"Point","coordinates":[114.457123,37.101086]},"properties":{"full_address":"河北省邢台市信都区永康境界北区3号楼1单元"}},{"type":"Feature","geometry":{"type":"Point","coordinates":[114.4659,37.10786]},"properties":{"full_address":"河北省邢台市信都区林庄社区6号楼2单元"}},{"type":"Feature","geometry":{"type":"Point","coordinates":[114.4699,37.09892]},"properties":{"full_address":"河北省邢台市信都区鸿溪书香园45号楼2单元"}},{"type":"Feature","geometry":{"type":"Point","coordinates":[114.492744,37.086323]},"properties":{"full_address":"河北省邢台市信都区达活泉街道运输公司家属楼3单元"}},{"type":"Feature","geometry":{"type":"Point","coordinates":[114.4935,37.0896]},"properties":{"full_address":"河北省邢台市信都区三奕润城7号楼3单元"}},{"type":"Feature","geometry":{"type":"Point","coordinates":[114.487192,37.089063]},"properties":{"full_address":"河北省邢台市信都区园东小区11号楼2单元"}},{"type":"Feature","geometry":{"type":"Point","coordinates":[114.491837,37.085247]},"properties":{"full_address":"河北省邢台市信都区龙城仕家7号楼1单元"}},{"type":"Feature","geometry":{"type":"Point","coordinates":[114.487216,37.089251]},"properties":{"full_address":"河北省邢台市信都区北小汪回迁楼（园林街路北）19号楼3单元"}},{"type":"Feature","geometry":{"type":"Point","coordinates":[114.481715,37.096129]},"properties":{"full_address":"河北省邢台市信都区永辉巴黎16号楼4单元"}},{"type":"Feature","geometry":{"type":"Point","coordinates":[114.476501,37.100639]},"properties":{"full_address":"河北省邢台市信都区锦绣鹏城11号楼1单元"}},{"type":"Feature","geometry":{"type":"Point","coordinates":[114.456039,37.019058]},"properties":{"full_address":"河北省邢台市信都区李村镇山水秀丽小区3号楼4单元；"}},{"type":"Feature","geometry":{"type":"Point","coordinates":[114.4289,37.05623]},"properties":{"full_address":"河北省邢台市信都区钢铁路街道滨江苑18号楼3单元、6号楼4单元、13号楼3单元"}},{"type":"Feature","geometry":{"type":"Point","coordinates":[114.61853,37.047401]},"properties":{"full_address":"河北省邢台市信都区轮胎三厂生活区1号楼3单元"}},{"type":"Feature","geometry":{"type":"Point","coordinates":[114.4299,37.05219]},"properties":{"full_address":"河北省邢台市信都区丰泽郡10号楼4单元"}},{"type":"Feature","geometry":{"type":"Point","coordinates":[114.4346,37.04954]},"properties":{"full_address":"河北省邢台市信都区冷库街县建委家属楼南楼3单元"}},{"type":"Feature","geometry":{"type":"Point","coordinates":[114.424,37.02894]},"properties":{"full_address":"河北省邢台市信都区南石门镇碧桂园小区306号楼"}},{"type":"Feature","geometry":{"type":"Point","coordinates":[114.478836,37.011097]},"properties":{"full_address":"河北省邢台市信都区张宽街道悟思社区"}},{"type":"Feature","geometry":{"type":"Point","coordinates":[114.557159,37.385254]},"properties":{"full_address":"河北省邢台市临城县冯村地界107国道和南郝线交叉口以北，隆尧县界牌以南，东侧5-100米，西侧5-80米区域"}},{"type":"Feature","geometry":{"type":"Point","coordinates":[114.663887,37.540882]},"properties":{"full_address":"河北省邢台市柏乡县龙华镇耿家庄村"}},{"type":"Feature","geometry":{"type":"Point","coordinates":[114.740448,37.262802]},"properties":{"full_address":"河北省邢台市隆尧县魏家庄镇公子中村"}},{"type":"Feature","geometry":{"type":"Point","coordinates":[115.143509,37.594772]},"properties":{"full_address":"河北省邢台市宁晋县六合化工公司"}},{"type":"Feature","geometry":{"type":"Point","coordinates":[114.91932,37.6198]},"properties":{"full_address":"河北省邢台市宁晋县永上建筑搅拌站"}},{"type":"Feature","geometry":{"type":"Point","coordinates":[114.930771,37.156982]},"properties":{"full_address":"河北省邢台市平乡县节固镇黄家村"}},{"type":"Feature","geometry":{"type":"Point","coordinates":[115.07148,36.979263]},"properties":{"full_address":"河北省邢台市平乡县河古庙镇南庄村"}},{"type":"Feature","geometry":{"type":"Point","coordinates":[115.438667,37.185791]},"properties":{"full_address":"河北省邢台市威县赵村镇寺庄村"}},{"type":"Feature","geometry":{"type":"Point","coordinates":[115.273468,36.974545]},"properties":{"full_address":"河北省邢台市威县洺州镇东关村"}},{"type":"Feature","geometry":{"type":"Point","coordinates":[115.40866,37.35795]},"properties":{"full_address":"河北省邢台市南宫市丰翼鹏翼楼"}},{"type":"Feature","geometry":{"type":"Point","coordinates":[114.99543,40.799782]},"properties":{"full_address":"河北省张家口市桥东区大仓盖镇人头山村"}},{"type":"Feature","geometry":{"type":"Point","coordinates":[114.952019,40.786392]},"properties":{"full_address":"河北省张家口市桥东区姚家庄镇王家寨村"}},{"type":"Feature","geometry":{"type":"Point","coordinates":[115.09923,40.60845]},"properties":{"full_address":"河北省张家口市宣化区环保楼127号院"}},{"type":"Feature","geometry":{"type":"Point","coordinates":[115.067841,40.615139]},"properties":{"full_address":"河北省张家口市宣化区恒基花园小区"}},{"type":"Feature","geometry":{"type":"Point","coordinates":[115.116463,40.595394]},"properties":{"full_address":"河北省张家口市宣化区侯家庙镇侯家庙村"}},{"type":"Feature","geometry":{"type":"Point","coordinates":[115.10524,40.59528]},"properties":{"full_address":"河北省张家口市宣化区工业街街道（平安路东社区、采掘社区）"}},{"type":"Feature","geometry":{"type":"Point","coordinates":[115.080788,40.610435]},"properties":{"full_address":"河北省张家口市宣化区金矿小区"}},{"type":"Feature","geometry":{"type":"Point","coordinates":[115.097479,40.604371]},"properties":{"full_address":"河北省张家口市宣化区钢鑫小区"}},{"type":"Feature","geometry":{"type":"Point","coordinates":[115.064473,40.604021]},"properties":{"full_address":"河北省张家口市宣化区南大街万字会南路5号院及底商"}},{"type":"Feature","geometry":{"type":"Point","coordinates":[115.037674,40.628445]},"properties":{"full_address":"河北省张家口市宣化区宣府第一城"}},{"type":"Feature","geometry":{"type":"Point","coordinates":[115.108681,40.59623]},"properties":{"full_address":"河北省张家口市宣化区世纪光华小区"}},{"type":"Feature","geometry":{"type":"Point","coordinates":[115.101006,40.599361]},"properties":{"full_address":"河北省张家口市宣化区东升路风动宿舍三段1排"}},{"type":"Feature","geometry":{"type":"Point","coordinates":[115.006012,40.629009]},"properties":{"full_address":"河北省张家口市宣化区河子西镇肖家坊村"}},{"type":"Feature","geometry":{"type":"Point","coordinates":[115.076202,40.591042]},"properties":{"full_address":"河北省张家口市宣化区旭日嘉园小区"}},{"type":"Feature","geometry":{"type":"Point","coordinates":[115.057045,40.605148]},"properties":{"full_address":"河北省张家口市宣化区玉皇庙街11号院1号楼"}},{"type":"Feature","geometry":{"type":"Point","coordinates":[115.006012,40.629009]},"properties":{"full_address":"河北省张家口市宣化区河子西乡肖家坊村"}},{"type":"Feature","geometry":{"type":"Point","coordinates":[115.066611,40.609679]},"properties":{"full_address":"河北省张家口市宣化区武庙街5号院2号楼"}},{"type":"Feature","geometry":{"type":"Point","coordinates":[115.064903,40.635235]},"properties":{"full_address":"河北省张家口市宣化区大北街太阳城澳皮王厂区"}},{"type":"Feature","geometry":{"type":"Point","coordinates":[115.05184,40.608329]},"properties":{"full_address":"河北省张家口市宣化区宣府大街43号院2号楼"}},{"type":"Feature","geometry":{"type":"Point","coordinates":[115.054468,40.610236]},"properties":{"full_address":"河北省张家口市宣化区崇善寺街7号院1号楼"}},{"type":"Feature","geometry":{"type":"Point","coordinates":[115.052261,40.611271]},"properties":{"full_address":"河北省张家口市宣化区和平街小区3号楼"}},{"type":"Feature","geometry":{"type":"Point","coordinates":[115.09762,40.60538]},"properties":{"full_address":"河北省张家口市宣化区宣府大街129号院6号楼"}},{"type":"Feature","geometry":{"type":"Point","coordinates":[115.080078,40.616314]},"properties":{"full_address":"河北省张家口市宣化区万字会新民居1号楼"}},{"type":"Feature","geometry":{"type":"Point","coordinates":[115.09923,40.60845]},"properties":{"full_address":"河北省张家口市宣化区花儿巷街14楼"}},{"type":"Feature","geometry":{"type":"Point","coordinates":[115.067772,40.593811]},"properties":{"full_address":"河北省张家口市宣化区佳和小区5号楼、13号楼"}},{"type":"Feature","geometry":{"type":"Point","coordinates":[115.09923,40.60845]},"properties":{"full_address":"河北省张家口市宣化区工程二分厂4号楼"}},{"type":"Feature","geometry":{"type":"Point","coordinates":[115.05373,40.60945]},"properties":{"full_address":"河北省张家口市宣化区宣府大街46号院1号楼"}},{"type":"Feature","geometry":{"type":"Point","coordinates":[115.09923,40.60845]},"properties":{"full_address":"河北省张家口市宣化区将康居小区1号楼"}},{"type":"Feature","geometry":{"type":"Point","coordinates":[115.021744,40.616913]},"properties":{"full_address":"河北省张家口市宣化区河美家园1号楼"}},{"type":"Feature","geometry":{"type":"Point","coordinates":[115.06781,40.633751]},"properties":{"full_address":"河北省张家口市宣化区新北园小区2号楼"}},{"type":"Feature","geometry":{"type":"Point","coordinates":[115.058316,40.607036]},"properties":{"full_address":"河北省张家口市宣化区安广小区6号楼"}},{"type":"Feature","geometry":{"type":"Point","coordinates":[115.06882,40.598682]},"properties":{"full_address":"河北省张家口市宣化区西草市18号院1号楼"}},{"type":"Feature","geometry":{"type":"Point","coordinates":[115.102058,40.598042]},"properties":{"full_address":"河北省张家口市宣化区福泽苑小区13号楼"}},{"type":"Feature","geometry":{"type":"Point","coordinates":[115.09923,40.60845]},"properties":{"full_address":"河北省张家口市宣化区顺城街北五道巷36号楼"}},{"type":"Feature","geometry":{"type":"Point","coordinates":[115.09923,40.60845]},"properties":{"full_address":"河北省张家口市宣化区供电小区1号楼"}},{"type":"Feature","geometry":{"type":"Point","coordinates":[115.060981,40.619205]},"properties":{"full_address":"河北省张家口市宣化区后府街28号院2号楼"}},{"type":"Feature","geometry":{"type":"Point","coordinates":[115.067978,40.611347]},"properties":{"full_address":"河北省张家口市宣化区利民尚院3号楼"}},{"type":"Feature","geometry":{"type":"Point","coordinates":[115.097412,40.6096]},"properties":{"full_address":"河北省张家口市宣化区尚东国际9号楼1单元"}},{"type":"Feature","geometry":{"type":"Point","coordinates":[115.067284,40.634521]},"properties":{"full_address":"河北省张家口市宣化区望京福地廉租房5号楼2单元"}},{"type":"Feature","geometry":{"type":"Point","coordinates":[115.331688,40.686554]},"properties":{"full_address":"河北省张家口市宣化区万字会新民居14号车库"}},{"type":"Feature","geometry":{"type":"Point","coordinates":[115.051323,40.605602]},"properties":{"full_address":"河北省张家口市宣化区雅馨苑1号楼2单元"}},{"type":"Feature","geometry":{"type":"Point","coordinates":[115.067345,40.60955]},"properties":{"full_address":"河北省张家口市宣化区支家桥建行家属楼4单元"}},{"type":"Feature","geometry":{"type":"Point","coordinates":[115.036484,40.573742]},"properties":{"full_address":"河北省张家口市宣化区洋河南8号院"}},{"type":"Feature","geometry":{"type":"Point","coordinates":[115.08182,40.61061]},"properties":{"full_address":"河北省张家口市宣化区城上城A区5单元"}},{"type":"Feature","geometry":{"type":"Point","coordinates":[115.036519,40.573764]},"properties":{"full_address":"河北省张家口市宣化区洋河南镇头台子村"}},{"type":"Feature","geometry":{"type":"Point","coordinates":[114.62331,40.25382]},"properties":{"full_address":"河北省张家口市阳原县化稍营镇怡和家园小区商业街路南30号至66号"}},{"type":"Feature","geometry":{"type":"Point","coordinates":[114.42244,40.655697]},"properties":{"full_address":"河北省张家口市怀安县柴沟堡镇汽车站燕子饭店附近平房区（南至恒业鹏达轿车维修店，北至垃圾分类地，东至柴怀路，西至西沙路南一条）"}},{"type":"Feature","geometry":{"type":"Point","coordinates":[114.423167,40.673417]},"properties":{"full_address":"河北省张家口市怀安县柴沟堡镇农银小区1号楼1单元"}},{"type":"Feature","geometry":{"type":"Point","coordinates":[115.51591,40.4189]},"properties":{"full_address":"河北省张家口市怀来县京西市场天意百货"}},{"type":"Feature","geometry":{"type":"Point","coordinates":[115.520263,40.408571]},"properties":{"full_address":"河北省张家口市怀来县新城佳苑8号楼"}},{"type":"Feature","geometry":{"type":"Point","coordinates":[114.891312,40.758041]},"properties":{"full_address":"河北省张家口市经开区老鸦庄镇老鸦庄小区"}},{"type":"Feature","geometry":{"type":"Point","coordinates":[118.479202,40.598812]},"properties":{"full_address":"河北省承德市宽城满族自治县种子公司家属楼"}},{"type":"Feature","geometry":{"type":"Point","coordinates":[118.563629,40.648399]},"properties":{"full_address":"河北省承德市宽城满族自治县龙须门镇梁前院村"}},{"type":"Feature","geometry":{"type":"Point","coordinates":[117.950227,40.903643]},"properties":{"full_address":"河北省承德市高新区文轩茗园小区4号楼"}},{"type":"Feature","geometry":{"type":"Point","coordinates":[116.670082,39.562023]},"properties":{"full_address":"河北省廊坊市广阳区南尖塔镇孔雀公馆社区安瑞嘉园小区一区3号楼2单元"}},{"type":"Feature","geometry":{"type":"Point","coordinates":[116.67876,39.54798]},"properties":{"full_address":"河北省廊坊市广阳区南尖塔镇幸福城社区阳光郡工地（永兴路以西，北凤道以南"}},{"type":"Feature","geometry":{"type":"Point","coordinates":[116.677482,39.549217]},"properties":{"full_address":"河北省廊坊市广阳区南尖塔镇孔雀公馆社区华夏铂宫小区4号楼1单元"}},{"type":"Feature","geometry":{"type":"Point","coordinates":[116.74214,39.51351]},"properties":{"full_address":"河北省廊坊市广阳区新开路街道瑞华里光明东道79号"}},{"type":"Feature","geometry":{"type":"Point","coordinates":[116.7099,39.515331]},"properties":{"full_address":"河北省廊坊市广阳区解放道街道小廊坊社区永丰胡同"}},{"type":"Feature","geometry":{"type":"Point","coordinates":[116.669823,39.559394]},"properties":{"full_address":"河北省廊坊市广阳区南尖塔镇孔雀公馆社区枫景园西区1号楼3单元"}},{"type":"Feature","geometry":{"type":"Point","coordinates":[116.687502,39.525494]},"properties":{"full_address":"河北省廊坊市广阳区南尖塔镇朗欣社区朗园小区12号楼2单元"}},{"type":"Feature","geometry":{"type":"Point","coordinates":[116.67761,39.53681]},"properties":{"full_address":"河北省廊坊市广阳区南尖塔镇广阳公寓社区锦绣观邸小区6号楼2单元"}},{"type":"Feature","geometry":{"type":"Point","coordinates":[116.718488,39.543793]},"properties":{"full_address":"河北省廊坊市广阳区南尖塔镇尚都新苑东区16号楼2单元"}},{"type":"Feature","geometry":{"type":"Point","coordinates":[116.67658,39.54235]},"properties":{"full_address":"河北省廊坊市广阳区南尖塔镇幸福城社区幸福城润园17号楼1单元"}},{"type":"Feature","geometry":{"type":"Point","coordinates":[116.69361,39.5647]},"properties":{"full_address":"河北省廊坊市广阳区南尖塔镇董家村A区10排1-11号"}},{"type":"Feature","geometry":{"type":"Point","coordinates":[116.626605,39.571251]},"properties":{"full_address":"河北省廊坊市广阳区万庄镇华北石油廊坊矿区第一医院"}},{"type":"Feature","geometry":{"type":"Point","coordinates":[116.62044,39.57268]},"properties":{"full_address":"河北省廊坊市广阳区万庄镇万乐社区万乐小区5号楼4单元"}},{"type":"Feature","geometry":{"type":"Point","coordinates":[116.62044,39.57268]},"properties":{"full_address":"河北省廊坊市广阳区万庄镇万乐社区万乐小区9号楼3单元"}},{"type":"Feature","geometry":{"type":"Point","coordinates":[116.628585,39.57679]},"properties":{"full_address":"河北省廊坊市广阳区万庄镇万乐社区万乐小区18号楼5单元"}},{"type":"Feature","geometry":{"type":"Point","coordinates":[116.62044,39.57268]},"properties":{"full_address":"河北省廊坊市广阳区万庄镇万乐社区万乐小区22号楼3单元"}},{"type":"Feature","geometry":{"type":"Point","coordinates":[116.61959,39.56833]},"properties":{"full_address":"河北省廊坊市广阳区万庄镇万怡社区万怡小区2号楼4单元"}},{"type":"Feature","geometry":{"type":"Point","coordinates":[116.625321,39.57037]},"properties":{"full_address":"河北省廊坊市广阳区万庄镇万怡社区万怡小区3号楼6单元"}},{"type":"Feature","geometry":{"type":"Point","coordinates":[116.61959,39.56833]},"properties":{"full_address":"河北省廊坊市广阳区万庄镇万怡社区万怡小区8号楼4单元"}},{"type":"Feature","geometry":{"type":"Point","coordinates":[116.705865,39.518231]},"properties":{"full_address":"河北省廊坊市广阳区万庄镇万怡社区万怡小区13号楼1单元"}},{"type":"Feature","geometry":{"type":"Point","coordinates":[116.628419,39.578837]},"properties":{"full_address":"河北省廊坊市广阳区万庄镇万欣社区万欣小区A区11号楼3单元"}},{"type":"Feature","geometry":{"type":"Point","coordinates":[116.62044,39.57268]},"properties":{"full_address":"河北省廊坊市广阳区万庄镇万欣社区万欣小区B区7号楼1单元"}},{"type":"Feature","geometry":{"type":"Point","coordinates":[116.62044,39.57268]},"properties":{"full_address":"河北省廊坊市广阳区万庄镇万康社区万康小区11号楼1单元"}},{"type":"Feature","geometry":{"type":"Point","coordinates":[116.62008,39.572321]},"properties":{"full_address":"河北省廊坊市广阳区万庄镇万康社区万康小区15号楼1单元"}},{"type":"Feature","geometry":{"type":"Point","coordinates":[116.508336,39.553247]},"properties":{"full_address":"河北省廊坊市广阳区万庄镇万福社区万福小区10号楼2单元"}},{"type":"Feature","geometry":{"type":"Point","coordinates":[116.62044,39.57268]},"properties":{"full_address":"河北省廊坊市广阳区万庄镇万青社区万青小区10号楼3单元"}},{"type":"Feature","geometry":{"type":"Point","coordinates":[116.617913,39.582587]},"properties":{"full_address":"河北省廊坊市广阳区万庄镇雅园社区雅园三区15号楼1单元"}},{"type":"Feature","geometry":{"type":"Point","coordinates":[116.763547,39.515108]},"properties":{"full_address":"河北省廊坊市广阳区北旺镇姮庆社区蓝珏花园二区2号楼1单元"}},{"type":"Feature","geometry":{"type":"Point","coordinates":[116.763547,39.515108]},"properties":{"full_address":"河北省廊坊市广阳区北旺镇姮庆社区蓝珏花园二区6号楼2单元"}},{"type":"Feature","geometry":{"type":"Point","coordinates":[116.771754,39.510047]},"properties":{"full_address":"河北省廊坊市广阳区北旺镇相士屯村相府路中段（原养鸡场）"}},{"type":"Feature","geometry":{"type":"Point","coordinates":[116.763547,39.515108]},"properties":{"full_address":"河北省廊坊市广阳区北旺镇小海子村快速路东侧海胜东街"}},{"type":"Feature","geometry":{"type":"Point","coordinates":[116.763547,39.515108]},"properties":{"full_address":"河北省廊坊市广阳区北旺镇大枣林村枣林路春光街"}},{"type":"Feature","geometry":{"type":"Point","coordinates":[116.745551,39.501692]},"properties":{"full_address":"河北省廊坊市广阳区北旺镇彭庄村河源路盛安4巷"}},{"type":"Feature","geometry":{"type":"Point","coordinates":[116.763547,39.515108]},"properties":{"full_address":"河北省廊坊市广阳区北旺镇西村团结路二巷"}},{"type":"Feature","geometry":{"type":"Point","coordinates":[116.763547,39.515108]},"properties":{"full_address":"河北省廊坊市广阳区北旺镇花桥社区儒苑小区11号楼3单元"}},{"type":"Feature","geometry":{"type":"Point","coordinates":[116.568254,39.504989]},"properties":{"full_address":"河北省廊坊市广阳区九州镇九州四村一排"}},{"type":"Feature","geometry":{"type":"Point","coordinates":[116.56249,39.50398]},"properties":{"full_address":"河北省廊坊市广阳区九州镇九州四村二十排"}},{"type":"Feature","geometry":{"type":"Point","coordinates":[116.68646,39.5296]},"properties":{"full_address":"河北省廊坊市广阳区爱民东道街道群星里社区金玉源小区3栋后院平房（东西方向）"}},{"type":"Feature","geometry":{"type":"Point","coordinates":[116.677288,39.531178]},"properties":{"full_address":"河北省廊坊市广阳区爱民东道街道裕华路社区廊万路15号综合楼"}},{"type":"Feature","geometry":{"type":"Point","coordinates":[116.68749,39.533201]},"properties":{"full_address":"河北省廊坊市广阳区爱民东道街道建华里社区旭景花园1栋3单元"}},{"type":"Feature","geometry":{"type":"Point","coordinates":[116.723395,39.509664]},"properties":{"full_address":"河北省廊坊市广阳区新开路街道同顺里社区解放道8号小区五号楼2单元、3单元、4单元"}},{"type":"Feature","geometry":{"type":"Point","coordinates":[116.710471,39.515744]},"properties":{"full_address":"河北省廊坊市广阳区解放道街道新安里社区光辉里胡同"}},{"type":"Feature","geometry":{"type":"Point","coordinates":[116.32965,38.84311]},"properties":{"full_address":"河北省廊坊市文安县大留镇镇大李村一街"}},{"type":"Feature","geometry":{"type":"Point","coordinates":[116.334518,38.930879]},"properties":{"full_address":"河北省廊坊市文安县史各庄镇南新村小区1栋2单元"}},{"type":"Feature","geometry":{"type":"Point","coordinates":[116.65686,38.970347]},"properties":{"full_address":"河北省廊坊市文安县左各庄镇中艾头中艾头小区3号楼3单元"}},{"type":"Feature","geometry":{"type":"Point","coordinates":[116.46503,38.874611]},"properties":{"full_address":"河北省廊坊市文安县日新东街福顺小区15号楼1单元"}},{"type":"Feature","geometry":{"type":"Point","coordinates":[116.454976,38.866811]},"properties":{"full_address":"河北省廊坊市文安县永定路荣美小区4单元"}},{"type":"Feature","geometry":{"type":"Point","coordinates":[116.450629,38.875157]},"properties":{"full_address":"河北省廊坊市文安县吉福巷内博苑小区7号楼4单元"}},{"type":"Feature","geometry":{"type":"Point","coordinates":[116.471709,38.867901]},"properties":{"full_address":"河北省廊坊市文安县民安路锦绣家园7号楼3单元"}},{"type":"Feature","geometry":{"type":"Point","coordinates":[116.985462,39.893253]},"properties":{"full_address":"河北省廊坊市大厂回族自治县北辰街道北辰公寓小区5号楼2单元"}},{"type":"Feature","geometry":{"type":"Point","coordinates":[116.78666,39.538704]},"properties":{"full_address":"河北省廊坊市开发区大官地村"}},{"type":"Feature","geometry":{"type":"Point","coordinates":[115.861633,39.042862]},"properties":{"full_address":"河北省容城县容城县金湖未来城第一标段项目区"}},{"type":"Feature","geometry":{"type":"Point","coordinates":[115.886559,39.042355]},"properties":{"full_address":"河北省容城县容城县容东片区阳光园5号楼"}},{"type":"Feature","geometry":{"type":"Point","coordinates":[112.56461,37.82222]},"properties":{"full_address":"山西省太原市小店区盛立苑2号楼3单元"}},{"type":"Feature","geometry":{"type":"Point","coordinates":[112.56566,37.73605]},"properties":{"full_address":"山西省太原市小店区晋宝翔俱乐部"}},{"type":"Feature","geometry":{"type":"Point","coordinates":[112.551079,37.820511]},"properties":{"full_address":"山西省太原市小店区驴肉火烧店(红寺街)"}},{"type":"Feature","geometry":{"type":"Point","coordinates":[112.468155,38.035194]},"properties":{"full_address":"山西省太原市尖草坪区镇城村朝凤锦苑小区4号楼"}},{"type":"Feature","geometry":{"type":"Point","coordinates":[112.441551,37.852959]},"properties":{"full_address":"山西省太原市万柏林区九院403小区9号楼2单元"}},{"type":"Feature","geometry":{"type":"Point","coordinates":[112.445742,37.857092]},"properties":{"full_address":"山西省太原市万柏林区建北413小区11号楼3单元"}},{"type":"Feature","geometry":{"type":"Point","coordinates":[112.45488,37.854557]},"properties":{"full_address":"山西省太原市万柏林区中海国际社区3期（东至红沟路，南至金福苑小区，西至玉门南路，北至安宁街）"}},{"type":"Feature","geometry":{"type":"Point","coordinates":[112.525414,37.734112]},"properties":{"full_address":"山西省太原市晋源区东城角村信鸽协会"}},{"type":"Feature","geometry":{"type":"Point","coordinates":[112.50972,37.723991]},"properties":{"full_address":"山西省太原市晋源区晋阳堡村李大志鸽棚"}},{"type":"Feature","geometry":{"type":"Point","coordinates":[112.49469,37.68869]},"properties":{"full_address":"山西省太原市晋源区北庄头村鸽棚"}},{"type":"Feature","geometry":{"type":"Point","coordinates":[112.541603,37.735931]},"properties":{"full_address":"山西省太原市晋源区庞家寨村羴鲜羊汤馆"}},{"type":"Feature","geometry":{"type":"Point","coordinates":[112.496971,37.741558]},"properties":{"full_address":"山西省太原市晋源区古城营俊清羊汤馆"}},{"type":"Feature","geometry":{"type":"Point","coordinates":[112.50737,37.738213]},"properties":{"full_address":"山西省太原市晋源区东关村邮政快递"}},{"type":"Feature","geometry":{"type":"Point","coordinates":[112.50737,37.738213]},"properties":{"full_address":"山西省太原市晋源区东关村菜鸟驿站"}},{"type":"Feature","geometry":{"type":"Point","coordinates":[112.507378,37.738232]},"properties":{"full_address":"山西省太原市晋源区东关村村委会"}},{"type":"Feature","geometry":{"type":"Point","coordinates":[112.50972,37.723991]},"properties":{"full_address":"山西省太原市晋源区晋阳堡村村委会"}},{"type":"Feature","geometry":{"type":"Point","coordinates":[112.67292,38.05828]},"properties":{"full_address":"山西省太原市阳曲县山西新时代精英赛鸽公棚"}},{"type":"Feature","geometry":{"type":"Point","coordinates":[113.305297,40.066457]},"properties":{"full_address":"山西省大同市平城区阳光绿岛小区2号楼"}},{"type":"Feature","geometry":{"type":"Point","coordinates":[113.282097,40.061829]},"properties":{"full_address":"山西省大同市平城区正德嘉园6号楼"}},{"type":"Feature","geometry":{"type":"Point","coordinates":[113.3435,40.11669]},"properties":{"full_address":"山西省大同市平城区御东学府D13"}},{"type":"Feature","geometry":{"type":"Point","coordinates":[113.285866,40.073589]},"properties":{"full_address":"山西省大同市平城区三医院家属楼3号楼"}},{"type":"Feature","geometry":{"type":"Point","coordinates":[113.321434,40.087147]},"properties":{"full_address":"山西省大同市平城区太阳城二期咩咩食话"}},{"type":"Feature","geometry":{"type":"Point","coordinates":[113.285866,40.073589]},"properties":{"full_address":"山西省大同市平城区三医院家属楼检察院车棚"}},{"type":"Feature","geometry":{"type":"Point","coordinates":[113.319344,40.077728]},"properties":{"full_address":"山西省大同市平城区春晖园11号楼"}},{"type":"Feature","geometry":{"type":"Point","coordinates":[113.306679,40.104378]},"properties":{"full_address":"山西省大同市平城区晋剧院家属院大门口6号楼"}},{"type":"Feature","geometry":{"type":"Point","coordinates":[113.285866,40.073589]},"properties":{"full_address":"山西省大同市平城区三医院家属楼检察院北1楼"}},{"type":"Feature","geometry":{"type":"Point","coordinates":[113.285866,40.073589]},"properties":{"full_address":"山西省大同市平城区三医院家属楼5号楼"}},{"type":"Feature","geometry":{"type":"Point","coordinates":[113.354172,40.094559]},"properties":{"full_address":"山西省大同市平城区大同大学文兴餐厅"}},{"type":"Feature","geometry":{"type":"Point","coordinates":[113.234962,40.04351]},"properties":{"full_address":"山西省大同市平城区大同市第二人民医院院区"}},{"type":"Feature","geometry":{"type":"Point","coordinates":[113.354889,40.09153]},"properties":{"full_address":"山西省大同市平城区大同大学南校区1号区域（如月苑1-4号楼及周围生活、工作区域）"}},{"type":"Feature","geometry":{"type":"Point","coordinates":[113.28452,40.05747]},"properties":{"full_address":"山西省大同市平城区魏都新城C区（5号楼、45号楼）"}},