{"type":"FeatureCollection","features":[{"type":"Feature","geometry":{"type":"Point","coordinates":[127.497957,50.252053]},"properties":{"province":"黑龙江省","city":"黑河市","county":"爱辉区","community":"鹿源春社区金达之家小区中房49号楼","full_address":"黑龙江省黑河市爱辉区鹿源春社区金达之家小区中房49号楼","info":""}},{"type":"Feature","geometry":{"type":"Point","coordinates":[127.529177,50.232449]},"properties":{"province":"黑龙江省","city":"黑河市","county":"爱辉区","community":"武庙屯社区之路佳苑小区4号楼","full_address":"黑龙江省黑河市爱辉区武庙屯社区之路佳苑小区4号楼","info":""}},{"type":"Feature","geometry":{"type":"Point","coordinates":[131.151972,45.256567]},"properties":{"province":"黑龙江省","city":"鸡西市","county":"鸡东县","community":"将蓝天名苑小区22号楼","full_address":"黑龙江省鸡西市鸡东县将蓝天名苑小区22号楼","info":""}},{"type":"Feature","geometry":{"type":"Point","coordinates":[131.13789,45.256]},"properties":{"province":"黑龙江省","city":"鸡西市","county":"鸡东县","community":"乾宏家园小区2号楼","full_address":"黑龙江省鸡西市鸡东县乾宏家园小区2号楼","info":""}},{"type":"Feature","geometry":{"type":"Point","coordinates":[131.154811,45.249153]},"properties":{"province":"黑龙江省","city":"鸡西市","county":"鸡东县","community":"人民医院","full_address":"黑龙江省鸡西市鸡东县人民医院","info":""}},{"type":"Feature","geometry":{"type":"Point","coordinates":[114.119252,22.547019]},"properties":{"province":"广东省","city":"深圳市","county":"罗湖区","community":"东门街道新园路明华广场1至6楼（含6A与M层）商业区","full_address":"广东省深圳市罗湖区东门街道新园路明华广场1至6楼（含6A与M层）商业区","info":""}},{"type":"Feature","geometry":{"type":"Point","coordinates":[114.10934,22.53679]},"properties":{"province":"广东省","city":"深圳市","county":"罗湖区","community":"桂园街道华瑞大厦B座（不含底商）","full_address":"广东省深圳市罗湖区桂园街道华瑞大厦B座（不含底商）","info":""}},{"type":"Feature","geometry":{"type":"Point","coordinates":[114.083756,22.625502]},"properties":{"province":"广东省","city":"深圳市","county":"龙岗区","community":"坂田街道马安堂社区侨联东10巷1号顺兴楼","full_address":"广东省深圳市龙岗区坂田街道马安堂社区侨联东10巷1号顺兴楼","info":""}},{"type":"Feature","geometry":{"type":"Point","coordinates":[114.082577,22.624199]},"properties":{"province":"广东省","city":"深圳市","county":"龙岗区","community":"中兴路高时石材B区A钢构厂房","full_address":"广东省深圳市龙岗区中兴路高时石材B区A钢构厂房","info":""}},{"type":"Feature","geometry":{"type":"Point","coordinates":[106.491013,23.292151]},"properties":{"province":"广西壮族自治区","city":"百色市","county":"德保县","community":"都安乡福记村山金屯","full_address":"广西壮族自治区百色市德保县都安乡福记村山金屯","info":""}},{"type":"Feature","geometry":{"type":"Point","coordinates":[106.61648,23.32016]},"properties":{"province":"广西壮族自治区","city":"百色市","county":"德保县","community":"城关镇隆盛社区盛象名都小区","full_address":"广西壮族自治区百色市德保县城关镇隆盛社区盛象名都小区","info":""}},{"type":"Feature","geometry":{"type":"Point","coordinates":[106.620404,23.320632]},"properties":{"province":"广西壮族自治区","city":"百色市","county":"德保县","community":"城关镇隆盛社区东蒙荣盛二巷25号","full_address":"广西壮族自治区百色市德保县城关镇隆盛社区东蒙荣盛二巷25号","info":""}},{"type":"Feature","geometry":{"type":"Point","coordinates":[106.38482,23.526014]},"properties":{"province":"广西壮族自治区","city":"百色市","county":"德保县","community":"东凌镇登限村念洞屯","full_address":"广西壮族自治区百色市德保县东凌镇登限村念洞屯","info":""}},{"type":"Feature","geometry":{"type":"Point","coordinates":[106.428484,23.270124]},"properties":{"province":"广西壮族自治区","city":"百色市","county":"靖西市","community":"武平镇大道街大定屯","full_address":"广西壮族自治区百色市靖西市武平镇大道街大定屯","info":""}},{"type":"Feature","geometry":{"type":"Point","coordinates":[106.396655,23.29751]},"properties":{"province":"广西壮族自治区","city":"百色市","county":"靖西市","community":"弄贴村新村屯","full_address":"广西壮族自治区百色市靖西市弄贴村新村屯","info":""}},{"type":"Feature","geometry":{"type":"Point","coordinates":[120.344907,40.319465]},"properties":{"province":"辽宁省","city":"葫芦岛市","county":"绥中县","community":"绥中镇工人社区盛华园二期","full_address":"辽宁省葫芦岛市绥中县绥中镇工人社区盛华园二期","info":""}},{"type":"Feature","geometry":{"type":"Point","coordinates":[120.637538,31.787646]},"properties":{"province":"江苏省","city":"苏州市","county":"张家港市","community":"凤凰镇金谷小区18、19幢","full_address":"江苏省苏州市张家港市凤凰镇金谷小区18、19幢","info":""}},{"type":"Feature","geometry":{"type":"Point","coordinates":[120.568943,31.867417]},"properties":{"province":"江苏省","city":"苏州市","county":"张家港市","community":"杨舍镇君临新城6号楼","full_address":"江苏省苏州市张家港市杨舍镇君临新城6号楼","info":""}},{"type":"Feature","geometry":{"type":"Point","coordinates":[120.63542,31.777703]},"properties":{"province":"江苏省","city":"苏州市","county":"张家港市","community":"凤凰镇双龙花园62幢","full_address":"江苏省苏州市张家港市凤凰镇双龙花园62幢","info":""}},{"type":"Feature","geometry":{"type":"Point","coordinates":[120.572049,31.859833]},"properties":{"province":"江苏省","city":"苏州市","county":"张家港市","community":"杨舍镇民丰苑西区","full_address":"江苏省苏州市张家港市杨舍镇民丰苑西区","info":""}},{"type":"Feature","geometry":{"type":"Point","coordinates":[120.563941,31.84355]},"properties":{"province":"江苏省","city":"苏州市","county":"张家港市","community":"杨舍镇新农花苑25幢","full_address":"江苏省苏州市张家港市杨舍镇新农花苑25幢","info":""}},{"type":"Feature","geometry":{"type":"Point","coordinates":[120.57909,31.853624]},"properties":{"province":"江苏省","city":"苏州市","county":"张家港市","community":"杨舍镇新航花苑18幢","full_address":"江苏省苏州市张家港市杨舍镇新航花苑18幢","info":""}},{"type":"Feature","geometry":{"type":"Point","coordinates":[120.578682,31.862393]},"properties":{"province":"江苏省","city":"苏州市","county":"张家港市","community":"杨舍镇金新城悦府7幢","full_address":"江苏省苏州市张家港市杨舍镇金新城悦府7幢","info":""}},{"type":"Feature","geometry":{"type":"Point","coordinates":[120.777641,31.582919]},"properties":{"province":"江苏省","city":"苏州市","county":"常熟市","community":"紫晶城5幢","full_address":"江苏省苏州市常熟市紫晶城5幢","info":""}},{"type":"Feature","geometry":{"type":"Point","coordinates":[120.820394,31.620383]},"properties":{"province":"江苏省","city":"苏州市","county":"常熟市","community":"中欧假日花园9幢","full_address":"江苏省苏州市常熟市中欧假日花园9幢","info":""}},{"type":"Feature","geometry":{"type":"Point","coordinates":[120.632712,30.90228]},"properties":{"province":"江苏省","city":"苏州市","county":"吴江区","community":"盛泽镇绿洲华庭小区41栋","full_address":"江苏省苏州市吴江区盛泽镇绿洲华庭小区41栋","info":""}},{"type":"Feature","geometry":{"type":"Point","coordinates":[120.647442,31.130924]},"properties":{"province":"江苏省","city":"苏州市","county":"吴江区","community":"长安花园21幢","full_address":"江苏省苏州市吴江区长安花园21幢","info":""}},{"type":"Feature","geometry":{"type":"Point","coordinates":[120.662061,31.126891]},"properties":{"province":"江苏省","city":"苏州市","county":"吴江区","community":"长安路2358号吴江科技创业园","full_address":"江苏省苏州市吴江区长安路2358号吴江科技创业园","info":""}},{"type":"Feature","geometry":{"type":"Point","coordinates":[120.660911,31.126684]},"properties":{"province":"江苏省","city":"苏州市","county":"吴江区","community":"江陵街道城南花苑2167幢","full_address":"江苏省苏州市吴江区江陵街道城南花苑2167幢","info":""}},{"type":"Feature","geometry":{"type":"Point","coordinates":[120.671437,31.073208]},"properties":{"province":"江苏省","city":"苏州市","county":"吴江区","community":"八坼街道邮电街23号2幢","full_address":"江苏省苏州市吴江区八坼街道邮电街23号2幢","info":""}},{"type":"Feature","geometry":{"type":"Point","coordinates":[120.682938,31.268953]},"properties":{"province":"江苏省","city":"苏州市","county":"吴中区","community":"郭巷街道独墅湖西金悦花园一期19幢","full_address":"江苏省苏州市吴中区郭巷街道独墅湖西金悦花园一期19幢","info":""}},{"type":"Feature","geometry":{"type":"Point","coordinates":[120.53875,31.2645]},"properties":{"province":"江苏省","city":"苏州市","county":"吴中区","community":"木渎镇沈巷村47~69号","full_address":"江苏省苏州市吴中区木渎镇沈巷村47~69号","info":""}},{"type":"Feature","geometry":{"type":"Point","coordinates":[120.604779,31.244523]},"properties":{"province":"江苏省","city":"苏州市","county":"吴中区","community":"世茂石湖湾花园二期273幢","full_address":"江苏省苏州市吴中区世茂石湖湾花园二期273幢","info":""}},{"type":"Feature","geometry":{"type":"Point","coordinates":[120.609011,31.2245]},"properties":{"province":"江苏省","city":"苏州市","county":"吴中区","community":"水岸清华97幢","full_address":"江苏省苏州市吴中区水岸清华97幢","info":""}},{"type":"Feature","geometry":{"type":"Point","coordinates":[120.773603,31.220586]},"properties":{"province":"江苏省","city":"苏州市","county":"吴中区","community":"甪直镇长巨村下扒浜马娄里172号","full_address":"江苏省苏州市吴中区甪直镇长巨村下扒浜马娄里172号","info":""}},{"type":"Feature","geometry":{"type":"Point","coordinates":[120.619536,31.274762]},"properties":{"province":"江苏省","city":"苏州市","county":"吴中区","community":"龙西新村（箭阙苑）40幢","full_address":"江苏省苏州市吴中区龙西新村（箭阙苑）40幢","info":""}},{"type":"Feature","geometry":{"type":"Point","coordinates":[120.686858,31.246435]},"properties":{"province":"江苏省","city":"苏州市","county":"吴中区","community":"尹山湖景花园三期43幢","full_address":"江苏省苏州市吴中区尹山湖景花园三期43幢","info":""}},{"type":"Feature","geometry":{"type":"Point","coordinates":[120.641813,31.257383]},"properties":{"province":"江苏省","city":"苏州市","county":"吴中区","community":"碧水湾花园60幢","full_address":"江苏省苏州市吴中区碧水湾花园60幢","info":""}},{"type":"Feature","geometry":{"type":"Point","coordinates":[120.676928,31.245189]},"properties":{"province":"江苏省","city":"苏州市","county":"吴中区","community":"碧堤半岛53幢","full_address":"江苏省苏州市吴中区碧堤半岛53幢","info":""}},{"type":"Feature","geometry":{"type":"Point","coordinates":[120.712155,31.245729]},"properties":{"province":"江苏省","city":"苏州市","county":"吴中区","community":"郭巷街道建发独墅湾82幢","full_address":"江苏省苏州市吴中区郭巷街道建发独墅湾82幢","info":""}},{"type":"Feature","geometry":{"type":"Point","coordinates":[120.706606,31.243308]},"properties":{"province":"江苏省","city":"苏州市","county":"吴中区","community":"郭巷街道双湾花园35幢","full_address":"江苏省苏州市吴中区郭巷街道双湾花园35幢","info":""}},{"type":"Feature","geometry":{"type":"Point","coordinates":[120.682068,31.259025]},"properties":{"province":"江苏省","city":"苏州市","county":"吴中区","community":"郭巷街道国泰社区国泰一村105幢","full_address":"江苏省苏州市吴中区郭巷街道国泰社区国泰一村105幢","info":""}},{"type":"Feature","geometry":{"type":"Point","coordinates":[120.677285,31.281061]},"properties":{"province":"江苏省","city":"苏州市","county":"吴中区","community":"郭巷街道塘北社区124号","full_address":"江苏省苏州市吴中区郭巷街道塘北社区124号","info":""}},{"type":"Feature","geometry":{"type":"Point","coordinates":[120.612036,31.39136]},"properties":{"province":"江苏省","city":"苏州市","county":"相城区","community":"苏州万科魅力花园3幢","full_address":"江苏省苏州市相城区苏州万科魅力花园3幢","info":""}},{"type":"Feature","geometry":{"type":"Point","coordinates":[120.647346,31.32677]},"properties":{"province":"江苏省","city":"苏州市","county":"吴中区","community":"官渎社区26幢","full_address":"江苏省苏州市吴中区官渎社区26幢","info":""}},{"type":"Feature","geometry":{"type":"Point","coordinates":[120.611026,31.365436]},"properties":{"province":"江苏省","city":"苏州市","county":"相城区","community":"合景峰汇8期12幢","full_address":"江苏省苏州市相城区合景峰汇8期12幢","info":""}},{"type":"Feature","geometry":{"type":"Point","coordinates":[120.557012,31.305504]},"properties":{"province":"江苏省","city":"苏州市","county":"虎丘区","community":"万宇名都花园5幢","full_address":"江苏省苏州市虎丘区万宇名都花园5幢","info":""}},{"type":"Feature","geometry":{"type":"Point","coordinates":[120.599763,31.514579]},"properties":{"province":"江苏省","city":"苏州市","county":"相城区","community":"北桥街道盛北花园45幢","full_address":"江苏省苏州市相城区北桥街道盛北花园45幢","info":""}},{"type":"Feature","geometry":{"type":"Point","coordinates":[120.606073,31.496359]},"properties":{"province":"江苏省","city":"苏州市","county":"相城区","community":"北桥街道漕韵家园28幢","full_address":"江苏省苏州市相城区北桥街道漕韵家园28幢","info":""}},{"type":"Feature","geometry":{"type":"Point","coordinates":[120.60628,31.269901]},"properties":{"province":"江苏省","city":"苏州市","county":"姑苏区","community":"天辰花园小区18幢","full_address":"江苏省苏州市姑苏区天辰花园小区18幢","info":""}},{"type":"Feature","geometry":{"type":"Point","coordinates":[120.625337,31.283701]},"properties":{"province":"江苏省","city":"苏州市","county":"姑苏区","community":"大竹园3号楼","full_address":"江苏省苏州市姑苏区大竹园3号楼","info":""}},{"type":"Feature","geometry":{"type":"Point","coordinates":[120.641292,31.317396]},"properties":{"province":"江苏省","city":"苏州市","county":"姑苏区","community":"平江街道永林二区","full_address":"江苏省苏州市姑苏区平江街道永林二区","info":""}},{"type":"Feature","geometry":{"type":"Point","coordinates":[120.605112,31.28787]},"properties":{"province":"江苏省","city":"苏州市","county":"姑苏区","community":"胥江路361号（东方苑）1幢","full_address":"江苏省苏州市姑苏区胥江路361号（东方苑）1幢","info":""}},{"type":"Feature","geometry":{"type":"Point","coordinates":[120.607946,31.272768]},"properties":{"province":"江苏省","city":"苏州市","county":"姑苏区","community":"吴门桥街道长欣苑南区4幢","full_address":"江苏省苏州市姑苏区吴门桥街道长欣苑南区4幢","info":""}},{"type":"Feature","geometry":{"type":"Point","coordinates":[120.634243,31.312018]},"properties":{"province":"江苏省","city":"苏州市","county":"姑苏区","community":"平江街道凤池弄5-2号楼","full_address":"江苏省苏州市姑苏区平江街道凤池弄5-2号楼","info":""}},{"type":"Feature","geometry":{"type":"Point","coordinates":[120.731302,31.312094]},"properties":{"province":"江苏省","city":"苏州市","county":"吴中区","community":"工业园区东湖大郡花园二期22幢","full_address":"江苏省苏州市吴中区工业园区东湖大郡花园二期22幢","info":""}},{"type":"Feature","geometry":{"type":"Point","coordinates":[120.732199,31.317205]},"properties":{"province":"江苏省","city":"苏州市","county":"吴中区","community":"东城郡115幢","full_address":"江苏省苏州市吴中区东城郡115幢","info":""}},{"type":"Feature","geometry":{"type":"Point","coordinates":[120.738641,31.303093]},"properties":{"province":"江苏省","city":"苏州市","county":"吴中区","community":"斜塘老街12号","full_address":"江苏省苏州市吴中区斜塘老街12号","info":""}},{"type":"Feature","geometry":{"type":"Point","coordinates":[120.769361,31.299177]},"properties":{"province":"江苏省","city":"苏州市","county":"吴中区","community":"澜溪苑18幢","full_address":"江苏省苏州市吴中区澜溪苑18幢","info":""}},{"type":"Feature","geometry":{"type":"Point","coordinates":[120.764776,31.306804]},"properties":{"province":"江苏省","city":"苏州市","county":"吴中区","community":"锦溪苑26幢","full_address":"江苏省苏州市吴中区锦溪苑26幢","info":""}},{"type":"Feature","geometry":{"type":"Point","coordinates":[120.765032,31.313869]},"properties":{"province":"江苏省","city":"苏州市","county":"吴中区","community":"京隆生活区","full_address":"江苏省苏州市吴中区京隆生活区","info":""}},{"type":"Feature","geometry":{"type":"Point","coordinates":[120.820277,31.30221]},"properties":{"province":"江苏省","city":"苏州市","county":"吴中区","community":"星胜客11幢","full_address":"江苏省苏州市吴中区星胜客11幢","info":""}},{"type":"Feature","geometry":{"type":"Point","coordinates":[120.769118,31.30427]},"properties":{"province":"江苏省","city":"苏州市","county":"吴中区","community":"凤凰城49幢","full_address":"江苏省苏州市吴中区凤凰城49幢","info":""}},{"type":"Feature","geometry":{"type":"Point","coordinates":[120.827333,31.333513]},"properties":{"province":"江苏省","city":"苏州市","county":"吴中区","community":"明日之星1幢","full_address":"江苏省苏州市吴中区明日之星1幢","info":""}},{"type":"Feature","geometry":{"type":"Point","coordinates":[120.737442,31.317069]},"properties":{"province":"江苏省","city":"苏州市","county":"吴中区","community":"湖畔天城花园16幢","full_address":"江苏省苏州市吴中区湖畔天城花园16幢","info":""}},{"type":"Feature","geometry":{"type":"Point","coordinates":[120.655193,31.300578]},"properties":{"province":"江苏省","city":"苏州市","county":"吴中区","community":"夏家桥118号9幢","full_address":"江苏省苏州市吴中区夏家桥118号9幢","info":""}},{"type":"Feature","geometry":{"type":"Point","coordinates":[120.543474,31.863315]},"properties":{"province":"江苏省","city":"苏州市","county":"张家港市","community":"花语江南20幢","full_address":"江苏省苏州市张家港市花语江南20幢","info":""}},{"type":"Feature","geometry":{"type":"Point","coordinates":[120.724927,31.307636]},"properties":{"province":"江苏省","city":"苏州市","county":"吴中区","community":"南山·丽舍40幢","full_address":"江苏省苏州市吴中区南山·丽舍40幢","info":""}},{"type":"Feature","geometry":{"type":"Point","coordinates":[120.798831,31.307847]},"properties":{"province":"江苏省","city":"苏州市","county":"吴中区","community":"阳浦路150号1幢","full_address":"江苏省苏州市吴中区阳浦路150号1幢","info":""}},{"type":"Feature","geometry":{"type":"Point","coordinates":[120.772269,31.301162]},"properties":{"province":"江苏省","city":"苏州市","county":"吴中区","community":"文华公寓4号楼","full_address":"江苏省苏州市吴中区文华公寓4号楼","info":""}},{"type":"Feature","geometry":{"type":"Point","coordinates":[120.730928,31.330875]},"properties":{"province":"江苏省","city":"苏州市","county":"吴中区","community":"绿地·华尔道名邸小区","full_address":"江苏省苏州市吴中区绿地·华尔道名邸小区","info":""}},{"type":"Feature","geometry":{"type":"Point","coordinates":[120.761911,31.302289]},"properties":{"province":"江苏省","city":"苏州市","county":"吴中区","community":"锦溪苑5期4幢","full_address":"江苏省苏州市吴中区锦溪苑5期4幢","info":""}},{"type":"Feature","geometry":{"type":"Point","coordinates":[117.537741,49.580289]},"properties":{"province":"内蒙古自治区","city":"呼伦贝尔市","county":"满洲里市","community":"南区街道","full_address":"内蒙古自治区呼伦贝尔市满洲里市南区街道","info":""}},{"type":"Feature","geometry":{"type":"Point","coordinates":[111.668289,40.856504]},"properties":{"province":"内蒙古自治区","city":"呼和浩特市","county":"新城区","community":"成吉思汗街道东河社区","full_address":"内蒙古自治区呼和浩特市新城区成吉思汗街道东河社区","info":""}},{"type":"Feature","geometry":{"type":"Point","coordinates":[111.655903,40.865745]},"properties":{"province":"内蒙古自治区","city":"呼和浩特市","county":"新城区","community":"代洲营村","full_address":"内蒙古自治区呼和浩特市新城区代洲营村","info":""}},{"type":"Feature","geometry":{"type":"Point","coordinates":[111.74794,40.920707]},"properties":{"province":"内蒙古自治区","city":"呼和浩特市","county":"新城区","community":"哈拉更村","full_address":"内蒙古自治区呼和浩特市新城区哈拉更村","info":""}},{"type":"Feature","geometry":{"type":"Point","coordinates":[111.682087,40.877234]},"properties":{"province":"内蒙古自治区","city":"呼和浩特市","county":"新城区","community":"上新营村","full_address":"内蒙古自治区呼和浩特市新城区上新营村","info":""}},{"type":"Feature","geometry":{"type":"Point","coordinates":[111.684188,40.853474]},"properties":{"province":"内蒙古自治区","city":"呼和浩特市","county":"新城区","community":"苏雅拉社区","full_address":"内蒙古自治区呼和浩特市新城区苏雅拉社区","info":""}},{"type":"Feature","geometry":{"type":"Point","coordinates":[111.460001,41.09621]},"properties":{"province":"内蒙古自治区","city":"呼和浩特市","county":"武川县","community":"北苑社区","full_address":"内蒙古自治区呼和浩特市武川县北苑社区","info":""}},{"type":"Feature","geometry":{"type":"Point","coordinates":[111.704516,40.84414]},"properties":{"province":"内蒙古自治区","city":"呼和浩特市","county":"新城区","community":"东风路街道丽苑社区","full_address":"内蒙古自治区呼和浩特市新城区东风路街道丽苑社区","info":""}},{"type":"Feature","geometry":{"type":"Point","coordinates":[111.714515,40.838695]},"properties":{"province":"内蒙古自治区","city":"呼和浩特市","county":"新城区","community":"芳汀花园社区","full_address":"内蒙古自治区呼和浩特市新城区芳汀花园社区","info":""}},{"type":"Feature","geometry":{"type":"Point","coordinates":[111.710304,40.840901]},"properties":{"province":"内蒙古自治区","city":"呼和浩特市","county":"新城区","community":"祥园社区","full_address":"内蒙古自治区呼和浩特市新城区祥园社区","info":""}},{"type":"Feature","geometry":{"type":"Point","coordinates":[111.709294,40.835767]},"properties":{"province":"内蒙古自治区","city":"呼和浩特市","county":"新城区","community":"东影北街社区","full_address":"内蒙古自治区呼和浩特市新城区东影北街社区","info":""}},{"type":"Feature","geometry":{"type":"Point","coordinates":[111.70792,40.840951]},"properties":{"province":"内蒙古自治区","city":"呼和浩特市","county":"新城区","community":"海东路社区","full_address":"内蒙古自治区呼和浩特市新城区海东路社区","info":""}},{"type":"Feature","geometry":{"type":"Point","coordinates":[111.686589,40.822857]},"properties":{"province":"内蒙古自治区","city":"呼和浩特市","county":"新城区","community":"西街街道西落凤社区","full_address":"内蒙古自治区呼和浩特市新城区西街街道西落凤社区","info":""}},{"type":"Feature","geometry":{"type":"Point","coordinates":[111.460001,41.09621]},"properties":{"province":"内蒙古自治区","city":"呼和浩特市","county":"武川县","community":"艺术厅北苑社区","full_address":"内蒙古自治区呼和浩特市武川县艺术厅北苑社区","info":""}},{"type":"Feature","geometry":{"type":"Point","coordinates":[111.652749,40.848787]},"properties":{"province":"内蒙古自治区","city":"呼和浩特市","county":"新城区","community":"海拉尔路街道府兴社区","full_address":"内蒙古自治区呼和浩特市新城区海拉尔路街道府兴社区","info":""}},{"type":"Feature","geometry":{"type":"Point","coordinates":[111.730727,40.838031]},"properties":{"province":"内蒙古自治区","city":"呼和浩特市","county":"新城区","community":"迎新路街道新春社区","full_address":"内蒙古自治区呼和浩特市新城区迎新路街道新春社区","info":""}},{"type":"Feature","geometry":{"type":"Point","coordinates":[111.644745,40.803819]},"properties":{"province":"内蒙古自治区","city":"呼和浩特市","county":"回民区","community":"环河街街道县府街社区","full_address":"内蒙古自治区呼和浩特市回民区环河街街道县府街社区","info":""}},{"type":"Feature","geometry":{"type":"Point","coordinates":[111.637865,40.807839]},"properties":{"province":"内蒙古自治区","city":"呼和浩特市","county":"回民区","community":"巴彦南路社区","full_address":"内蒙古自治区呼和浩特市回民区巴彦南路社区","info":""}},{"type":"Feature","geometry":{"type":"Point","coordinates":[111.611943,40.825538]},"properties":{"province":"内蒙古自治区","city":"呼和浩特市","county":"回民区","community":"攸攸板镇攸攸板村","full_address":"内蒙古自治区呼和浩特市回民区攸攸板镇攸攸板村","info":""}},{"type":"Feature","geometry":{"type":"Point","coordinates":[111.376874,40.31455]},"properties":{"province":"内蒙古自治区","city":"呼和浩特市","county":"托克托县","community":"一间房村","full_address":"内蒙古自治区呼和浩特市托克托县一间房村","info":""}},{"type":"Feature","geometry":{"type":"Point","coordinates":[111.830233,40.861443]},"properties":{"province":"内蒙古自治区","city":"呼和浩特市","county":"赛罕区","community":"巴彦树贵社区","full_address":"内蒙古自治区呼和浩特市赛罕区巴彦树贵社区","info":""}},{"type":"Feature","geometry":{"type":"Point","coordinates":[111.545456,40.811158]},"properties":{"province":"内蒙古自治区","city":"呼和浩特市","county":"回民区","community":"东鹏子村","full_address":"内蒙古自治区呼和浩特市回民区东鹏子村","info":""}},{"type":"Feature","geometry":{"type":"Point","coordinates":[111.610123,40.797194]},"properties":{"province":"内蒙古自治区","city":"呼和浩特市","county":"回民区","community":"孔家营社区","full_address":"内蒙古自治区呼和浩特市回民区孔家营社区","info":""}},{"type":"Feature","geometry":{"type":"Point","coordinates":[111.218943,40.659545]},"properties":{"province":"内蒙古自治区","city":"呼和浩特市","county":"土默特左旗","community":"倘不浪社区","full_address":"内蒙古自治区呼和浩特市土默特左旗倘不浪社区","info":""}},{"type":"Feature","geometry":{"type":"Point","coordinates":[111.620259,40.812884]},"properties":{"province":"内蒙古自治区","city":"呼和浩特市","county":"回民区","community":"钢铁路街道咱家社区","full_address":"内蒙古自治区呼和浩特市回民区钢铁路街道咱家社区","info":""}},{"type":"Feature","geometry":{"type":"Point","coordinates":[111.673557,40.784284]},"properties":{"province":"内蒙古自治区","city":"呼和浩特市","county":"玉泉区","community":"兴隆巷街道四里营东社区","full_address":"内蒙古自治区呼和浩特市玉泉区兴隆巷街道四里营东社区","info":""}},{"type":"Feature","geometry":{"type":"Point","coordinates":[111.617723,40.753108]},"properties":{"province":"内蒙古自治区","city":"呼和浩特市","county":"玉泉区","community":"小黑河镇祥和苑社区","full_address":"内蒙古自治区呼和浩特市玉泉区小黑河镇祥和苑社区","info":""}},{"type":"Feature","geometry":{"type":"Point","coordinates":[111.623604,40.762705]},"properties":{"province":"内蒙古自治区","city":"呼和浩特市","county":"玉泉区","community":"鑫盛社区","full_address":"内蒙古自治区呼和浩特市玉泉区鑫盛社区","info":""}},{"type":"Feature","geometry":{"type":"Point","coordinates":[111.676027,40.799583]},"properties":{"province":"内蒙古自治区","city":"呼和浩特市","county":"玉泉区","community":"石东路街道苁蓉社区","full_address":"内蒙古自治区呼和浩特市玉泉区石东路街道苁蓉社区","info":""}},{"type":"Feature","geometry":{"type":"Point","coordinates":[111.671726,40.797209]},"properties":{"province":"内蒙古自治区","city":"呼和浩特市","county":"玉泉区","community":"迎春社区","full_address":"内蒙古自治区呼和浩特市玉泉区迎春社区","info":""}},{"type":"Feature","geometry":{"type":"Point","coordinates":[111.678508,40.793067]},"properties":{"province":"内蒙古自治区","city":"呼和浩特市","county":"玉泉区","community":"三里营东社区","full_address":"内蒙古自治区呼和浩特市玉泉区三里营东社区","info":""}},{"type":"Feature","geometry":{"type":"Point","coordinates":[111.460001,41.09621]},"properties":{"province":"内蒙古自治区","city":"呼和浩特市","county":"武川县","community":"康乐社区","full_address":"内蒙古自治区呼和浩特市武川县康乐社区","info":""}},{"type":"Feature","geometry":{"type":"Point","coordinates":[111.628127,40.795094]},"properties":{"province":"内蒙古自治区","city":"呼和浩特市","county":"回民区","community":"鄂尔多斯路街道蓝宇社区","full_address":"内蒙古自治区呼和浩特市回民区鄂尔多斯路街道蓝宇社区","info":""}},{"type":"Feature","geometry":{"type":"Point","coordinates":[111.605643,40.789466]},"properties":{"province":"内蒙古自治区","city":"呼和浩特市","county":"玉泉区","community":"华宇社区","full_address":"内蒙古自治区呼和浩特市玉泉区华宇社区","info":""}},{"type":"Feature","geometry":{"type":"Point","coordinates":[111.611167,40.772408]},"properties":{"province":"内蒙古自治区","city":"呼和浩特市","county":"玉泉区","community":"前八里庄村","full_address":"内蒙古自治区呼和浩特市玉泉区前八里庄村","info":""}},{"type":"Feature","geometry":{"type":"Point","coordinates":[111.651922,40.790117]},"properties":{"province":"内蒙古自治区","city":"呼和浩特市","county":"玉泉区","community":"长和廊街道菩提塔西社区","full_address":"内蒙古自治区呼和浩特市玉泉区长和廊街道菩提塔西社区","info":""}},{"type":"Feature","geometry":{"type":"Point","coordinates":[111.642583,40.791462]},"properties":{"province":"内蒙古自治区","city":"呼和浩特市","county":"玉泉区","community":"西菜园街道西苑社区","full_address":"内蒙古自治区呼和浩特市玉泉区西菜园街道西苑社区","info":""}},{"type":"Feature","geometry":{"type":"Point","coordinates":[111.608513,40.758209]},"properties":{"province":"内蒙古自治区","city":"呼和浩特市","county":"玉泉区","community":"昭君路街道小黑河社区","full_address":"内蒙古自治区呼和浩特市玉泉区昭君路街道小黑河社区","info":""}},{"type":"Feature","geometry":{"type":"Point","coordinates":[111.735642,40.796151]},"properties":{"province":"内蒙古自治区","city":"呼和浩特市","county":"赛罕区","community":"昭乌达南路街道小台什社区","full_address":"内蒙古自治区呼和浩特市赛罕区昭乌达南路街道小台什社区","info":""}},{"type":"Feature","geometry":{"type":"Point","coordinates":[111.460001,41.09621]},"properties":{"province":"内蒙古自治区","city":"呼和浩特市","county":"武川县","community":"锦绣社区","full_address":"内蒙古自治区呼和浩特市武川县锦绣社区","info":""}},{"type":"Feature","geometry":{"type":"Point","coordinates":[111.677004,40.768652]},"properties":{"province":"内蒙古自治区","city":"呼和浩特市","county":"玉泉区","community":"万锦社区","full_address":"内蒙古自治区呼和浩特市玉泉区万锦社区","info":""}},{"type":"Feature","geometry":{"type":"Point","coordinates":[111.434867,40.738605]},"properties":{"province":"内蒙古自治区","city":"呼和浩特市","county":"土默特左旗","community":"敕勒川街道怡水园社区","full_address":"内蒙古自治区呼和浩特市土默特左旗敕勒川街道怡水园社区","info":""}},{"type":"Feature","geometry":{"type":"Point","coordinates":[111.787644,40.830612]},"properties":{"province":"内蒙古自治区","city":"呼和浩特市","county":"赛罕区","community":"前不塔气","full_address":"内蒙古自治区呼和浩特市赛罕区前不塔气","info":""}},{"type":"Feature","geometry":{"type":"Point","coordinates":[111.76546,40.811704]},"properties":{"province":"内蒙古自治区","city":"呼和浩特市","county":"赛罕区","community":"香格里社区","full_address":"内蒙古自治区呼和浩特市赛罕区香格里社区","info":""}},{"type":"Feature","geometry":{"type":"Point","coordinates":[111.844242,40.899113]},"properties":{"province":"内蒙古自治区","city":"呼和浩特市","county":"赛罕区","community":"巴彦镇学苑社区","full_address":"内蒙古自治区呼和浩特市赛罕区巴彦镇学苑社区","info":""}},{"type":"Feature","geometry":{"type":"Point","coordinates":[111.725512,40.824324]},"properties":{"province":"内蒙古自治区","city":"呼和浩特市","county":"赛罕区","community":"中专路街道园艺所社区","full_address":"内蒙古自治区呼和浩特市赛罕区中专路街道园艺所社区","info":""}},{"type":"Feature","geometry":{"type":"Point","coordinates":[111.767071,40.85764]},"properties":{"province":"内蒙古自治区","city":"呼和浩特市","county":"新城区","community":"创业社区","full_address":"内蒙古自治区呼和浩特市新城区创业社区","info":""}},{"type":"Feature","geometry":{"type":"Point","coordinates":[111.735581,40.831337]},"properties":{"province":"内蒙古自治区","city":"呼和浩特市","county":"赛罕区","community":"万达社区","full_address":"内蒙古自治区呼和浩特市赛罕区万达社区","info":""}},{"type":"Feature","geometry":{"type":"Point","coordinates":[111.706432,40.829107]},"properties":{"province":"内蒙古自治区","city":"呼和浩特市","county":"赛罕区","community":"乌兰察布路街道长乐宫社区","full_address":"内蒙古自治区呼和浩特市赛罕区乌兰察布路街道长乐宫社区","info":""}},{"type":"Feature","geometry":{"type":"Point","coordinates":[111.713255,40.830047]},"properties":{"province":"内蒙古自治区","city":"呼和浩特市","county":"赛罕区","community":"军区第三干休所社区","full_address":"内蒙古自治区呼和浩特市赛罕区军区第三干休所社区","info":""}},{"type":"Feature","geometry":{"type":"Point","coordinates":[111.702607,40.828683]},"properties":{"province":"内蒙古自治区","city":"呼和浩特市","county":"赛罕区","community":"武警社区","full_address":"内蒙古自治区呼和浩特市赛罕区武警社区","info":""}},{"type":"Feature","geometry":{"type":"Point","coordinates":[111.709585,40.823343]},"properties":{"province":"内蒙古自治区","city":"呼和浩特市","county":"赛罕区","community":"先锋社区","full_address":"内蒙古自治区呼和浩特市赛罕区先锋社区","info":""}},{"type":"Feature","geometry":{"type":"Point","coordinates":[111.720441,40.818151]},"properties":{"province":"内蒙古自治区","city":"呼和浩特市","county":"赛罕区","community":"昭乌达路街道天野社区","full_address":"内蒙古自治区呼和浩特市赛罕区昭乌达路街道天野社区","info":""}},{"type":"Feature","geometry":{"type":"Point","coordinates":[112.070896,40.936601]},"properties":{"province":"内蒙古自治区","city":"呼和浩特市","county":"赛罕区","community":"榆林镇东干丈村","full_address":"内蒙古自治区呼和浩特市赛罕区榆林镇东干丈村","info":""}},{"type":"Feature","geometry":{"type":"Point","coordinates":[111.623499,40.746316]},"properties":{"province":"内蒙古自治区","city":"呼和浩特市","county":"玉泉区","community":"土左旗白庙子镇瓦房院新村","full_address":"内蒙古自治区呼和浩特市玉泉区土左旗白庙子镇瓦房院新村","info":""}},{"type":"Feature","geometry":{"type":"Point","coordinates":[111.589987,40.696379]},"properties":{"province":"内蒙古自治区","city":"呼和浩特市","county":"土默特左旗","community":"碱房村","full_address":"内蒙古自治区呼和浩特市土默特左旗碱房村","info":""}},{"type":"Feature","geometry":{"type":"Point","coordinates":[111.581331,40.679075]},"properties":{"province":"内蒙古自治区","city":"呼和浩特市","county":"土默特左旗","community":"东坝什村","full_address":"内蒙古自治区呼和浩特市土默特左旗东坝什村","info":""}},{"type":"Feature","geometry":{"type":"Point","coordinates":[111.47375,40.761052]},"properties":{"province":"内蒙古自治区","city":"呼和浩特市","county":"土默特左旗","community":"敕勒川乳业开发区易购城","full_address":"内蒙古自治区呼和浩特市土默特左旗敕勒川乳业开发区易购城","info":""}},{"type":"Feature","geometry":{"type":"Point","coordinates":[111.720441,40.818151]},"properties":{"province":"内蒙古自治区","city":"呼和浩特市","county":"赛罕区","community":"金海街道金华社区","full_address":"内蒙古自治区呼和浩特市赛罕区金海街道金华社区","info":""}},{"type":"Feature","geometry":{"type":"Point","coordinates":[111.562164,40.782977]},"properties":{"province":"内蒙古自治区","city":"呼和浩特市","county":"土默特左旗","community":"友谊馨居小区","full_address":"内蒙古自治区呼和浩特市土默特左旗友谊馨居小区","info":""}},{"type":"Feature","geometry":{"type":"Point","coordinates":[111.572055,40.788794]},"properties":{"province":"内蒙古自治区","city":"呼和浩特市","county":"土默特左旗","community":"台阁牧镇三间房村","full_address":"内蒙古自治区呼和浩特市土默特左旗台阁牧镇三间房村","info":""}},{"type":"Feature","geometry":{"type":"Point","coordinates":[111.7921,40.47854]},"properties":{"province":"内蒙古自治区","city":"呼和浩特市","county":"和林格尔县","community":"和林县经济开发区第一农场","full_address":"内蒙古自治区呼和浩特市和林格尔县和林县经济开发区第一农场","info":""}},{"type":"Feature","geometry":{"type":"Point","coordinates":[111.465383,41.087858]},"properties":{"province":"内蒙古自治区","city":"呼和浩特市","county":"武川县","community":"可镇滨河社区","full_address":"内蒙古自治区呼和浩特市武川县可镇滨河社区","info":""}},{"type":"Feature","geometry":{"type":"Point","coordinates":[111.308665,41.186564]},"properties":{"province":"内蒙古自治区","city":"呼和浩特市","county":"武川县","community":"上秃亥乡刘家村","full_address":"内蒙古自治区呼和浩特市武川县上秃亥乡刘家村","info":""}},{"type":"Feature","geometry":{"type":"Point","coordinates":[109.835468,40.658533]},"properties":{"province":"内蒙古自治区","city":"包头市","county":"昆都仑区","community":"阿尔丁街道熙华公寓","full_address":"内蒙古自治区包头市昆都仑区阿尔丁街道熙华公寓","info":""}},{"type":"Feature","geometry":{"type":"Point","coordinates":[109.803199,40.661107]},"properties":{"province":"内蒙古自治区","city":"包头市","county":"昆都仑区","community":"前进街道钢铁大街37号街坊","full_address":"内蒙古自治区包头市昆都仑区前进街道钢铁大街37号街坊","info":""}},{"type":"Feature","geometry":{"type":"Point","coordinates":[109.807123,40.655069]},"properties":{"province":"内蒙古自治区","city":"包头市","county":"昆都仑区","community":"白云街道华丰园小区","full_address":"内蒙古自治区包头市昆都仑区白云街道华丰园小区","info":""}},{"type":"Feature","geometry":{"type":"Point","coordinates":[109.842412,40.649287]},"properties":{"province":"内蒙古自治区","city":"包头市","county":"昆都仑区","community":"市府东路街道恩和小区3区","full_address":"内蒙古自治区包头市昆都仑区市府东路街道恩和小区3区","info":""}},{"type":"Feature","geometry":{"type":"Point","coordinates":[109.833067,40.663478]},"properties":{"province":"内蒙古自治区","city":"包头市","county":"昆都仑区","community":"阿尔丁街道佳园小区老干院","full_address":"内蒙古自治区包头市昆都仑区阿尔丁街道佳园小区老干院","info":""}},{"type":"Feature","geometry":{"type":"Point","coordinates":[109.844626,40.652896]},"properties":{"province":"内蒙古自治区","city":"包头市","county":"昆都仑区","community":"锡华世纪花园小区玫瑰苑","full_address":"内蒙古自治区包头市昆都仑区锡华世纪花园小区玫瑰苑","info":""}},{"type":"Feature","geometry":{"type":"Point","coordinates":[111.39663,41.321062]},"properties":{"province":"内蒙古自治区","city":"包头市","county":"达尔罕茂明安联合旗","community":"达茂联合旗小文公乡腮林忽洞村","full_address":"内蒙古自治区包头市达尔罕茂明安联合旗达茂联合旗小文公乡腮林忽洞村","info":""}},{"type":"Feature","geometry":{"type":"Point","coordinates":[104.955526,23.217932]},"properties":{"province":"云南省","city":"文山壮族苗族自治州","county":"文山市","community":"自治州麻栗坡县杨万乡哪都村委会达干村小组","full_address":"云南省文山壮族苗族自治州文山市自治州麻栗坡县杨万乡哪都村委会达干村小组","info":""}},{"type":"Feature","geometry":{"type":"Point","coordinates":[103.96027,22.508891]},"properties":{"province":"云南省","city":"红河哈尼族彝族自治州","county":"河口瑶族自治县","community":"河口县河口农场23队","full_address":"云南省红河哈尼族彝族自治州河口瑶族自治县河口县河口农场23队","info":""}},{"type":"Feature","geometry":{"type":"Point","coordinates":[104.073953,30.524279]},"properties":{"province":"四川省","city":"成都市","county":"双流区","community":"高新区中和街道长城馨苑小区，石羊街道天府世家小区","full_address":"四川省成都市双流区高新区中和街道长城馨苑小区，石羊街道天府世家小区","info":""}},{"type":"Feature","geometry":{"type":"Point","coordinates":[104.065378,30.559404]},"properties":{"province":"四川省","city":"成都市","county":"武侯区","community":"桂溪街道世龙公馆，中和街道中德世邦和庭（原中德K区）1栋","full_address":"四川省成都市武侯区桂溪街道世龙公馆，中和街道中德世邦和庭（原中德K区）1栋","info":""}},{"type":"Feature","geometry":{"type":"Point","coordinates":[104.065378,30.559404]},"properties":{"province":"四川省","city":"成都市","county":"武侯区","community":"桂溪街道世龙公馆，中和街道中德世邦和庭（原中德K区）7栋","full_address":"四川省成都市武侯区桂溪街道世龙公馆，中和街道中德世邦和庭（原中德K区）7栋","info":""}},{"type":"Feature","geometry":{"type":"Point","coordinates":[104.065378,30.559404]},"properties":{"province":"四川省","city":"成都市","county":"武侯区","community":"桂溪街道世龙公馆，中和街道中德世邦和庭（原中德K区）8栋","full_address":"四川省成都市武侯区桂溪街道世龙公馆，中和街道中德世邦和庭（原中德K区）8栋","info":""}},{"type":"Feature","geometry":{"type":"Point","coordinates":[103.869829,30.688463]},"properties":{"province":"四川省","city":"成都市","county":"温江区","community":"公平街道佳兆业·丽晶公馆小区","full_address":"四川省成都市温江区公平街道佳兆业·丽晶公馆小区","info":""}},{"type":"Feature","geometry":{"type":"Point","coordinates":[104.089404,30.695611]},"properties":{"province":"四川省","city":"成都市","county":"金牛区","community":"驷马桥街道沙河云景湾小区","full_address":"四川省成都市金牛区驷马桥街道沙河云景湾小区","info":""}},{"type":"Feature","geometry":{"type":"Point","coordinates":[104.417289,30.848759]},"properties":{"province":"四川省","city":"成都市","county":"金堂县","community":"赵镇街道生态水城澜岸小区","full_address":"四川省成都市金堂县赵镇街道生态水城澜岸小区","info":""}},{"type":"Feature","geometry":{"type":"Point","coordinates":[104.06829,30.514166]},"properties":{"province":"四川省","city":"成都市","county":"双流区","community":"天府新区华阳街道龙河社区凯华丽景小区","full_address":"四川省成都市双流区天府新区华阳街道龙河社区凯华丽景小区","info":""}},{"type":"Feature","geometry":{"type":"Point","coordinates":[104.053255,30.532628]},"properties":{"province":"四川省","city":"成都市","county":"双流区","community":"伏龙社区丽景苑小区","full_address":"四川省成都市双流区伏龙社区丽景苑小区","info":""}},{"type":"Feature","geometry":{"type":"Point","coordinates":[104.066877,30.514909]},"properties":{"province":"四川省","city":"成都市","county":"双流区","community":"四河社区四河小区","full_address":"四川省成都市双流区四河社区四河小区","info":""}},{"type":"Feature","geometry":{"type":"Point","coordinates":[114.300354,30.54896]},"properties":{"province":"湖北省","city":"武汉市","county":"武昌区","community":"中华路街道凯莱熙酒店户部巷店","full_address":"湖北省武汉市武昌区中华路街道凯莱熙酒店户部巷店","info":""}},{"type":"Feature","geometry":{"type":"Point","coordinates":[114.300128,30.597212]},"properties":{"province":"湖北省","city":"武汉市","county":"江岸区","community":"车站街道华清园小区4栋","full_address":"湖北省武汉市江岸区车站街道华清园小区4栋","info":""}},{"type":"Feature","geometry":{"type":"Point","coordinates":[114.300744,30.646821]},"properties":{"province":"湖北省","city":"武汉市","county":"江岸区","community":"后湖街道同鑫花园小区29栋","full_address":"湖北省武汉市江岸区后湖街道同鑫花园小区29栋","info":""}},{"type":"Feature","geometry":{"type":"Point","coordinates":[114.408425,30.491178]},"properties":{"province":"湖北省","city":"武汉市","county":"洪山区","community":"东湖高新区关东街道保利时代天悦小区28栋","full_address":"湖北省武汉市洪山区东湖高新区关东街道保利时代天悦小区28栋","info":""}},{"type":"Feature","geometry":{"type":"Point","coordinates":[114.37345,30.619324]},"properties":{"province":"湖北省","city":"武汉市","county":"青山区","community":"红卫路街道58街坊127门","full_address":"湖北省武汉市青山区红卫路街道58街坊127门","info":""}}]}