{"type":"FeatureCollection","features":[{"type":"Feature","geometry":{"type":"Point","coordinates":[116.290644,39.95434]},"properties":{"full_address":"北京市海淀区曙光街道鲁园上河村小区三区1号楼"}},{"type":"Feature","geometry":{"type":"Point","coordinates":[117.263592,39.05356]},"properties":{"full_address":"天津市天津市河西区东海街桂江里2、4、6、8、10、12、59、88、90门"}},{"type":"Feature","geometry":{"type":"Point","coordinates":[117.141753,39.096793]},"properties":{"full_address":"天津市天津市南开区王顶堤街堤北里小区14号楼4、5门"}},{"type":"Feature","geometry":{"type":"Point","coordinates":[117.173024,39.114323]},"properties":{"full_address":"天津市天津市南开区万兴街天大北五村小区11号楼1门"}},{"type":"Feature","geometry":{"type":"Point","coordinates":[117.319064,39.089937]},"properties":{"full_address":"天津市天津市东丽区张贵庄街振华东里1号楼2单元"}},{"type":"Feature","geometry":{"type":"Point","coordinates":[117.071937,39.142309]},"properties":{"full_address":"天津市天津市西青区中北镇中北工业园生活服务区2号楼2门"}},{"type":"Feature","geometry":{"type":"Point","coordinates":[117.277327,39.049641]},"properties":{"full_address":"天津市天津市津南区双林街津铁惠苑南区19号楼、22号楼、23号楼"}},{"type":"Feature","geometry":{"type":"Point","coordinates":[121.415385,31.240225]},"properties":{"full_address":"上海市上海市普陀区曹杨新村街道曹杨路710弄"}},{"type":"Feature","geometry":{"type":"Point","coordinates":[121.33,31.488066]},"properties":{"full_address":"上海市上海市宝山区罗泾镇潘新路118弄宝通家园西区（7号-115号）"}},{"type":"Feature","geometry":{"type":"Point","coordinates":[121.62745,31.11206]},"properties":{"full_address":"上海市上海市浦东新区周浦镇忘忧路135弄梧桐国际公寓（1-5号）"}},{"type":"Feature","geometry":{"type":"Point","coordinates":[121.315067,31.014986]},"properties":{"full_address":"上海市上海市松江区车墩镇大官塘路180弄松南城善德苑"}},{"type":"Feature","geometry":{"type":"Point","coordinates":[121.397,28.5636]},"properties":{"full_address":"浙江省台州市路桥区蓬街镇吉华盛超市附近河南滋补烩面店"}},{"type":"Feature","geometry":{"type":"Point","coordinates":[121.530258,28.568225]},"properties":{"full_address":"浙江省台州市台州湾新区滨海工业园区浙江万通重工有限公司"}},{"type":"Feature","geometry":{"type":"Point","coordinates":[117.368151,32.916322]},"properties":{"full_address":"安徽省蚌埠市蚌山区新地城市广场二期"}},{"type":"Feature","geometry":{"type":"Point","coordinates":[117.238981,33.097595]},"properties":{"full_address":"安徽省蚌埠市怀远县魏庄镇全域"}},{"type":"Feature","geometry":{"type":"Point","coordinates":[115.435744,35.24935]},"properties":{"full_address":"山东省菏泽市牡丹区西城街道翰林豪庭小区"}},{"type":"Feature","geometry":{"type":"Point","coordinates":[115.415167,35.240071]},"properties":{"full_address":"山东省菏泽市牡丹区西城街道景韵苑小区"}},{"type":"Feature","geometry":{"type":"Point","coordinates":[115.393708,35.201834]},"properties":{"full_address":"山东省菏泽市牡丹区何楼街道武寺村"}},{"type":"Feature","geometry":{"type":"Point","coordinates":[115.446667,35.226161]},"properties":{"full_address":"山东省菏泽市牡丹区南城街道成阳小区"}},{"type":"Feature","geometry":{"type":"Point","coordinates":[115.419928,35.251725]},"properties":{"full_address":"山东省菏泽市牡丹区西城街道奥斯卡春城"}},{"type":"Feature","geometry":{"type":"Point","coordinates":[115.437493,35.247879]},"properties":{"full_address":"山东省菏泽市牡丹区济世医院西100米鲜鸡蛋批发超市"}},{"type":"Feature","geometry":{"type":"Point","coordinates":[115.474338,35.263482]},"properties":{"full_address":"山东省菏泽市牡丹区东城街道东翼公园印象小区"}},{"type":"Feature","geometry":{"type":"Point","coordinates":[115.453013,35.254612]},"properties":{"full_address":"山东省菏泽市牡丹区北城街道解放北街智源公馆"}},{"type":"Feature","geometry":{"type":"Point","coordinates":[115.308175,35.078971]},"properties":{"full_address":"山东省菏泽市牡丹区王浩屯镇水牛李村"}},{"type":"Feature","geometry":{"type":"Point","coordinates":[115.415167,35.240071]},"properties":{"full_address":"山东省菏泽市牡丹区西城街道方信嘉和苑小区"}},{"type":"Feature","geometry":{"type":"Point","coordinates":[115.420698,35.258425]},"properties":{"full_address":"山东省菏泽市牡丹区西城街道睿鹰嘉园小区"}},{"type":"Feature","geometry":{"type":"Point","coordinates":[115.42014,35.247415]},"properties":{"full_address":"山东省菏泽市牡丹区德林华府"}},{"type":"Feature","geometry":{"type":"Point","coordinates":[115.462441,35.255407]},"properties":{"full_address":"山东省菏泽市牡丹区金御华府"}},{"type":"Feature","geometry":{"type":"Point","coordinates":[115.25975,34.857536]},"properties":{"full_address":"山东省菏泽市曹县楼庄镇楼庄村"}},{"type":"Feature","geometry":{"type":"Point","coordinates":[115.255941,34.865448]},"properties":{"full_address":"山东省菏泽市曹县楼庄镇忠义寨村"}},{"type":"Feature","geometry":{"type":"Point","coordinates":[115.251378,34.871052]},"properties":{"full_address":"山东省菏泽市曹县楼庄镇王楼村"}},{"type":"Feature","geometry":{"type":"Point","coordinates":[115.253076,34.869791]},"properties":{"full_address":"山东省菏泽市曹县楼庄镇韩庄村"}},{"type":"Feature","geometry":{"type":"Point","coordinates":[115.3123,34.886551]},"properties":{"full_address":"山东省菏泽市曹县楼庄镇高庄村"}},{"type":"Feature","geometry":{"type":"Point","coordinates":[115.639604,34.876596]},"properties":{"full_address":"山东省菏泽市曹县王集镇丁庄村"}},{"type":"Feature","geometry":{"type":"Point","coordinates":[115.550665,34.847785]},"properties":{"full_address":"山东省菏泽市曹县青菏街道环岛花园小区"}},{"type":"Feature","geometry":{"type":"Point","coordinates":[115.362879,34.884426]},"properties":{"full_address":"山东省菏泽市曹县魏湾镇魏湾村"}},{"type":"Feature","geometry":{"type":"Point","coordinates":[115.762703,34.757919]},"properties":{"full_address":"山东省菏泽市曹县楼庄镇赵庄村"}},{"type":"Feature","geometry":{"type":"Point","coordinates":[115.364564,35.012884]},"properties":{"full_address":"山东省菏泽市曹县韩集镇向庄村"}},{"type":"Feature","geometry":{"type":"Point","coordinates":[115.37447,35.024338]},"properties":{"full_address":"山东省菏泽市曹县韩集镇郑庄村"}},{"type":"Feature","geometry":{"type":"Point","coordinates":[115.316293,35.007501]},"properties":{"full_address":"山东省菏泽市曹县韩集镇井王村"}},{"type":"Feature","geometry":{"type":"Point","coordinates":[115.541633,34.923458]},"properties":{"full_address":"山东省菏泽市曹县普连集镇李楼寨村"}},{"type":"Feature","geometry":{"type":"Point","coordinates":[115.345163,34.872267]},"properties":{"full_address":"山东省菏泽市曹县魏湾镇崔庞庄村"}},{"type":"Feature","geometry":{"type":"Point","coordinates":[115.271238,34.868757]},"properties":{"full_address":"山东省菏泽市曹县楼庄镇吕寨村"}},{"type":"Feature","geometry":{"type":"Point","coordinates":[115.272961,34.889495]},"properties":{"full_address":"山东省菏泽市曹县楼庄镇南黄口村"}},{"type":"Feature","geometry":{"type":"Point","coordinates":[115.65045,34.807826]},"properties":{"full_address":"山东省菏泽市曹县王集镇李庄村"}},{"type":"Feature","geometry":{"type":"Point","coordinates":[115.316394,34.885892]},"properties":{"full_address":"山东省菏泽市曹县楼庄镇王少堂村"}},{"type":"Feature","geometry":{"type":"Point","coordinates":[115.269918,34.940254]},"properties":{"full_address":"山东省菏泽市曹县常乐集镇吕楼村"}},{"type":"Feature","geometry":{"type":"Point","coordinates":[115.304177,34.96407]},"properties":{"full_address":"山东省菏泽市曹县常乐集镇常乐集行政村"}},{"type":"Feature","geometry":{"type":"Point","coordinates":[115.663379,34.682237]},"properties":{"full_address":"山东省菏泽市曹县安蔡楼镇榆林集村"}},{"type":"Feature","geometry":{"type":"Point","coordinates":[115.640037,34.676728]},"properties":{"full_address":"山东省菏泽市曹县安蔡楼镇火神台村"}},{"type":"Feature","geometry":{"type":"Point","coordinates":[115.675995,34.942013]},"properties":{"full_address":"山东省菏泽市曹县古营集镇古营集村"}},{"type":"Feature","geometry":{"type":"Point","coordinates":[115.25975,34.857536]},"properties":{"full_address":"山东省菏泽市曹县楼庄镇西湖集村"}},{"type":"Feature","geometry":{"type":"Point","coordinates":[115.310306,34.897966]},"properties":{"full_address":"山东省菏泽市曹县楼庄镇耿庄村"}},{"type":"Feature","geometry":{"type":"Point","coordinates":[115.25975,34.857536]},"properties":{"full_address":"山东省菏泽市曹县楼庄镇葛徐庄村"}},{"type":"Feature","geometry":{"type":"Point","coordinates":[115.286711,34.907918]},"properties":{"full_address":"山东省菏泽市曹县楼庄镇孙湾村"}},{"type":"Feature","geometry":{"type":"Point","coordinates":[115.292127,34.889095]},"properties":{"full_address":"山东省菏泽市曹县楼庄镇马庄村"}},{"type":"Feature","geometry":{"type":"Point","coordinates":[115.25975,34.857536]},"properties":{"full_address":"山东省菏泽市曹县楼庄镇丁邰庄村"}},{"type":"Feature","geometry":{"type":"Point","coordinates":[115.37738,34.888147]},"properties":{"full_address":"山东省菏泽市曹县魏湾镇林庄村"}},{"type":"Feature","geometry":{"type":"Point","coordinates":[115.629457,34.712911]},"properties":{"full_address":"山东省菏泽市曹县大集镇李八庄村"}},{"type":"Feature","geometry":{"type":"Point","coordinates":[115.542234,34.815864]},"properties":{"full_address":"山东省菏泽市曹县磐石街道尹坑社区"}},{"type":"Feature","geometry":{"type":"Point","coordinates":[115.486113,34.874148]},"properties":{"full_address":"山东省菏泽市曹县倪集街道倪集村"}},{"type":"Feature","geometry":{"type":"Point","coordinates":[115.593951,34.708314]},"properties":{"full_address":"山东省菏泽市曹县阎店楼镇周楼村"}},{"type":"Feature","geometry":{"type":"Point","coordinates":[115.58954,34.724622]},"properties":{"full_address":"山东省菏泽市曹县阎店楼镇阎店楼村"}},{"type":"Feature","geometry":{"type":"Point","coordinates":[115.462978,34.960475]},"properties":{"full_address":"山东省菏泽市曹县青岗集镇张大庙村"}},{"type":"Feature","geometry":{"type":"Point","coordinates":[115.162276,34.992553]},"properties":{"full_address":"山东省菏泽市曹县庄寨镇车寨村"}},{"type":"Feature","geometry":{"type":"Point","coordinates":[115.285372,34.898461]},"properties":{"full_address":"山东省菏泽市曹县楼庄镇王占乾村"}},{"type":"Feature","geometry":{"type":"Point","coordinates":[115.255779,34.864248]},"properties":{"full_address":"山东省菏泽市曹县楼庄镇琉璃阁村"}},{"type":"Feature","geometry":{"type":"Point","coordinates":[115.301453,34.89042]},"properties":{"full_address":"山东省菏泽市曹县楼庄镇杨堂村"}},{"type":"Feature","geometry":{"type":"Point","coordinates":[115.63819,34.743433]},"properties":{"full_address":"山东省菏泽市曹县大集镇李楼村"}},{"type":"Feature","geometry":{"type":"Point","coordinates":[115.555185,34.817033]},"properties":{"full_address":"山东省菏泽市曹县磐石街道远东世纪城小区"}},{"type":"Feature","geometry":{"type":"Point","coordinates":[115.329534,34.934793]},"properties":{"full_address":"山东省菏泽市曹县常乐集镇刘楼村"}},{"type":"Feature","geometry":{"type":"Point","coordinates":[115.570826,34.648013]},"properties":{"full_address":"山东省菏泽市曹县阎店楼镇袁楼村"}},{"type":"Feature","geometry":{"type":"Point","coordinates":[115.597377,34.703306]},"properties":{"full_address":"山东省菏泽市曹县阎店楼镇颜庄村"}},{"type":"Feature","geometry":{"type":"Point","coordinates":[115.54295,34.786385]},"properties":{"full_address":"山东省菏泽市曹县郑庄街道孙庄村"}},{"type":"Feature","geometry":{"type":"Point","coordinates":[115.634062,34.612208]},"properties":{"full_address":"山东省菏泽市曹县楼庄镇谢集村"}},{"type":"Feature","geometry":{"type":"Point","coordinates":[115.25975,34.857536]},"properties":{"full_address":"山东省菏泽市曹县楼庄镇幸福村"}},{"type":"Feature","geometry":{"type":"Point","coordinates":[115.25975,34.857536]},"properties":{"full_address":"山东省菏泽市曹县楼庄镇北塔湾村"}},{"type":"Feature","geometry":{"type":"Point","coordinates":[115.287371,34.855608]},"properties":{"full_address":"山东省菏泽市曹县楼庄镇南塔湾村"}},{"type":"Feature","geometry":{"type":"Point","coordinates":[115.399403,35.002457]},"properties":{"full_address":"山东省菏泽市曹县韩集镇申庄"}},{"type":"Feature","geometry":{"type":"Point","coordinates":[115.542234,34.815864]},"properties":{"full_address":"山东省菏泽市曹县曹城街道北关社区"}},{"type":"Feature","geometry":{"type":"Point","coordinates":[115.542234,34.815864]},"properties":{"full_address":"山东省菏泽市曹县曹城街道南关社区"}},{"type":"Feature","geometry":{"type":"Point","coordinates":[115.25975,34.857536]},"properties":{"full_address":"山东省菏泽市曹县楼庄镇万隆小区"}},{"type":"Feature","geometry":{"type":"Point","coordinates":[115.562053,34.834255]},"properties":{"full_address":"山东省菏泽市曹县磐石街道杜庄社区"}},{"type":"Feature","geometry":{"type":"Point","coordinates":[115.310275,34.885702]},"properties":{"full_address":"山东省菏泽市曹县楼庄镇后代庄村"}},{"type":"Feature","geometry":{"type":"Point","coordinates":[115.242652,34.876845]},"properties":{"full_address":"山东省菏泽市曹县楼庄镇安乐村"}},{"type":"Feature","geometry":{"type":"Point","coordinates":[115.291627,34.88366]},"properties":{"full_address":"山东省菏泽市曹县楼庄镇孙庄村"}},{"type":"Feature","geometry":{"type":"Point","coordinates":[115.319598,34.898098]},"properties":{"full_address":"山东省菏泽市曹县魏湾镇前汪楼村"}},{"type":"Feature","geometry":{"type":"Point","coordinates":[115.304248,35.03302]},"properties":{"full_address":"山东省菏泽市曹县韩集镇周庙村"}},{"type":"Feature","geometry":{"type":"Point","coordinates":[115.573228,34.81299]},"properties":{"full_address":"山东省菏泽市曹县磐石街道惠民小区"}},{"type":"Feature","geometry":{"type":"Point","coordinates":[115.548012,34.795498]},"properties":{"full_address":"山东省菏泽市曹县磐石街道天润城小区"}},{"type":"Feature","geometry":{"type":"Point","coordinates":[115.559363,34.912475]},"properties":{"full_address":"山东省菏泽市曹县普连集镇钟口村"}},{"type":"Feature","geometry":{"type":"Point","coordinates":[115.552665,34.865029]},"properties":{"full_address":"山东省菏泽市曹县青菏街道阳光城市小区"}},{"type":"Feature","geometry":{"type":"Point","coordinates":[115.556629,34.870782]},"properties":{"full_address":"山东省菏泽市曹县青菏街道新都帝景小区"}},{"type":"Feature","geometry":{"type":"Point","coordinates":[115.704697,34.919344]},"properties":{"full_address":"山东省菏泽市曹县古营集镇后王楼村"}},{"type":"Feature","geometry":{"type":"Point","coordinates":[115.488804,34.84171]},"properties":{"full_address":"山东省菏泽市曹县倪集镇石河村"}},{"type":"Feature","geometry":{"type":"Point","coordinates":[116.099859,34.771347]},"properties":{"full_address":"山东省菏泽市单县名仕豪庭小区（北区）"}},{"type":"Feature","geometry":{"type":"Point","coordinates":[115.509521,35.223842]},"properties":{"full_address":"山东省菏泽市开发区开发区花城小区"}},{"type":"Feature","geometry":{"type":"Point","coordinates":[115.335358,35.171707]},"properties":{"full_address":"山东省菏泽市高新区马岭岗镇李明远行政村赵桥自然村"}},{"type":"Feature","geometry":{"type":"Point","coordinates":[115.276507,35.203625]},"properties":{"full_address":"山东省菏泽市高新区马岭岗镇谢集行政村"}},{"type":"Feature","geometry":{"type":"Point","coordinates":[114.372917,34.789137]},"properties":{"full_address":"河南省开封市顺河回族区宋门办事处东护城河以东、公园路以西、宋门关大北后街以北、开封市十中南墙以南区域"}},{"type":"Feature","geometry":{"type":"Point","coordinates":[114.759285,34.55711]},"properties":{"full_address":"河南省开封市杞县金城街道富苑观城小区"}},{"type":"Feature","geometry":{"type":"Point","coordinates":[114.785866,34.548857]},"properties":{"full_address":"河南省开封市杞县金城街道老华联超市"}},{"type":"Feature","geometry":{"type":"Point","coordinates":[115.256967,34.818347]},"properties":{"full_address":"河南省开封市兰考县许河乡张油坊村"}},{"type":"Feature","geometry":{"type":"Point","coordinates":[115.256352,34.825952]},"properties":{"full_address":"河南省开封市兰考县许河乡周庄寨村"}},{"type":"Feature","geometry":{"type":"Point","coordinates":[115.319299,34.812747]},"properties":{"full_address":"河南省商丘市民权县北关镇安李庄村"}},{"type":"Feature","geometry":{"type":"Point","coordinates":[115.288987,34.790572]},"properties":{"full_address":"河南省商丘市民权县北关镇东村"}},{"type":"Feature","geometry":{"type":"Point","coordinates":[115.178726,34.638404]},"properties":{"full_address":"河南省商丘市民权县盛世名门二期小区"}},{"type":"Feature","geometry":{"type":"Point","coordinates":[115.181504,34.63892]},"properties":{"full_address":"河南省商丘市民权县江山尚品小区"}},{"type":"Feature","geometry":{"type":"Point","coordinates":[115.302594,34.843271]},"properties":{"full_address":"河南省商丘市民权县北关镇李馆西村"}},{"type":"Feature","geometry":{"type":"Point","coordinates":[115.43206,34.707272]},"properties":{"full_address":"河南省商丘市民权县老颜集乡张辛庄村张柳庄自然村"}},{"type":"Feature","geometry":{"type":"Point","coordinates":[115.028302,34.690545]},"properties":{"full_address":"河南省商丘市民权县野岗镇野南村"}},{"type":"Feature","geometry":{"type":"Point","coordinates":[115.034539,34.652765]},"properties":{"full_address":"河南省商丘市民权县野岗镇徐堂村"}},{"type":"Feature","geometry":{"type":"Point","coordinates":[115.053286,34.690411]},"properties":{"full_address":"河南省商丘市民权县野岗镇北村"}},{"type":"Feature","geometry":{"type":"Point","coordinates":[115.019345,34.637768]},"properties":{"full_address":"河南省商丘市民权县野岗镇张堂村"}},{"type":"Feature","geometry":{"type":"Point","coordinates":[115.279411,34.749609]},"properties":{"full_address":"河南省商丘市民权县王桥镇谢园子村"}},{"type":"Feature","geometry":{"type":"Point","coordinates":[115.246617,34.764017]},"properties":{"full_address":"河南省商丘市民权县王桥镇靳庄村"}},{"type":"Feature","geometry":{"type":"Point","coordinates":[115.131815,34.638417]},"properties":{"full_address":"河南省商丘市民权县南华街道茶楼村"}},{"type":"Feature","geometry":{"type":"Point","coordinates":[115.141918,34.627175]},"properties":{"full_address":"河南省商丘市民权县南华街道福税家苑"}},{"type":"Feature","geometry":{"type":"Point","coordinates":[115.31125,34.795673]},"properties":{"full_address":"河南省商丘市民权县北关镇刘楼村"}},{"type":"Feature","geometry":{"type":"Point","coordinates":[115.288963,34.790579]},"properties":{"full_address":"河南省商丘市民权县北关镇北村"}},{"type":"Feature","geometry":{"type":"Point","coordinates":[115.259879,34.804627]},"properties":{"full_address":"河南省商丘市民权县北关镇王小楼村"}},{"type":"Feature","geometry":{"type":"Point","coordinates":[115.330616,34.786361]},"properties":{"full_address":"河南省商丘市民权县北关镇李辛庄村"}},{"type":"Feature","geometry":{"type":"Point","coordinates":[115.20557,34.54248]},"properties":{"full_address":"河南省商丘市宁陵县逻岗镇集镇区"}},{"type":"Feature","geometry":{"type":"Point","coordinates":[115.174161,34.58364]},"properties":{"full_address":"河南省商丘市宁陵县逻岗镇刘赵庄村委崔楼村"}},{"type":"Feature","geometry":{"type":"Point","coordinates":[116.36935,33.9421]},"properties":{"full_address":"河南省商丘市永城市崇法寺街道北关拖修厂散居片"}},{"type":"Feature","geometry":{"type":"Point","coordinates":[114.508496,32.19407]},"properties":{"full_address":"河南省信阳市罗山县丽水街道赵园社区九龙大道1号"}},{"type":"Feature","geometry":{"type":"Point","coordinates":[114.518888,32.206851]},"properties":{"full_address":"河南省信阳市罗山县丽水街道邵洼社区玉安花园小区"}},{"type":"Feature","geometry":{"type":"Point","coordinates":[114.542456,32.207736]},"properties":{"full_address":"河南省信阳市罗山县宝城街道大园社区"}},{"type":"Feature","geometry":{"type":"Point","coordinates":[114.480683,34.123742]},"properties":{"full_address":"河南省周口市扶沟县吕潭乡葛岗行政村齐桥自然村"}},{"type":"Feature","geometry":{"type":"Point","coordinates":[114.324966,30.355691]},"properties":{"full_address":"湖北省武汉市江夏区纸坊街道办事处宿舍楼"}},{"type":"Feature","geometry":{"type":"Point","coordinates":[114.33439,30.342462]},"properties":{"full_address":"湖北省武汉市江夏区纸坊街道林特小区"}},{"type":"Feature","geometry":{"type":"Point","coordinates":[114.339084,30.350935]},"properties":{"full_address":"湖北省武汉市江夏区纸坊街道齐心科技创业社区"}},{"type":"Feature","geometry":{"type":"Point","coordinates":[114.370248,30.386492]},"properties":{"full_address":"湖北省武汉市江夏区罗马春天奥特莱斯（不含水上乐园及停车场区域）"}},{"type":"Feature","geometry":{"type":"Point","coordinates":[114.326278,30.363678]},"properties":{"full_address":"湖北省武汉市江夏区纸坊街道弘志街金地花园小区"}},{"type":"Feature","geometry":{"type":"Point","coordinates":[114.329478,30.358739]},"properties":{"full_address":"湖北省武汉市江夏区纸坊街道九全嘉购物广场"}},{"type":"Feature","geometry":{"type":"Point","coordinates":[114.147904,22.549192]},"properties":{"full_address":"广东省深圳市罗湖区黄贝街道芳春花园1栋"}},{"type":"Feature","geometry":{"type":"Point","coordinates":[114.041758,22.518551]},"properties":{"full_address":"广东省深圳市福田区沙头街道沙尾西村第40-41栋、第246栋、第248-249栋、第255栋、第256-257栋、第258栋-260栋"}},{"type":"Feature","geometry":{"type":"Point","coordinates":[114.136202,22.695564]},"properties":{"full_address":"广东省深圳市龙岗区平湖街道凤凰社区横岭路18号、横岭路20号、横岭路22号、文山巷2号、文山巷4号、文山巷5号、文山巷6号"}},{"type":"Feature","geometry":{"type":"Point","coordinates":[114.04555,22.608735]},"properties":{"full_address":"广东省深圳市龙华区民治街道民新社区横岭一区第1至12栋、第13至24栋、第31至36栋、第43至45栋、第53至57栋"}},{"type":"Feature","geometry":{"type":"Point","coordinates":[109.166177,21.489755]},"properties":{"full_address":"广西壮族自治区北海市海城区高德街道北海大道以北、上海路以东、河南路以西、湖海路（规划路）以南（绿馨园、北海市市场监管局除外）"}},{"type":"Feature","geometry":{"type":"Point","coordinates":[109.173429,21.488759]},"properties":{"full_address":"广西壮族自治区北海市海城区高德街道马栏村委会海枫和苑"}},{"type":"Feature","geometry":{"type":"Point","coordinates":[109.156555,21.478396]},"properties":{"full_address":"广西壮族自治区北海市海城区西南大道以北 、河南路以西、上海路以东、北海大道以南（除民兵训练基地、妇幼保健院、市公安局）"}},{"type":"Feature","geometry":{"type":"Point","coordinates":[109.12775,21.472768]},"properties":{"full_address":"广西壮族自治区北海市海城区高德街道马栏村委会高德教育住宅小区第1排7幢第10至12号"}},{"type":"Feature","geometry":{"type":"Point","coordinates":[109.369695,21.526371]},"properties":{"full_address":"广西壮族自治区北海市海城区高德街道开江村委会向海大道蔡屋村16号"}},{"type":"Feature","geometry":{"type":"Point","coordinates":[109.168536,21.51578]},"properties":{"full_address":"广西壮族自治区北海市海城区高德街道庙山社区、沙脚社区"}},{"type":"Feature","geometry":{"type":"Point","coordinates":[109.169492,21.485289]},"properties":{"full_address":"广西壮族自治区北海市海城区高德街道马栏村委会南珠大道50号南珠园第二排5到7号、猛鸡特村"}},{"type":"Feature","geometry":{"type":"Point","coordinates":[109.157149,21.49188]},"properties":{"full_address":"广西壮族自治区北海市海城区高德街道高农村委会回建区一期C106-108号"}},{"type":"Feature","geometry":{"type":"Point","coordinates":[109.184583,21.478787]},"properties":{"full_address":"广西壮族自治区北海市海城区高德街道马栏村委会马栏四队黄某娟家"}},{"type":"Feature","geometry":{"type":"Point","coordinates":[109.112717,21.461843]},"properties":{"full_address":"广西壮族自治区北海市海城区西街街道平安街社区恒大新城"}},{"type":"Feature","geometry":{"type":"Point","coordinates":[109.110198,21.475013]},"properties":{"full_address":"广西壮族自治区北海市海城区海角街道四川路万家兴B栋"}},{"type":"Feature","geometry":{"type":"Point","coordinates":[109.149044,21.479134]},"properties":{"full_address":"广西壮族自治区北海市海城区上海路以西、北海大道以北、湖南路以东、北部湾路以南（保持主干道路通行）"}},{"type":"Feature","geometry":{"type":"Point","coordinates":[109.137,21.470211]},"properties":{"full_address":"广西壮族自治区北海市海城区北海大道以南、重庆路以北、上海路以西、山湖海东墙以东（保持主干道路通行）"}},{"type":"Feature","geometry":{"type":"Point","coordinates":[109.144328,21.462619]},"properties":{"full_address":"广西壮族自治区北海市海城区驿马街道西南大道以南、广东路以东、圣煌广场东墙以西、铁路明渠以北（除北海市公共汽车有限公司）"}},{"type":"Feature","geometry":{"type":"Point","coordinates":[109.166287,21.473268]},"properties":{"full_address":"广西壮族自治区北海市海城区驿马街道重庆路以南、上海路以西、西南大道以北、湖南路以东（除看守所、蜀海善府小区、太平洋广场）"}},{"type":"Feature","geometry":{"type":"Point","coordinates":[109.142629,21.467862]},"properties":{"full_address":"广西壮族自治区北海市海城区驿马街道重庆路与湖南路交汇处逢时商场花园"}},{"type":"Feature","geometry":{"type":"Point","coordinates":[109.147556,21.46275]},"properties":{"full_address":"广西壮族自治区北海市海城区驿马街道驿马村委会半坡一区3号、半坡二区12号、17号"}},{"type":"Feature","geometry":{"type":"Point","coordinates":[109.150741,21.461107]},"properties":{"full_address":"广西壮族自治区北海市海城区驿马街道驿马村委会牛角塘二区3巷"}},{"type":"Feature","geometry":{"type":"Point","coordinates":[109.126948,21.467307]},"properties":{"full_address":"广西壮族自治区北海市海城区驿马街道西塘社区陈文村路天成公寓"}},{"type":"Feature","geometry":{"type":"Point","coordinates":[109.123111,21.460375]},"properties":{"full_address":"广西壮族自治区北海市海城区驿马街道其仓村东区97号"}},{"type":"Feature","geometry":{"type":"Point","coordinates":[109.135296,21.486802]},"properties":{"full_address":"广西壮族自治区北海市海城区东街街道北部湾东社区谭屋村"}},{"type":"Feature","geometry":{"type":"Point","coordinates":[109.09887,21.457573]},"properties":{"full_address":"广西壮族自治区北海市海城区东街街道大囊7巷"}},{"type":"Feature","geometry":{"type":"Point","coordinates":[109.130548,21.484915]},"properties":{"full_address":"广西壮族自治区北海市海城区东街街道茶亭路社区北部湾东路9号东大金星花苑2栋"}},{"type":"Feature","geometry":{"type":"Point","coordinates":[109.13298,21.477701]},"properties":{"full_address":"广西壮族自治区北海市海城区东街街道铜鼓里社区工商银行宿舍9栋"}},{"type":"Feature","geometry":{"type":"Point","coordinates":[109.125879,21.483245]},"properties":{"full_address":"广西壮族自治区北海市海城区中街街道新安街社区居委会光明里一至三巷"}},{"type":"Feature","geometry":{"type":"Point","coordinates":[109.112708,21.48041]},"properties":{"full_address":"广西壮族自治区北海市海城区中街街道幸福里社区居委会新建四巷22至24号"}},{"type":"Feature","geometry":{"type":"Point","coordinates":[109.169476,21.503913]},"properties":{"full_address":"广西壮族自治区北海市海城区高德街道开江村委会143号"}},{"type":"Feature","geometry":{"type":"Point","coordinates":[109.112308,21.457897]},"properties":{"full_address":"广西壮族自治区北海市海城区驿马街道白屋社区居委会四川南路以东亚村太保公寓"}},{"type":"Feature","geometry":{"type":"Point","coordinates":[109.14831,21.494117]},"properties":{"full_address":"广西壮族自治区北海市海城区高德街道高德一居社区高德西里四巷"}},{"type":"Feature","geometry":{"type":"Point","coordinates":[109.125706,21.45652]},"properties":{"full_address":"广西壮族自治区北海市海城区驿马街道白屋社区城市丽景"}},{"type":"Feature","geometry":{"type":"Point","coordinates":[109.10942,21.480956]},"properties":{"full_address":"广西壮族自治区北海市海城区海角街道天赐碧园13栋"}},{"type":"Feature","geometry":{"type":"Point","coordinates":[109.126178,21.477741]},"properties":{"full_address":"广西壮族自治区北海市海城区中街街道体育路名座小区8栋"}},{"type":"Feature","geometry":{"type":"Point","coordinates":[109.129269,21.48208]},"properties":{"full_address":"广西壮族自治区北海市海城区东街街道振业小区4栋"}},{"type":"Feature","geometry":{"type":"Point","coordinates":[109.12638,21.47762]},"properties":{"full_address":"广西壮族自治区北海市海城区中街街道广东路油行村一巷20号左右各5间房"}},{"type":"Feature","geometry":{"type":"Point","coordinates":[109.101577,21.449556]},"properties":{"full_address":"广西壮族自治区北海市海城区驿马街道金湾银畔2栋"}},{"type":"Feature","geometry":{"type":"Point","coordinates":[109.169476,21.503913]},"properties":{"full_address":"广西壮族自治区北海市海城区高德街道开江村委会屋仔村"}},{"type":"Feature","geometry":{"type":"Point","coordinates":[109.082006,21.472601]},"properties":{"full_address":"广西壮族自治区北海市海城区地角街道昆明路社区地角沙坡一巷18-20号"}},{"type":"Feature","geometry":{"type":"Point","coordinates":[109.095603,21.456371]},"properties":{"full_address":"广西壮族自治区北海市海城区地角街道银湾社区西藏路中皇花园三巷12号周边5间房"}},{"type":"Feature","geometry":{"type":"Point","coordinates":[109.138328,21.476389]},"properties":{"full_address":"广西壮族自治区北海市海城区东街街道湖海路社区居委会吉兴花园1栋"}},{"type":"Feature","geometry":{"type":"Point","coordinates":[109.135075,21.474006]},"properties":{"full_address":"广西壮族自治区北海市海城区东街街道铜鼓新村建行宿舍1栋"}},{"type":"Feature","geometry":{"type":"Point","coordinates":[109.107511,21.474134]},"properties":{"full_address":"广西壮族自治区北海市海城区中街街道北部湾西社区居委会三中东里三栋"}},{"type":"Feature","geometry":{"type":"Point","coordinates":[109.120748,21.454508]},"properties":{"full_address":"广西壮族自治区北海市海城区驿马街道站前路格林香海怡海轩2A"}},{"type":"Feature","geometry":{"type":"Point","coordinates":[109.106596,21.447776]},"properties":{"full_address":"广西壮族自治区北海市海城区海角街道云南路60号碧海新城小区1栋"}},{"type":"Feature","geometry":{"type":"Point","coordinates":[109.146471,21.489781]},"properties":{"full_address":"广西壮族自治区北海市海城区高德街道上海中路社区海语城小区6栋、11栋、17栋、19栋"}},{"type":"Feature","geometry":{"type":"Point","coordinates":[109.165499,21.480503]},"properties":{"full_address":"广西壮族自治区北海市海城区高德街道马栏村委会北海大道东华美公寓"}},{"type":"Feature","geometry":{"type":"Point","coordinates":[109.192212,21.524315]},"properties":{"full_address":"广西壮族自治区北海市海城区高德街道吉林路社区北海大道同和泊湾27栋"}},{"type":"Feature","geometry":{"type":"Point","coordinates":[109.145513,21.494473]},"properties":{"full_address":"广西壮族自治区北海市海城区高德街道上海北路社区星海湾花园帝海阁"}},{"type":"Feature","geometry":{"type":"Point","coordinates":[109.157307,21.496931]},"properties":{"full_address":"广西壮族自治区北海市海城区高德街道高农村委会新业花园4栋"}},{"type":"Feature","geometry":{"type":"Point","coordinates":[109.122547,21.475613]},"properties":{"full_address":"广西壮族自治区北海市海城区中街街道公园路社区文明南路二巷36号、38号、40号、三巷47号、49号、51号"}},{"type":"Feature","geometry":{"type":"Point","coordinates":[109.112708,21.48041]},"properties":{"full_address":"广西壮族自治区北海市海城区中街街道幸福里社区担水巷51号二楼"}},{"type":"Feature","geometry":{"type":"Point","coordinates":[109.105994,21.461073]},"properties":{"full_address":"广西壮族自治区北海市海城区西街街道云南南路社区石化路银苑小区39栋"}},{"type":"Feature","geometry":{"type":"Point","coordinates":[109.099803,21.476772]},"properties":{"full_address":"广西壮族自治区北海市海城区海角街道海角大道社区海角路云海小区3栋"}},{"type":"Feature","geometry":{"type":"Point","coordinates":[109.160896,21.44696]},"properties":{"full_address":"广西壮族自治区北海市海城区驿马街道驿马村委会上海路园辉新都20栋"}},{"type":"Feature","geometry":{"type":"Point","coordinates":[109.119,21.46581]},"properties":{"full_address":"广西壮族自治区北海市海城区驿马街道怡海新村社区嘉福文华苑5栋"}},{"type":"Feature","geometry":{"type":"Point","coordinates":[109.115216,21.464423]},"properties":{"full_address":"广西壮族自治区北海市海城区驿马街道怡海新村社区滨城大厦A栋"}},{"type":"Feature","geometry":{"type":"Point","coordinates":[109.121227,21.453329]},"properties":{"full_address":"广西壮族自治区北海市海城区驿马街道白屋社区格林香海华林居5栋"}},{"type":"Feature","geometry":{"type":"Point","coordinates":[109.130244,21.461057]},"properties":{"full_address":"广西壮族自治区北海市海城区驿马街道西塘社区源丰路29号大成公寓b幢"}},{"type":"Feature","geometry":{"type":"Point","coordinates":[109.123351,21.468253]},"properties":{"full_address":"广西壮族自治区北海市海城区中街街道塘仔里社区北海大道晏峰建材商城小区B栋"}},{"type":"Feature","geometry":{"type":"Point","coordinates":[109.157267,21.496498]},"properties":{"full_address":"广西壮族自治区北海市海城区高德街道高农村委会新业花园（除4栋外）"}},{"type":"Feature","geometry":{"type":"Point","coordinates":[109.181333,21.532542]},"properties":{"full_address":"广西壮族自治区北海市海城区高德街道吉林路社区竹苑小区5幢"}},{"type":"Feature","geometry":{"type":"Point","coordinates":[109.107928,21.451131]},"properties":{"full_address":"广西壮族自治区北海市海城区驿马街道白屋社区云南路福利花园"}},{"type":"Feature","geometry":{"type":"Point","coordinates":[109.139519,21.462529]},"properties":{"full_address":"广西壮族自治区北海市海城区驿马街道驿马村委会和世新都"}},{"type":"Feature","geometry":{"type":"Point","coordinates":[109.126233,21.48588]},"properties":{"full_address":"广西壮族自治区北海市海城区东街街道茶亭路社区茶亭路21号"}},{"type":"Feature","geometry":{"type":"Point","coordinates":[109.13563,21.477767]},"properties":{"full_address":"广西壮族自治区北海市海城区驿马街道湖海路社区湖海中路37号至40号"}},{"type":"Feature","geometry":{"type":"Point","coordinates":[109.130586,21.484823]},"properties":{"full_address":"广西壮族自治区北海市海城区东街街道政法路社区深圳路教育里一至三巷"}},{"type":"Feature","geometry":{"type":"Point","coordinates":[109.128417,21.478657]},"properties":{"full_address":"广西壮族自治区北海市海城区东街街道政法路社区广东路75号农机局宿舍"}},{"type":"Feature","geometry":{"type":"Point","coordinates":[109.161378,21.496611]},"properties":{"full_address":"广西壮族自治区北海市海城区高德街道高农村委会北部湾东路92号东盛美景小区"}},{"type":"Feature","geometry":{"type":"Point","coordinates":[109.157556,21.499336]},"properties":{"full_address":"广西壮族自治区北海市海城区高德街道军屯村委会工业园中电回建小区"}},{"type":"Feature","geometry":{"type":"Point","coordinates":[109.184583,21.478787]},"properties":{"full_address":"广西壮族自治区北海市海城区高德街道马栏村委会老吉车村"}},{"type":"Feature","geometry":{"type":"Point","coordinates":[109.125904,21.464985]},"properties":{"full_address":"广西壮族自治区北海市海城区驿马街道西塘社区深港路55号汇宇广场小区"}},{"type":"Feature","geometry":{"type":"Point","coordinates":[109.12739,21.47292]},"properties":{"full_address":"广西壮族自治区北海市海城区中街街道南珠路社区公园路3号教育局住宅区"}},{"type":"Feature","geometry":{"type":"Point","coordinates":[109.099915,21.47176]},"properties":{"full_address":"广西壮族自治区北海市海城区海角街道独树根东社区变电南七至九巷"}},{"type":"Feature","geometry":{"type":"Point","coordinates":[109.106607,21.462583]},"properties":{"full_address":"广西壮族自治区北海市海城区海角街道独树根东社区丽珠小区"}},{"type":"Feature","geometry":{"type":"Point","coordinates":[109.105288,21.477378]},"properties":{"full_address":"广西壮族自治区北海市海城区海角街道前进路社区南万路74号左右临街两旁街道各10间"}},{"type":"Feature","geometry":{"type":"Point","coordinates":[109.087499,21.477329]},"properties":{"full_address":"广西壮族自治区北海市海城区海角街道树独根西社区海角路167号"}},{"type":"Feature","geometry":{"type":"Point","coordinates":[109.098218,21.450837]},"properties":{"full_address":"广西壮族自治区北海市海城区驿马街道银湾社区西藏路回建小区"}},{"type":"Feature","geometry":{"type":"Point","coordinates":[109.079749,21.462656]},"properties":{"full_address":"广西壮族自治区北海市海城区驿马街道银湾社区成都路经济适用房住宅小区"}},{"type":"Feature","geometry":{"type":"Point","coordinates":[109.109146,21.462155]},"properties":{"full_address":"广西壮族自治区北海市海城区西街街道平安街社区便民市场"}},{"type":"Feature","geometry":{"type":"Point","coordinates":[109.109916,21.464754]},"properties":{"full_address":"广西壮族自治区北海市海城区西街街道平安街社区北海大道207号二建生活区"}},{"type":"Feature","geometry":{"type":"Point","coordinates":[109.103654,21.446834]},"properties":{"full_address":"广西壮族自治区北海市海城区驿马街道银湾社区银湾花园筇海苑水天明轩"}},{"type":"Feature","geometry":{"type":"Point","coordinates":[109.126561,21.478079]},"properties":{"full_address":"广西壮族自治区北海市海城区西街街道云南南路社区油行村一至六巷"}},{"type":"Feature","geometry":{"type":"Point","coordinates":[109.128924,21.465242]},"properties":{"full_address":"广西壮族自治区北海市海城区驿马街道西塘社区十二间屋新区"}},{"type":"Feature","geometry":{"type":"Point","coordinates":[109.124554,21.467754]},"properties":{"full_address":"广西壮族自治区北海市海城区驿马街道西塘社区海商大厦"}},{"type":"Feature","geometry":{"type":"Point","coordinates":[109.128777,21.466156]},"properties":{"full_address":"广西壮族自治区北海市海城区驿马街道西塘社区陈文村路6至8号"}},{"type":"Feature","geometry":{"type":"Point","coordinates":[109.129633,21.468267]},"properties":{"full_address":"广西壮族自治区北海市海城区驿马街道西塘社区广州路物业小区"}},{"type":"Feature","geometry":{"type":"Point","coordinates":[109.112684,21.451539]},"properties":{"full_address":"广西壮族自治区北海市海城区驿马街道白屋社区海御新天地"}},{"type":"Feature","geometry":{"type":"Point","coordinates":[109.129807,21.469716]},"properties":{"full_address":"广西壮族自治区北海市海城区驿马街道西塘社区宝丽小区"}},{"type":"Feature","geometry":{"type":"Point","coordinates":[109.12685,21.47923]},"properties":{"full_address":"广西壮族自治区北海市海城区中街街道北部湾社区名座小区（调整整个名座小区为高风险区）"}},{"type":"Feature","geometry":{"type":"Point","coordinates":[109.140023,21.464505]},"properties":{"full_address":"广西壮族自治区北海市海城区驿马街道西边垌社区旺盛家园"}},{"type":"Feature","geometry":{"type":"Point","coordinates":[109.101461,21.446902]},"properties":{"full_address":"广西壮族自治区北海市海城区驿马街道银湾社区云南南路银湾花园天宇公寓"}},{"type":"Feature","geometry":{"type":"Point","coordinates":[109.108013,21.468961]},"properties":{"full_address":"广西壮族自治区北海市海城区西街街道广场西里社区中兴花园"}},{"type":"Feature","geometry":{"type":"Point","coordinates":[109.128436,21.484453]},"properties":{"full_address":"广西壮族自治区北海市海城区东街街道茶亭路社区北部湾东路向东里小区"}},{"type":"Feature","geometry":{"type":"Point","coordinates":[109.105044,21.448973]},"properties":{"full_address":"广西壮族自治区北海市海城区云南南路社区银湾花园漓江苑"}},{"type":"Feature","geometry":{"type":"Point","coordinates":[109.126398,21.47359]},"properties":{"full_address":"广西壮族自治区北海市海城区中街街道南珠路社区京都花园"}},{"type":"Feature","geometry":{"type":"Point","coordinates":[109.125835,21.475985]},"properties":{"full_address":"广西壮族自治区北海市海城区中街街道公园路社区长青东路北一巷402号至404号"}},{"type":"Feature","geometry":{"type":"Point","coordinates":[109.129602,21.477679]},"properties":{"full_address":"广西壮族自治区北海市海城区中街街道南珠路社区长青东路西一至十六巷"}},{"type":"Feature","geometry":{"type":"Point","coordinates":[109.120946,21.477646]},"properties":{"full_address":"广西壮族自治区北海市海城区中街街道公园路社区公园路水产局宿舍"}},{"type":"Feature","geometry":{"type":"Point","coordinates":[109.122719,21.473982]},"properties":{"full_address":"广西壮族自治区北海市海城区中街街道塘仔里社区三巷"}},{"type":"Feature","geometry":{"type":"Point","coordinates":[109.133359,21.473785]},"properties":{"full_address":"广西壮族自治区北海市海城区驿马街道湖海路社区铜鼓岭五巷"}},{"type":"Feature","geometry":{"type":"Point","coordinates":[109.114622,21.472692]},"properties":{"full_address":"广西壮族自治区北海市海城区中街街道北部湾社区日报社宿舍"}},{"type":"Feature","geometry":{"type":"Point","coordinates":[109.131798,21.46908]},"properties":{"full_address":"广西壮族自治区北海市海城区驿马街道驿马村委会广东南路方正花园"}},{"type":"Feature","geometry":{"type":"Point","coordinates":[109.113319,21.478148]},"properties":{"full_address":"广西壮族自治区北海市海城区中街街道幸福里社区新源文明苑"}},{"type":"Feature","geometry":{"type":"Point","coordinates":[109.112708,21.48041]},"properties":{"full_address":"广西壮族自治区北海市海城区中街街道幸福里社区新建一至五巷（调整一至五巷为高风险区）"}},{"type":"Feature","geometry":{"type":"Point","coordinates":[109.120593,21.482988]},"properties":{"full_address":"广西壮族自治区北海市海城区中街街道中山路社区朝阳街15至17号"}},{"type":"Feature","geometry":{"type":"Point","coordinates":[109.136642,21.482385]},"properties":{"full_address":"广西壮族自治区北海市海城区东街街道北部湾东路社区湖南路82号良基雅苑"}},{"type":"Feature","geometry":{"type":"Point","coordinates":[109.16544,21.457926]},"properties":{"full_address":"广西壮族自治区北海市海城区驿马街道驿马村委会半坡村"}},{"type":"Feature","geometry":{"type":"Point","coordinates":[109.12648,21.478652]},"properties":{"full_address":"广西壮族自治区北海市海城区中街街道北部湾社区体育路1号嘉顺金城华府"}},{"type":"Feature","geometry":{"type":"Point","coordinates":[109.129669,21.47775]},"properties":{"full_address":"广西壮族自治区北海市海城区东街街道铜鼓里社区长青东路东3至5号"}},{"type":"Feature","geometry":{"type":"Point","coordinates":[109.108636,21.46846]},"properties":{"full_address":"广西壮族自治区北海市海城区西街街道广场西里社区广场西里138号楼"}},{"type":"Feature","geometry":{"type":"Point","coordinates":[109.107782,21.458929]},"properties":{"full_address":"广西壮族自治区北海市海城区西街街道广场西里社区邮政宿舍"}},{"type":"Feature","geometry":{"type":"Point","coordinates":[109.134145,21.478906]},"properties":{"full_address":"广西壮族自治区北海市海城区东街街道铜鼓里社区土地局宿舍"}},{"type":"Feature","geometry":{"type":"Point","coordinates":[109.145223,21.490226]},"properties":{"full_address":"广西壮族自治区北海市海城区东街街道北部湾东路社区计生委宿舍"}},{"type":"Feature","geometry":{"type":"Point","coordinates":[109.117446,21.474]},"properties":{"full_address":"广西壮族自治区北海市海城区中街街道塘仔里社区垌尾新区四巷7至9号"}},{"type":"Feature","geometry":{"type":"Point","coordinates":[109.156586,21.503111]},"properties":{"full_address":"广西壮族自治区北海市海城区高德街道高德一居社区高德三街30至32号"}},{"type":"Feature","geometry":{"type":"Point","coordinates":[109.154925,21.505421]},"properties":{"full_address":"广西壮族自治区北海市海城区高德街道高德一居社区高德五街19至21号"}},{"type":"Feature","geometry":{"type":"Point","coordinates":[109.153928,21.498824]},"properties":{"full_address":"广西壮族自治区北海市海城区高德街道高德一居社区高德路51至52号"}},{"type":"Feature","geometry":{"type":"Point","coordinates":[109.166681,21.499474]},"properties":{"full_address":"广西壮族自治区北海市海城区高德街道开江村委会高平路7至9幢"}},{"type":"Feature","geometry":{"type":"Point","coordinates":[109.166681,21.499474]},"properties":{"full_address":"广西壮族自治区北海市海城区高德街道开江村委会高平路34至36号"}},{"type":"Feature","geometry":{"type":"Point","coordinates":[109.123844,21.476851]},"properties":{"full_address":"广西壮族自治区北海市海城区中街街道南珠路社区公园路36至38号"}},{"type":"Feature","geometry":{"type":"Point","coordinates":[109.126838,21.480279]},"properties":{"full_address":"广西壮族自治区北海市海城区中街街道北部湾社区气象小区"}},{"type":"Feature","geometry":{"type":"Point","coordinates":[109.097291,21.465958]},"properties":{"full_address":"广西壮族自治区北海市海城区西街街道西藏路社区云藏路蓝海尚城"}},{"type":"Feature","geometry":{"type":"Point","coordinates":[109.112424,21.464998]},"properties":{"full_address":"广西壮族自治区北海市海城区西街街道平安街社区平安街"}},{"type":"Feature","geometry":{"type":"Point","coordinates":[109.110568,21.444332]},"properties":{"full_address":"广西壮族自治区北海市海城区驿马街道白屋社区云南路外运公司宿舍"}},{"type":"Feature","geometry":{"type":"Point","coordinates":[109.107059,21.447869]},"properties":{"full_address":"广西壮族自治区北海市海城区驿马街道白屋社区云南路西建小区"}},{"type":"Feature","geometry":{"type":"Point","coordinates":[109.120626,21.471813]},"properties":{"full_address":"广西壮族自治区北海市海城区驿马街道西边垌社区银海公安局宿舍"}},{"type":"Feature","geometry":{"type":"Point","coordinates":[109.13085,21.458121]},"properties":{"full_address":"广西壮族自治区北海市海城区驿马街道西塘社区宝来华府"}},{"type":"Feature","geometry":{"type":"Point","coordinates":[109.150146,21.474026]},"properties":{"full_address":"广西壮族自治区北海市海城区驿马街道西塘社区财富盛世花园"}},{"type":"Feature","geometry":{"type":"Point","coordinates":[109.116043,21.466581]},"properties":{"full_address":"广西壮族自治区北海市海城区驿马街道怡海新村社区时代西里"}},{"type":"Feature","geometry":{"type":"Point","coordinates":[109.125385,21.463633]},"properties":{"full_address":"广西壮族自治区北海市海城区驿马街道西塘社区北海水果市场"}},{"type":"Feature","geometry":{"type":"Point","coordinates":[109.106692,21.447062]},"properties":{"full_address":"广西壮族自治区北海市海城区驿马街道银湾社区保安小区"}},{"type":"Feature","geometry":{"type":"Point","coordinates":[109.125474,21.466791]},"properties":{"full_address":"广西壮族自治区北海市海城区驿马街道西塘北京路金葵星园"}},{"type":"Feature","geometry":{"type":"Point","coordinates":[109.100417,21.455668]},"properties":{"full_address":"广西壮族自治区北海市海城区驿马街道银湾社区伊丽苑小区"}},{"type":"Feature","geometry":{"type":"Point","coordinates":[109.108142,21.476715]},"properties":{"full_address":"广西壮族自治区北海市海城区海角街道外沙社区四川北路天赐碧园"}},{"type":"Feature","geometry":{"type":"Point","coordinates":[109.109861,21.472643]},"properties":{"full_address":"广西壮族自治区北海市海城区海角街道北部湾西路社区海运宿舍"}},{"type":"Feature","geometry":{"type":"Point","coordinates":[109.116462,21.470212]},"properties":{"full_address":"广西壮族自治区北海市海城区中街街道广场东里社区教育住宅小区"}},{"type":"Feature","geometry":{"type":"Point","coordinates":[109.136471,21.480524]},"properties":{"full_address":"广西壮族自治区北海市海城区东街街道社区东海市场"}},{"type":"Feature","geometry":{"type":"Point","coordinates":[109.111647,21.475807]},"properties":{"full_address":"广西壮族自治区北海市海城区中街街道幸福里社区四川路45号区水产车队宿舍"}},{"type":"Feature","geometry":{"type":"Point","coordinates":[109.151386,21.464467]},"properties":{"full_address":"广西壮族自治区北海市海城区驿马街道驿马村委会北国之春小区"}},{"type":"Feature","geometry":{"type":"Point","coordinates":[109.122719,21.473982]},"properties":{"full_address":"广西壮族自治区北海市海城区中街街道塘仔里社区塘仔村"}},{"type":"Feature","geometry":{"type":"Point","coordinates":[109.117963,21.484464]},"properties":{"full_address":"广西壮族自治区北海市海城区中街街道中山路社区珠海横巷1至3巷"}},{"type":"Feature","geometry":{"type":"Point","coordinates":[109.112377,21.4776]},"properties":{"full_address":"广西壮族自治区北海市海城区中街街道幸福里社区桂政小区"}},{"type":"Feature","geometry":{"type":"Point","coordinates":[109.111857,21.474597]},"properties":{"full_address":"广西壮族自治区北海市海城区中街街道幸福里社区建文路5至7号、25号至27号"}},{"type":"Feature","geometry":{"type":"Point","coordinates":[109.112602,21.48012]},"properties":{"full_address":"广西壮族自治区北海市海城区中街街道幸福里社区牛皮巷"}},{"type":"Feature","geometry":{"type":"Point","coordinates":[109.119133,21.457154]},"properties":{"full_address":"广西壮族自治区北海市海城区驿马街道西塘社区创基花园"}},{"type":"Feature","geometry":{"type":"Point","coordinates":[109.130276,21.461647]},"properties":{"full_address":"广西壮族自治区北海市海城区驿马街道西塘社区陈文南路雅馨苑"}},{"type":"Feature","geometry":{"type":"Point","coordinates":[109.10803,21.481666]},"properties":{"full_address":"广西壮族自治区北海市海城区海角街道外沙社区外沙二至四巷"}},{"type":"Feature","geometry":{"type":"Point","coordinates":[109.108272,21.448304]},"properties":{"full_address":"广西壮族自治区北海市海城区驿马街道白屋社区白屋新村"}},{"type":"Feature","geometry":{"type":"Point","coordinates":[109.204573,21.515621]},"properties":{"full_address":"广西壮族自治区北海市海城区高德街道翁山村委会螺壳村"}},{"type":"Feature","geometry":{"type":"Point","coordinates":[109.145249,21.485805]},"properties":{"full_address":"广西壮族自治区北海市海城区高德街道上海中路社区徐屋东二区"}},{"type":"Feature","geometry":{"type":"Point","coordinates":[109.104264,21.469155]},"properties":{"full_address":"广西壮族自治区北海市海城区西街街道贵州南路社区财政局宿舍"}},{"type":"Feature","geometry":{"type":"Point","coordinates":[109.127773,21.485519]},"properties":{"full_address":"广西壮族自治区北海市海城区东街街道茶亭路社区澜亭天际"}},{"type":"Feature","geometry":{"type":"Point","coordinates":[109.163369,21.455468]},"properties":{"full_address":"广西壮族自治区北海市海城区驿马街道驿马村委会驿马村、驿马新村"}},{"type":"Feature","geometry":{"type":"Point","coordinates":[109.108303,21.478999]},"properties":{"full_address":"广西壮族自治区北海市海城区海角街道前进路社区海角路玻璃厂宿舍"}},{"type":"Feature","geometry":{"type":"Point","coordinates":[109.130644,21.466951]},"properties":{"full_address":"广西壮族自治区北海市海城区驿马街道西塘社区深港路十二间屋6巷、7巷"}},{"type":"Feature","geometry":{"type":"Point","coordinates":[109.108842,21.479884]},"properties":{"full_address":"广西壮族自治区北海市海城区海角街道前进路社区四川北路海洋宿舍"}},{"type":"Feature","geometry":{"type":"Point","coordinates":[109.151976,21.495371]},"properties":{"full_address":"广西壮族自治区北海市海城区东街街道北部湾东路社区成泰小区"}},{"type":"Feature","geometry":{"type":"Point","coordinates":[109.124877,21.474988]},"properties":{"full_address":"广西壮族自治区北海市海城区中街街道塘仔里社区长青东路47至49号"}},{"type":"Feature","geometry":{"type":"Point","coordinates":[109.154413,21.4891]},"properties":{"full_address":"广西壮族自治区北海市海城区高德街道高菜村委会福祥小区"}},{"type":"Feature","geometry":{"type":"Point","coordinates":[109.116841,21.480915]},"properties":{"full_address":"广西壮族自治区北海市海城区珠海西路以东、滨海以南、民权路以西、中山路以北合围之处"}},{"type":"Feature","geometry":{"type":"Point","coordinates":[109.149285,21.496315]},"properties":{"full_address":"广西壮族自治区北海市海城区高德街道上海北路社区高德西里（调整整个高德西里为高风险区）"}},{"type":"Feature","geometry":{"type":"Point","coordinates":[109.144988,21.482608]},"properties":{"full_address":"广西壮族自治区北海市海城区高德街道高菜村委会供电小区"}},{"type":"Feature","geometry":{"type":"Point","coordinates":[109.146961,21.484555]},"properties":{"full_address":"广西壮族自治区北海市海城区高德街道上海中路社区星海名城一期、二期、三期"}},{"type":"Feature","geometry":{"type":"Point","coordinates":[109.161155,21.494391]},"properties":{"full_address":"广西壮族自治区北海市海城区高德街道高农村委会东背岭小区"}},{"type":"Feature","geometry":{"type":"Point","coordinates":[109.107289,21.450146]},"properties":{"full_address":"广西壮族自治区北海市海城区驿马街道白屋社区云南路综合市场"}},{"type":"Feature","geometry":{"type":"Point","coordinates":[109.157757,21.494935]},"properties":{"full_address":"广西壮族自治区北海市海城区高德街道高农村委会东方之珠小区"}},{"type":"Feature","geometry":{"type":"Point","coordinates":[109.135064,21.4743]},"properties":{"full_address":"广西壮族自治区北海市海城区驿马街道湖海路社区社区建行宿舍"}},{"type":"Feature","geometry":{"type":"Point","coordinates":[109.158675,21.502123]},"properties":{"full_address":"广西壮族自治区北海市海城区高德街道高德一居社区高德一街"}},{"type":"Feature","geometry":{"type":"Point","coordinates":[109.107125,21.474421]},"properties":{"full_address":"广西壮族自治区北海市海城区海角街道北部湾西社区居委会三中东里1至12栋（调整三中东里1至12栋为高风险区）"}},{"type":"Feature","geometry":{"type":"Point","coordinates":[109.184583,21.478787]},"properties":{"full_address":"广西壮族自治区北海市海城区高德街道马栏村委会裕泰景苑"}},{"type":"Feature","geometry":{"type":"Point","coordinates":[109.136127,21.47873]},"properties":{"full_address":"广西壮族自治区北海市海城区东街街道铜鼓里社区广西海洋研究所宿舍"}},{"type":"Feature","geometry":{"type":"Point","coordinates":[109.136067,21.476357]},"properties":{"full_address":"广西壮族自治区北海市海城区驿马街道湖海路社区铜鼓新村"}},{"type":"Feature","geometry":{"type":"Point","coordinates":[109.13698,21.477588]},"properties":{"full_address":"广西壮族自治区北海市海城区驿马街道湖海路社区湖海路玫瑰花园"}},{"type":"Feature","geometry":{"type":"Point","coordinates":[109.106533,21.468174]},"properties":{"full_address":"广西壮族自治区北海市海城区西街街道贵州南路社区电视台宿舍"}},{"type":"Feature","geometry":{"type":"Point","coordinates":[109.086575,21.469326]},"properties":{"full_address":"广西壮族自治区北海市海城区地角街道昆明路社区地角群和大村"}},{"type":"Feature","geometry":{"type":"Point","coordinates":[109.122719,21.473982]},"properties":{"full_address":"广西壮族自治区北海市海城区中街街道塘仔里社区环卫路宿舍"}},{"type":"Feature","geometry":{"type":"Point","coordinates":[109.106937,21.466827]},"properties":{"full_address":"广西壮族自治区北海市海城区西街街道贵州南社区屋仔村"}},{"type":"Feature","geometry":{"type":"Point","coordinates":[109.184583,21.478787]},"properties":{"full_address":"广西壮族自治区北海市海城区高德街道马栏村委会新吉车村"}},{"type":"Feature","geometry":{"type":"Point","coordinates":[109.118843,21.470298]},"properties":{"full_address":"广西壮族自治区北海市海城区中街街道广场东里社区石子岭"}},{"type":"Feature","geometry":{"type":"Point","coordinates":[109.113447,21.475088]},"properties":{"full_address":"广西壮族自治区北海市海城区中街街道幸福里社区幸福市场二至三巷"}},{"type":"Feature","geometry":{"type":"Point","coordinates":[109.134445,21.477908]},"properties":{"full_address":"广西壮族自治区北海市海城区东街街道铜鼓里社区社区海洋小区"}},{"type":"Feature","geometry":{"type":"Point","coordinates":[109.098633,21.465258]},"properties":{"full_address":"广西壮族自治区北海市海城区西街街道西藏路社区西藏路德黔花园"}},{"type":"Feature","geometry":{"type":"Point","coordinates":[109.083823,21.464937]},"properties":{"full_address":"广西壮族自治区北海市海城区地角街道昆明路社区嘉逸花园"}},{"type":"Feature","geometry":{"type":"Point","coordinates":[109.16833,21.485175]},"properties":{"full_address":"广西壮族自治区北海市海城区高德街道马栏村委会南珠大道荔枝湾"}},{"type":"Feature","geometry":{"type":"Point","coordinates":[109.130834,21.480794]},"properties":{"full_address":"广西壮族自治区北海市海城区东街街道政法路社区天立国际"}},{"type":"Feature","geometry":{"type":"Point","coordinates":[109.154894,21.493409]},"properties":{"full_address":"广西壮族自治区北海市海城区高德街道高菜村委会雁北花园"}},{"type":"Feature","geometry":{"type":"Point","coordinates":[109.155415,21.490311]},"properties":{"full_address":"广西壮族自治区北海市海城区高德街道高菜村委会御泉湾"}},{"type":"Feature","geometry":{"type":"Point","coordinates":[109.167123,21.495295]},"properties":{"full_address":"广西壮族自治区北海市海城区高德街道开江村委会南珠大道小区"}},{"type":"Feature","geometry":{"type":"Point","coordinates":[109.144811,21.488268]},"properties":{"full_address":"广西壮族自治区北海市海城区高德街道上海中路社区上海路香槟郡"}},{"type":"Feature","geometry":{"type":"Point","coordinates":[109.168496,21.497399]},"properties":{"full_address":"广西壮族自治区北海市海城区高德街道开江村委会海江南"}},{"type":"Feature","geometry":{"type":"Point","coordinates":[109.099834,21.451477]},"properties":{"full_address":"广西壮族自治区北海市海城区驿马街道银湾社区星悦蓝湾小区"}},{"type":"Feature","geometry":{"type":"Point","coordinates":[109.127379,21.460986]},"properties":{"full_address":"广西壮族自治区北海市海城区驿马街道西塘社区京泰路华杰春秋源、泰盛花园"}},{"type":"Feature","geometry":{"type":"Point","coordinates":[109.10175,21.463]},"properties":{"full_address":"广西壮族自治区北海市海城区西街街道西藏路社区海伦堡阳光小区"}},{"type":"Feature","geometry":{"type":"Point","coordinates":[109.108575,21.449851]},"properties":{"full_address":"广西壮族自治区北海市海城区驿马街道白屋社区万和路穗清苑、万和园小区"}},{"type":"Feature","geometry":{"type":"Point","coordinates":[109.113542,21.458862]},"properties":{"full_address":"广西壮族自治区北海市海城区驿马街道白屋社区重庆路博雅花园"}},{"type":"Feature","geometry":{"type":"Point","coordinates":[109.126605,21.467239]},"properties":{"full_address":"广西壮族自治区北海市海城区驿马街道西塘社区北京路万胜公寓"}},{"type":"Feature","geometry":{"type":"Point","coordinates":[109.131562,21.464688]},"properties":{"full_address":"广西壮族自治区北海市海城区驿马街道西塘社区广东南路鸿鹏花园"}},{"type":"Feature","geometry":{"type":"Point","coordinates":[109.126962,21.465556]},"properties":{"full_address":"广西壮族自治区北海市海城区驿马街道西塘社区深港花园"}},{"type":"Feature","geometry":{"type":"Point","coordinates":[109.127131,21.459424]},"properties":{"full_address":"广西壮族自治区北海市海城区驿马街道西塘社区北京路川南明珠小区"}},{"type":"Feature","geometry":{"type":"Point","coordinates":[109.128921,21.463701]},"properties":{"full_address":"广西壮族自治区北海市海城区驿马街道西塘社区苏屋小区、海合小区"}},{"type":"Feature","geometry":{"type":"Point","coordinates":[109.117056,21.476124]},"properties":{"full_address":"广西壮族自治区北海市海城区中街街道塘仔里社区天赐花园"}},{"type":"Feature","geometry":{"type":"Point","coordinates":[109.129834,21.481625]},"properties":{"full_address":"广西壮族自治区北海市海城区东街街道政法路社区深圳西里一巷前后各三个巷子"}},{"type":"Feature","geometry":{"type":"Point","coordinates":[109.132042,21.46224]},"properties":{"full_address":"广西壮族自治区北海市海城区驿马街道西塘社区联勤公寓"}},{"type":"Feature","geometry":{"type":"Point","coordinates":[109.104455,21.476201]},"properties":{"full_address":"广西壮族自治区北海市海城区海角街道前进路社区渔轮厂宿舍"}},{"type":"Feature","geometry":{"type":"Point","coordinates":[109.108344,21.461467]},"properties":{"full_address":"广西壮族自治区北海市海城区西街街道云南南路社区贵州路50号石化小区"}},{"type":"Feature","geometry":{"type":"Point","coordinates":[109.132452,21.47707]},"properties":{"full_address":"广西壮族自治区北海市海城区东街街道铜鼓里社区铜鼓里东区、西区"}},{"type":"Feature","geometry":{"type":"Point","coordinates":[109.169008,21.488178]},"properties":{"full_address":"广西壮族自治区北海市海城区高德街道马栏村委会尚源东城和谐苑"}},{"type":"Feature","geometry":{"type":"Point","coordinates":[109.133319,21.475176]},"properties":{"full_address":"广西壮族自治区北海市海城区驿马街道铜鼓岭社区联通西里六巷华海小区"}},{"type":"Feature","geometry":{"type":"Point","coordinates":[109.104586,21.462003]},"properties":{"full_address":"广西壮族自治区北海市海城区西街街道云南南路社区皮肤医院宿舍"}},{"type":"Feature","geometry":{"type":"Point","coordinates":[109.115021,21.459569]},"properties":{"full_address":"广西壮族自治区北海市海城区驿马街道白屋社区四川路九洲城"}},{"type":"Feature","geometry":{"type":"Point","coordinates":[109.080246,21.477087]},"properties":{"full_address":"广西壮族自治区北海市海城区地角街道昆明路社区地角共和一路中区、西区"}},{"type":"Feature","geometry":{"type":"Point","coordinates":[109.14213,21.491876]},"properties":{"full_address":"广西壮族自治区北海市海城区高德街道上海北路社区海湾新城"}},{"type":"Feature","geometry":{"type":"Point","coordinates":[109.130846,21.475038]},"properties":{"full_address":"广西壮族自治区北海市海城区东街街道铜鼓里社区铜鼓里七巷"}},{"type":"Feature","geometry":{"type":"Point","coordinates":[109.111175,21.456148]},"properties":{"full_address":"广西壮族自治区北海市海城区驿马街道白屋社区贵州路唐屋村"}},{"type":"Feature","geometry":{"type":"Point","coordinates":[109.162284,21.497805]},"properties":{"full_address":"广西壮族自治区北海市海城区高德街道高农村委会高德新街南"}},{"type":"Feature","geometry":{"type":"Point","coordinates":[109.11205,21.478397]},"properties":{"full_address":"广西壮族自治区北海市海城区中街街道幸福里社区菜园里一巷至三巷"}},{"type":"Feature","geometry":{"type":"Point","coordinates":[109.095439,21.472649]},"properties":{"full_address":"广西壮族自治区北海市海城区海角街道树独根西社区云南路独树根西五巷"}},{"type":"Feature","geometry":{"type":"Point","coordinates":[109.114163,21.456944]},"properties":{"full_address":"广西壮族自治区北海市海城区驿马街道白屋社区十五小住宅小区"}},{"type":"Feature","geometry":{"type":"Point","coordinates":[109.120879,21.45228]},"properties":{"full_address":"广西壮族自治区北海市海城区驿马街道白屋社区站前路国际新城"}},{"type":"Feature","geometry":{"type":"Point","coordinates":[109.152567,21.495173]},"properties":{"full_address":"广西壮族自治区北海市海城区高德街道高菜村委会育才里"}},{"type":"Feature","geometry":{"type":"Point","coordinates":[109.11413,21.47921]},"properties":{"full_address":"广西壮族自治区北海市海城区中街街道幸福里社区文明路89至91号"}},{"type":"Feature","geometry":{"type":"Point","coordinates":[109.127588,21.466636]},"properties":{"full_address":"广西壮族自治区北海市海城区驿马街道西塘社区陈文村北路海玉小区"}},{"type":"Feature","geometry":{"type":"Point","coordinates":[109.111611,21.475157]},"properties":{"full_address":"广西壮族自治区北海市海城区西街街道平安街社区四川路渔业公司宿舍"}},{"type":"Feature","geometry":{"type":"Point","coordinates":[109.205788,21.661268]},"properties":{"full_address":"广西壮族自治区北海市海城区中街街道公园路社区公园路42至45号"}},{"type":"Feature","geometry":{"type":"Point","coordinates":[109.133318,21.455125]},"properties":{"full_address":"广西壮族自治区北海市海城区驿马街道西塘社区站前路星海颐园小区"}},{"type":"Feature","geometry":{"type":"Point","coordinates":[109.106644,21.453491]},"properties":{"full_address":"广西壮族自治区北海市海城区驿马街道白屋社区云南路107号景海豪庭"}},{"type":"Feature","geometry":{"type":"Point","coordinates":[109.080405,21.467617]},"properties":{"full_address":"广西壮族自治区北海市海城区地角街道昆明路社区听海一品"}},{"type":"Feature","geometry":{"type":"Point","coordinates":[109.134732,21.477035]},"properties":{"full_address":"广西壮族自治区北海市海城区驿马街道湖海路社区湖海中路一巷1号至5号"}},{"type":"Feature","geometry":{"type":"Point","coordinates":[109.140234,21.487942]},"properties":{"full_address":"广西壮族自治区北海市海城区东街街道黄海路社区东海街富逸花园"}},{"type":"Feature","geometry":{"type":"Point","coordinates":[109.080405,21.467617]},"properties":{"full_address":"广西壮族自治区北海市海城区地角街道昆明路社区三号南区"}},{"type":"Feature","geometry":{"type":"Point","coordinates":[109.13298,21.477701]},"properties":{"full_address":"广西壮族自治区北海市海城区东街街道铜鼓里社区工行宿舍（调整整个小区为高风险区）"}},{"type":"Feature","geometry":{"type":"Point","coordinates":[109.079848,21.464286]},"properties":{"full_address":"广西壮族自治区北海市海城区地角街道昆明路社区成都路2号永昶宿舍"}},{"type":"Feature","geometry":{"type":"Point","coordinates":[109.16544,21.457926]},"properties":{"full_address":"广西壮族自治区北海市海城区驿马街道驿马村委会牛角塘村"}},{"type":"Feature","geometry":{"type":"Point","coordinates":[109.168542,21.496096]},"properties":{"full_address":"广西壮族自治区北海市海城区高德街道开江村委会银信花园"}},{"type":"Feature","geometry":{"type":"Point","coordinates":[109.170037,21.504635]},"properties":{"full_address":"广西壮族自治区北海市海城区高德街道开江村委会亚叉岭村"}},{"type":"Feature","geometry":{"type":"Point","coordinates":[109.168652,21.46426]},"properties":{"full_address":"广西壮族自治区北海市海城区驿马街道驿马村委会福豪商住小区"}},{"type":"Feature","geometry":{"type":"Point","coordinates":[109.16544,21.457926]},"properties":{"full_address":"广西壮族自治区北海市海城区驿马街道驿马村委会三塘村"}},{"type":"Feature","geometry":{"type":"Point","coordinates":[109.129024,21.470366]},"properties":{"full_address":"广西壮族自治区北海市海城区驿马街道西塘社区中央华府"}},{"type":"Feature","geometry":{"type":"Point","coordinates":[109.139773,21.47706]},"properties":{"full_address":"广西壮族自治区北海市海城区驿马街道湖海路社区翟屋村"}},{"type":"Feature","geometry":{"type":"Point","coordinates":[109.138122,21.448701]},"properties":{"full_address":"广西壮族自治区北海市银海区银滩镇和兴村委细垌小区"}},{"type":"Feature","geometry":{"type":"Point","coordinates":[109.153203,21.418734]},"properties":{"full_address":"广西壮族自治区北海市银海区银滩镇北背岭回建区银新西二路42号"}},{"type":"Feature","geometry":{"type":"Point","coordinates":[109.22341,21.51259]},"properties":{"full_address":"广西壮族自治区北海市银海区平阳镇平阳村委五队"}},{"type":"Feature","geometry":{"type":"Point","coordinates":[109.160794,21.425305]},"properties":{"full_address":"广西壮族自治区北海市银海区银滩镇咸田村委原玻璃厂宿舍区"}},{"type":"Feature","geometry":{"type":"Point","coordinates":[109.12434,21.421011]},"properties":{"full_address":"广西壮族自治区北海市银海区侨港镇半岛小区"}},{"type":"Feature","geometry":{"type":"Point","coordinates":[109.141592,21.443646]},"properties":{"full_address":"广西壮族自治区北海市银海区银滩镇乾坤国际城小区"}},{"type":"Feature","geometry":{"type":"Point","coordinates":[109.13967,21.446713]},"properties":{"full_address":"广西壮族自治区北海市银海区银滩镇镒建世纪城小区"}},{"type":"Feature","geometry":{"type":"Point","coordinates":[109.131994,21.445811]},"properties":{"full_address":"广西壮族自治区北海市银海区银滩镇海兴社区嘉盛名都小区"}},{"type":"Feature","geometry":{"type":"Point","coordinates":[109.152385,21.438171]},"properties":{"full_address":"广西壮族自治区北海市银海区银滩镇浙江路公租房小区"}},{"type":"Feature","geometry":{"type":"Point","coordinates":[109.139566,21.428961]},"properties":{"full_address":"广西壮族自治区北海市银海区银滩镇杭州路廉租房小区"}},{"type":"Feature","geometry":{"type":"Point","coordinates":[109.152385,21.438171]},"properties":{"full_address":"广西壮族自治区北海市银海区银滩镇江苏路公租房小区"}},{"type":"Feature","geometry":{"type":"Point","coordinates":[109.131815,21.443066]},"properties":{"full_address":"广西壮族自治区北海市银海区银滩镇桐洋家园小区"}},{"type":"Feature","geometry":{"type":"Point","coordinates":[109.128473,21.442935]},"properties":{"full_address":"广西壮族自治区北海市银海区银滩镇九州家园南区"}},{"type":"Feature","geometry":{"type":"Point","coordinates":[109.162267,21.431616]},"properties":{"full_address":"广西壮族自治区北海市银海区银滩镇恒大名都小区"}},{"type":"Feature","geometry":{"type":"Point","coordinates":[109.132755,21.426736]},"properties":{"full_address":"广西壮族自治区北海市银海区银滩镇万泉城1区"}},{"type":"Feature","geometry":{"type":"Point","coordinates":[109.133056,21.440738]},"properties":{"full_address":"广西壮族自治区北海市银海区银滩镇茗桂园小区"}},{"type":"Feature","geometry":{"type":"Point","coordinates":[109.132821,21.448741]},"properties":{"full_address":"广西壮族自治区北海市银海区银滩镇新世纪住宅小区"}},{"type":"Feature","geometry":{"type":"Point","coordinates":[109.155512,21.426366]},"properties":{"full_address":"广西壮族自治区北海市银海区银滩镇北背岭村委昊海梧桐小区"}},{"type":"Feature","geometry":{"type":"Point","coordinates":[109.140088,21.43613]},"properties":{"full_address":"广西壮族自治区北海市银海区银滩镇兴海小区C39栋、C10栋、C18栋"}},{"type":"Feature","geometry":{"type":"Point","coordinates":[109.134488,21.439839]},"properties":{"full_address":"广西壮族自治区北海市银海区银滩镇海兴社区碧海华庭小区"}},{"type":"Feature","geometry":{"type":"Point","coordinates":[109.139526,21.441066]},"properties":{"full_address":"广西壮族自治区北海市银海区银滩镇天赐良缘小区"}},{"type":"Feature","geometry":{"type":"Point","coordinates":[109.139526,21.441066]},"properties":{"full_address":"广西壮族自治区北海市银海区银滩镇弘业海景广场小区"}},{"type":"Feature","geometry":{"type":"Point","coordinates":[109.120483,21.43965]},"properties":{"full_address":"广西壮族自治区北海市银海区银滩镇汇海雅居小区"}},{"type":"Feature","geometry":{"type":"Point","coordinates":[109.156697,21.418886]},"properties":{"full_address":"广西壮族自治区北海市银海区银滩镇祥光花园小区"}},{"type":"Feature","geometry":{"type":"Point","coordinates":[109.137286,21.428365]},"properties":{"full_address":"广西壮族自治区北海市银海区银滩镇海韵家园小区"}},{"type":"Feature","geometry":{"type":"Point","coordinates":[109.124519,21.433333]},"properties":{"full_address":"广西壮族自治区北海市银海区银滩镇和平村委和平小区"}},{"type":"Feature","geometry":{"type":"Point","coordinates":[109.155172,21.455768]},"properties":{"full_address":"广西壮族自治区北海市银海区银滩镇阳光蓝洲花园小区"}},{"type":"Feature","geometry":{"type":"Point","coordinates":[109.131472,21.442141]},"properties":{"full_address":"广西壮族自治区北海市银海区银滩镇恒生嘉园小区"}},{"type":"Feature","geometry":{"type":"Point","coordinates":[109.140278,21.450681]},"properties":{"full_address":"广西壮族自治区北海市银海区银滩镇和兴园小区"}},{"type":"Feature","geometry":{"type":"Point","coordinates":[109.156697,21.418886]},"properties":{"full_address":"广西壮族自治区北海市银海区银滩镇皇都花园小区"}},{"type":"Feature","geometry":{"type":"Point","coordinates":[109.109852,21.444903]},"properties":{"full_address":"广西壮族自治区北海市银海区银滩镇贵兴社区鑫盛花园小区"}},{"type":"Feature","geometry":{"type":"Point","coordinates":[109.119266,21.444087]},"properties":{"full_address":"广西壮族自治区北海市银海区银滩镇贵兴社区银州南寨小区"}},{"type":"Feature","geometry":{"type":"Point","coordinates":[109.138122,21.448701]},"properties":{"full_address":"广西壮族自治区北海市银海区银滩镇和兴村委碧园海公馆"}},{"type":"Feature","geometry":{"type":"Point","coordinates":[109.117451,21.434235]},"properties":{"full_address":"广西壮族自治区北海市银海区银滩镇和平村委岳麓海岸小区"}},{"type":"Feature","geometry":{"type":"Point","coordinates":[109.142906,21.427333]},"properties":{"full_address":"广西壮族自治区北海市银海区银滩镇海兴社区居委会圣美阳光家园"}},{"type":"Feature","geometry":{"type":"Point","coordinates":[109.142517,21.434783]},"properties":{"full_address":"广西壮族自治区北海市银海区银滩镇和兴社区碧海湾小区"}},{"type":"Feature","geometry":{"type":"Point","coordinates":[109.114377,21.444802]},"properties":{"full_address":"广西壮族自治区北海市银海区银滩镇贵兴社区龙珠新村e区"}},{"type":"Feature","geometry":{"type":"Point","coordinates":[109.139526,21.441066]},"properties":{"full_address":"广西壮族自治区北海市银海区银滩镇海兴社区居委会桂海小区"}},{"type":"Feature","geometry":{"type":"Point","coordinates":[109.156697,21.418886]},"properties":{"full_address":"广西壮族自治区北海市银海区银滩镇疍家小镇"}},{"type":"Feature","geometry":{"type":"Point","coordinates":[109.100529,21.436857]},"properties":{"full_address":"广西壮族自治区北海市银海区银滩镇沙湾回建小区"}},{"type":"Feature","geometry":{"type":"Point","coordinates":[109.133761,21.434707]},"properties":{"full_address":"广西壮族自治区北海市银海区银滩镇上江尾村"}},{"type":"Feature","geometry":{"type":"Point","coordinates":[109.120358,21.441041]},"properties":{"full_address":"广西壮族自治区北海市银海区银滩镇和平村委侨建新村"}},{"type":"Feature","geometry":{"type":"Point","coordinates":[109.107517,21.433746]},"properties":{"full_address":"广西壮族自治区北海市银海区银滩镇和平村委烟西村"}},{"type":"Feature","geometry":{"type":"Point","coordinates":[109.107517,21.433746]},"properties":{"full_address":"广西壮族自治区北海市银海区银滩镇和平村委梁屋村"}},{"type":"Feature","geometry":{"type":"Point","coordinates":[109.138122,21.448701]},"properties":{"full_address":"广西壮族自治区北海市银海区银滩镇和兴村委大江村"}},{"type":"Feature","geometry":{"type":"Point","coordinates":[109.138122,21.448701]},"properties":{"full_address":"广西壮族自治区北海市银海区银滩镇和兴村委三唐村"}},{"type":"Feature","geometry":{"type":"Point","coordinates":[109.129498,21.448992]},"properties":{"full_address":"广西壮族自治区北海市银海区银滩镇和兴村委禾塘新村"}},{"type":"Feature","geometry":{"type":"Point","coordinates":[109.143854,21.413128]},"properties":{"full_address":"广西壮族自治区北海市银海区银滩镇咸田村委会西边村"}},{"type":"Feature","geometry":{"type":"Point","coordinates":[109.160794,21.425305]},"properties":{"full_address":"广西壮族自治区北海市银海区银滩镇咸田村委沙渔湾村"}},{"type":"Feature","geometry":{"type":"Point","coordinates":[109.160794,21.425305]},"properties":{"full_address":"广西壮族自治区北海市银海区银滩镇咸田村委高沙龙村"}},{"type":"Feature","geometry":{"type":"Point","coordinates":[109.1762,21.439201]},"properties":{"full_address":"广西壮族自治区北海市银海区银滩镇曲湾村委捻塘村"}},{"type":"Feature","geometry":{"type":"Point","coordinates":[109.1762,21.439201]},"properties":{"full_address":"广西壮族自治区北海市银海区银滩镇曲湾村委撑排路、小曲湾村、古城岭村"}},{"type":"Feature","geometry":{"type":"Point","coordinates":[109.19626,21.419682]},"properties":{"full_address":"广西壮族自治区北海市银海区银滩镇下村村委下村"}},{"type":"Feature","geometry":{"type":"Point","coordinates":[109.198486,21.441105]},"properties":{"full_address":"广西壮族自治区北海市银海区银滩镇龙潭村委龙潭村1队"}},{"type":"Feature","geometry":{"type":"Point","coordinates":[109.198486,21.441105]},"properties":{"full_address":"广西壮族自治区北海市银海区银滩镇龙潭村委9队、6队"}},{"type":"Feature","geometry":{"type":"Point","coordinates":[109.139074,21.416737]},"properties":{"full_address":"广西壮族自治区北海市银海区银滩镇海泰别墅诗海主题酒店"}},{"type":"Feature","geometry":{"type":"Point","coordinates":[109.11766,21.418507]},"properties":{"full_address":"广西壮族自治区北海市银海区侨港镇电建东二巷133号-136号"}},{"type":"Feature","geometry":{"type":"Point","coordinates":[109.223945,21.611078]},"properties":{"full_address":"广西壮族自治区北海市银海区平阳镇三合口农场马栏分场"}},{"type":"Feature","geometry":{"type":"Point","coordinates":[109.20899,21.499868]},"properties":{"full_address":"广西壮族自治区北海市银海区平阳镇平阳村吴氏农场"}},{"type":"Feature","geometry":{"type":"Point","coordinates":[109.22341,21.51259]},"properties":{"full_address":"广西壮族自治区北海市银海区平阳镇平阳村委平阳村8队、9队、10队"}},{"type":"Feature","geometry":{"type":"Point","coordinates":[109.332412,21.572654]},"properties":{"full_address":"广西壮族自治区北海市银海区福成镇福成村委新建四街"}},{"type":"Feature","geometry":{"type":"Point","coordinates":[109.332771,21.571358]},"properties":{"full_address":"广西壮族自治区北海市银海区福成镇福成村委福康一里"}},{"type":"Feature","geometry":{"type":"Point","coordinates":[109.314789,21.584062]},"properties":{"full_address":"广西壮族自治区北海市银海区福成镇福成村委沙虫江村"}},{"type":"Feature","geometry":{"type":"Point","coordinates":[109.371395,21.557702]},"properties":{"full_address":"广西壮族自治区北海市银海区福成镇红镜塘村委东本塘村"}},{"type":"Feature","geometry":{"type":"Point","coordinates":[109.371395,21.557702]},"properties":{"full_address":"广西壮族自治区北海市银海区福成镇红镜塘村委大彬斗村"}},{"type":"Feature","geometry":{"type":"Point","coordinates":[109.193968,21.438707]},"properties":{"full_address":"广西壮族自治区北海市银海区福成镇红旗村委6队"}},{"type":"Feature","geometry":{"type":"Point","coordinates":[109.302244,21.511713]},"properties":{"full_address":"广西壮族自治区北海市银海区福成镇宁海村委下佳塘村"}},{"type":"Feature","geometry":{"type":"Point","coordinates":[109.265098,21.455732]},"properties":{"full_address":"广西壮族自治区北海市银海区福成镇西村5队"}},{"type":"Feature","geometry":{"type":"Point","coordinates":[109.273538,21.487272]},"properties":{"full_address":"广西壮族自治区北海市银海区福成镇大坎村委小坎村"}},{"type":"Feature","geometry":{"type":"Point","coordinates":[109.356184,21.664986]},"properties":{"full_address":"广西壮族自治区北海市银海区福成镇松明村委塘督村"}},{"type":"Feature","geometry":{"type":"Point","coordinates":[109.119516,21.444479]},"properties":{"full_address":"广西壮族自治区北海市银海区银滩镇贵兴社区贵兴市场丽华小区"}},{"type":"Feature","geometry":{"type":"Point","coordinates":[109.142536,21.447644]},"properties":{"full_address":"广西壮族自治区北海市银海区银滩镇和兴村委东峰世纪公寓"}},{"type":"Feature","geometry":{"type":"Point","coordinates":[109.433567,21.885625]},"properties":{"full_address":"广西壮族自治区北海市合浦县常乐镇皇后村委会中四队"}},{"type":"Feature","geometry":{"type":"Point","coordinates":[109.606866,21.762133]},"properties":{"full_address":"广西壮族自治区北海市合浦县公馆镇浪坡村麻老角林某玉住房片区"}},{"type":"Feature","geometry":{"type":"Point","coordinates":[109.156217,21.572773]},"properties":{"full_address":"广西壮族自治区北海市合浦县廉州镇烟楼村委水儿村三组"}},{"type":"Feature","geometry":{"type":"Point","coordinates":[109.479117,21.890236]},"properties":{"full_address":"广西壮族自治区北海市合浦县公馆镇香山村委会掌塘村（梁某萍）"}},{"type":"Feature","geometry":{"type":"Point","coordinates":[107.071087,22.12391]},"properties":{"full_address":"广西壮族自治区崇左市宁明县城中镇华盛小区4栋一单元"}},{"type":"Feature","geometry":{"type":"Point","coordinates":[107.070887,22.10325]},"properties":{"full_address":"广西壮族自治区崇左市宁明县城中镇浦瓜村浦瓜屯篮球场以东，城中镇浦瓜村浦瓜屯村道以西，城中镇浦瓜村浦瓜屯120号以南，城中镇浦瓜村浦瓜屯129号以北合围之处"}},{"type":"Feature","geometry":{"type":"Point","coordinates":[107.05263,22.125426]},"properties":{"full_address":"广西壮族自治区崇左市宁明县城中镇凤翼路西六里"}},{"type":"Feature","geometry":{"type":"Point","coordinates":[107.033581,21.819994]},"properties":{"full_address":"广西壮族自治区崇左市宁明县爱店镇马路街1-27号、29-170号"}},{"type":"Feature","geometry":{"type":"Point","coordinates":[107.070413,21.820367]},"properties":{"full_address":"广西壮族自治区崇左市宁明县爱店镇和平大道1号、3-8号、10-79号、81-100号"}},{"type":"Feature","geometry":{"type":"Point","coordinates":[107.032849,21.820254]},"properties":{"full_address":"广西壮族自治区崇左市宁明县爱店镇正街1-126号、二区（正街）127-153号"}},{"type":"Feature","geometry":{"type":"Point","coordinates":[107.0359,21.819257]},"properties":{"full_address":"广西壮族自治区崇左市宁明县爱店镇金牛路1号、3-45号"}},{"type":"Feature","geometry":{"type":"Point","coordinates":[107.035422,21.818664]},"properties":{"full_address":"广西壮族自治区崇左市宁明县爱店镇市场路（含）、福兴路、睦平路、政和路、文化路、边贸路、水井龙1-2巷、香港路"}},{"type":"Feature","geometry":{"type":"Point","coordinates":[107.03834,21.82046]},"properties":{"full_address":"广西壮族自治区崇左市宁明县爱店镇云天边贸城"}},{"type":"Feature","geometry":{"type":"Point","coordinates":[106.830771,22.855625]},"properties":{"full_address":"广西壮族自治区崇左市大新县硕龙镇义显村琴屯"}},{"type":"Feature","geometry":{"type":"Point","coordinates":[107.316573,22.894174]},"properties":{"full_address":"广西壮族自治区崇左市大新县下雷镇下雷社区（1.镇南街2号—镇南街83号，镇南街85号—一心堂药店，镇南街112号—镇南街256号；2.中汉街1号—中汉街110号，中汉街112号—中汉街188号；3.海迪餐馆三岔路口—中石化加油站三岔路口；4.大锰桥头—锰矿生活区大门卡点；5.下雷镇街END—中石化加油站三岔路口；6.锰矿生活区）"}},{"type":"Feature","geometry":{"type":"Point","coordinates":[106.749615,22.876004]},"properties":{"full_address":"广西壮族自治区崇左市大新县下雷镇仁益村下吞屯"}},{"type":"Feature","geometry":{"type":"Point","coordinates":[106.749615,22.876004]},"properties":{"full_address":"广西壮族自治区崇左市大新县下雷镇仁益村弄益屯"}},{"type":"Feature","geometry":{"type":"Point","coordinates":[106.73032,22.85072]},"properties":{"full_address":"广西壮族自治区崇左市大新县德天瀑布景区"}},{"type":"Feature","geometry":{"type":"Point","coordinates":[103.984028,30.672069]},"properties":{"full_address":"四川省成都市青羊区苏坡街道苏坡中路77号院1、7、9栋（苏坡中路77号）"}},{"type":"Feature","geometry":{"type":"Point","coordinates":[104.082861,30.68958]},"properties":{"full_address":"四川省成都市金牛区驷马桥街道田家巷15号尚锦城1-3栋"}},{"type":"Feature","geometry":{"type":"Point","coordinates":[104.120063,30.679998]},"properties":{"full_address":"四川省成都市成华区府青路街道关家苑2-8栋（二仙桥南一路11号），包括楼栋底层商户"}},{"type":"Feature","geometry":{"type":"Point","coordinates":[104.118526,30.681475]},"properties":{"full_address":"四川省成都市成华区府青路街道祥和苑6栋(文德路231号)"}},{"type":"Feature","geometry":{"type":"Point","coordinates":[104.117784,30.678792]},"properties":{"full_address":"四川省成都市成华区府青路街道建设北路三段233号及小区入口一楼商铺"}},{"type":"Feature","geometry":{"type":"Point","coordinates":[104.118037,30.680561]},"properties":{"full_address":"四川省成都市成华区府青路街道小新华苑(二仙桥南一路2号)"}},{"type":"Feature","geometry":{"type":"Point","coordinates":[104.118859,30.680609]},"properties":{"full_address":"四川省成都市成华区府青路街道大新华苑(二仙桥南一路1号)"}},{"type":"Feature","geometry":{"type":"Point","coordinates":[104.116911,30.68031]},"properties":{"full_address":"四川省成都市成华区府青路街道锦绣上城1栋（桃华街88号）"}},{"type":"Feature","geometry":{"type":"Point","coordinates":[104.117535,30.681945]},"properties":{"full_address":"四川省成都市成华区府青路街道成电花园3栋（文德路211号）"}},{"type":"Feature","geometry":{"type":"Point","coordinates":[104.117574,30.680957]},"properties":{"full_address":"四川省成都市成华区府青路街道祥和苑西区（二仙桥南一路36号）"}},{"type":"Feature","geometry":{"type":"Point","coordinates":[104.108819,30.677026]},"properties":{"full_address":"四川省成都市成华区府青路街道天伦花园4栋（二环路东一段68号）"}},{"type":"Feature","geometry":{"type":"Point","coordinates":[104.118738,30.679829]},"properties":{"full_address":"四川省成都市成华区府青路街道五交化宿舍及楼下商铺（二仙桥南一路3号）"}},{"type":"Feature","geometry":{"type":"Point","coordinates":[104.090854,30.646877]},"properties":{"full_address":"四川省成都市成华区府青路街道碧桂园中环荟3栋，包括楼栋底层商户"}},{"type":"Feature","geometry":{"type":"Point","coordinates":[104.109671,30.680952]},"properties":{"full_address":"四川省成都市成华区府青路街道瀚林花园20栋(二环路东一段28号)"}},{"type":"Feature","geometry":{"type":"Point","coordinates":[104.173916,30.694476]},"properties":{"full_address":"四川省成都市成华区龙潭街道龙锦雅苑12栋(华彩路16号)"}},{"type":"Feature","geometry":{"type":"Point","coordinates":[104.135596,30.621051]},"properties":{"full_address":"四川省成都市成华区保和街道东汇家园3栋（龙泉山路111号）"}},{"type":"Feature","geometry":{"type":"Point","coordinates":[104.119946,30.679016]},"properties":{"full_address":"四川省成都市成华区府青路街道澳深▪天健园（建设北路三段259号），包括楼栋底层商户"}},{"type":"Feature","geometry":{"type":"Point","coordinates":[104.115281,30.679577]},"properties":{"full_address":"四川省成都市成华区府青路街道博闻时代锦汇华庭（双建路45号），包括楼栋底层商户"}},{"type":"Feature","geometry":{"type":"Point","coordinates":[104.16775,30.693839]},"properties":{"full_address":"四川省成都市成华区龙潭街道东方丽苑2栋及底商（成宏路1号)"}},{"type":"Feature","geometry":{"type":"Point","coordinates":[104.115619,30.677038]},"properties":{"full_address":"四川省成都市成华区跳蹬河街道银玺国际1栋及底商（建设北路三段26号）"}},{"type":"Feature","geometry":{"type":"Point","coordinates":[104.117537,30.701868]},"properties":{"full_address":"四川省成都市成华区青龙街道领地海纳时代7栋及底商(致力路566号)"}},{"type":"Feature","geometry":{"type":"Point","coordinates":[104.104944,30.668066]},"properties":{"full_address":"四川省成都市成华区猛追湾街道高地8栋及底商（建设南路15号)"}},{"type":"Feature","geometry":{"type":"Point","coordinates":[104.114367,30.679977]},"properties":{"full_address":"四川省成都市成华区府青路街道双建路60号及底商"}},{"type":"Feature","geometry":{"type":"Point","coordinates":[104.114947,30.682299]},"properties":{"full_address":"四川省成都市成华区府青路街道明信花园8栋及底商（桃源街40号)"}},{"type":"Feature","geometry":{"type":"Point","coordinates":[104.114086,30.677943]},"properties":{"full_address":"四川省成都市成华区府青路街道东方明珠花园东区及底商(双建路8号)"}},{"type":"Feature","geometry":{"type":"Point","coordinates":[104.115916,30.683486]},"properties":{"full_address":"四川省成都市成华区府青路街道文德巷3号院及底商"}},{"type":"Feature","geometry":{"type":"Point","coordinates":[104.116625,30.685017]},"properties":{"full_address":"四川省成都市成华区府青路街道金珠苑及底商（二仙桥西一巷2号)"}},{"type":"Feature","geometry":{"type":"Point","coordinates":[104.139383,30.687989]},"properties":{"full_address":"四川省成都市成华区二仙桥街道民兴苑1栋及底商(人民塘东二路39号)"}},{"type":"Feature","geometry":{"type":"Point","coordinates":[104.110282,30.685405]},"properties":{"full_address":"四川省成都市成华区府青路街道新风路46号1-2栋及底商"}},{"type":"Feature","geometry":{"type":"Point","coordinates":[104.105664,30.689614]},"properties":{"full_address":"四川省成都市成华区府青路街道蓉府尚座⒉栋(新风路330号)"}},{"type":"Feature","geometry":{"type":"Point","coordinates":[104.118607,30.678928]},"properties":{"full_address":"四川省成都市成华区府青路街道天然居1-4栋及底商(二仙桥南一路20号)"}},{"type":"Feature","geometry":{"type":"Point","coordinates":[104.112572,30.682646]},"properties":{"full_address":"四川省成都市成华区府青路街道明苑及底商(双建路300号)"}},{"type":"Feature","geometry":{"type":"Point","coordinates":[104.108834,30.689016]},"properties":{"full_address":"四川省成都市成华区府青路街道机车苑1-10栋及底商(新风路131号)"}},{"type":"Feature","geometry":{"type":"Point","coordinates":[104.162542,30.701646]},"properties":{"full_address":"四川省成都市成华区龙潭街道上东国际⒉栋(龙树路1号)"}},{"type":"Feature","geometry":{"type":"Point","coordinates":[104.117527,30.685381]},"properties":{"full_address":"四川省成都市成华区府青路街道玉锦华庭1-4栋及底商(二仙桥西一巷6号)"}},{"type":"Feature","geometry":{"type":"Point","coordinates":[104.113585,30.680829]},"properties":{"full_address":"四川省成都市成华区府青路街道华西苑及底商(双建路92号)"}},{"type":"Feature","geometry":{"type":"Point","coordinates":[104.126182,30.67987]},"properties":{"full_address":"四川省成都市成华区二仙桥街道晴和苑5栋(建设北路三段496号)"}},{"type":"Feature","geometry":{"type":"Point","coordinates":[104.12962,30.666894]},"properties":{"full_address":"四川省成都市成华区跳蹬河街道崔家店北一路6号"}},{"type":"Feature","geometry":{"type":"Point","coordinates":[104.116394,30.679292]},"properties":{"full_address":"四川省成都市成华区府青路街道成功悦都1-3栋及底商（双建路7号）"}},{"type":"Feature","geometry":{"type":"Point","coordinates":[104.126082,30.686867]},"properties":{"full_address":"四川省成都市成华区二仙桥街道泰博理想城二期1栋、5栋及底商（仙韵巷66号）"}},{"type":"Feature","geometry":{"type":"Point","coordinates":[104.10523,30.687805]},"properties":{"full_address":"四川省成都市成华区府青路街道浅水半岛C区及底商（欣然二街66号)"}},{"type":"Feature","geometry":{"type":"Point","coordinates":[104.168618,30.718573]},"properties":{"full_address":"四川省成都市成华区龙潭街道北湖印象三期8栋（成华区龙潭街道同乐社区同乐巷）"}},{"type":"Feature","geometry":{"type":"Point","coordinates":[104.274227,30.729833]},"properties":{"full_address":"四川省成都市新都区石板滩街道外滩逸景小区 2 栋"}},{"type":"Feature","geometry":{"type":"Point","coordinates":[104.151389,30.753549]},"properties":{"full_address":"四川省成都市新都区三河街道保利·紫荆花语 3 栋"}},{"type":"Feature","geometry":{"type":"Point","coordinates":[103.92656,30.597735]},"properties":{"full_address":"四川省成都市双流区东升街道远大林语城南庭26栋、27栋（含底层商铺）"}},{"type":"Feature","geometry":{"type":"Point","coordinates":[104.066957,30.473016]},"properties":{"full_address":"四川省成都市天府新区华阳街道复地御香山3期76栋（含底层商铺）"}},{"type":"Feature","geometry":{"type":"Point","coordinates":[104.201357,31.22336]},"properties":{"full_address":"四川省德阳市绵竹市新市镇长宁村1组23号、24号、25号、26号，长宁村2组30号、31号、32号、33号"}},{"type":"Feature","geometry":{"type":"Point","coordinates":[103.826129,36.068239]},"properties":{"full_address":"甘肃省兰州市城关区草场街街道元森石榴园"}},{"type":"Feature","geometry":{"type":"Point","coordinates":[103.866,36.057]},"properties":{"full_address":"甘肃省兰州市城关区雁南街道南河路大雁滩村自建房片区（南河路以北、雁西路以西、雁南路以南、警察学院家属院以东)"}},{"type":"Feature","geometry":{"type":"Point","coordinates":[103.876986,36.053304]},"properties":{"full_address":"甘肃省兰州市城关区雁南街道张苏滩自建房片区"}},{"type":"Feature","geometry":{"type":"Point","coordinates":[103.879787,36.051431]},"properties":{"full_address":"甘肃省兰州市城关区雁南街道华英小区"}},{"type":"Feature","geometry":{"type":"Point","coordinates":[103.884155,36.049595]},"properties":{"full_address":"甘肃省兰州市城关区拱星墩街道南河庭院"}},{"type":"Feature","geometry":{"type":"Point","coordinates":[103.831201,36.079424]},"properties":{"full_address":"甘肃省兰州市城关区草场街街道瑞安小区"}},{"type":"Feature","geometry":{"type":"Point","coordinates":[103.845494,36.043733]},"properties":{"full_address":"甘肃省兰州市城关区铁路东村街道何家庄西街水泵厂小区"}},{"type":"Feature","geometry":{"type":"Point","coordinates":[103.840838,36.049512]},"properties":{"full_address":"甘肃省兰州市城关区雁南街道IU酒店"}},{"type":"Feature","geometry":{"type":"Point","coordinates":[103.800802,36.060612]},"properties":{"full_address":"甘肃省兰州市城关区广武门街道32-42双号小区"}},{"type":"Feature","geometry":{"type":"Point","coordinates":[103.824917,36.047975]},"properties":{"full_address":"甘肃省兰州市城关区酒泉路街道鼓楼巷南方小张菜铺"}},{"type":"Feature","geometry":{"type":"Point","coordinates":[103.875974,36.052047]},"properties":{"full_address":"甘肃省兰州市城关区雁南街道张苏滩鸿辉宾馆"}},{"type":"Feature","geometry":{"type":"Point","coordinates":[103.830221,36.044935]},"properties":{"full_address":"甘肃省兰州市城关区白银路街道省建材家属院"}},{"type":"Feature","geometry":{"type":"Point","coordinates":[103.836385,36.047147]},"properties":{"full_address":"甘肃省兰州市城关区皋兰路街道（金昌南路以东、广场南路以南、皋兰路以西、民主西路以北）詹家拐子87号区域"}},{"type":"Feature","geometry":{"type":"Point","coordinates":[103.86067,36.035959]},"properties":{"full_address":"甘肃省兰州市城关区团结新村街道红星巷社区全域"}},{"type":"Feature","geometry":{"type":"Point","coordinates":[103.860898,36.069521]},"properties":{"full_address":"甘肃省兰州市城关区雁南街道滩尖子片区（雁滩公园以北、南滨河东路以东、天水北路以西、团结路以南）（格林庭院、欣月湖小区、花园小区、滩尖子413号区域）"}},{"type":"Feature","geometry":{"type":"Point","coordinates":[103.843333,36.047901]},"properties":{"full_address":"甘肃省兰州市城关区白银路街道王马巷区域（白银路以北、永昌南路以东、正宁路以西、甘南路以南）"}},{"type":"Feature","geometry":{"type":"Point","coordinates":[103.84374,36.040017]},"properties":{"full_address":"甘肃省兰州市城关区铁路东村街道仁恒国际"}},{"type":"Feature","geometry":{"type":"Point","coordinates":[103.907284,36.038475]},"properties":{"full_address":"甘肃省兰州市城关区东岗街道东片区（东岗东路以北、甸子街以东、南河南路-黄河以南、大西北板材市场以西）"}},{"type":"Feature","geometry":{"type":"Point","coordinates":[103.830732,36.059158]},"properties":{"full_address":"甘肃省兰州市城关区临夏路街道西城巷社区区域（武都路以北、中山路以东、永昌中路以西、张掖路以南）"}},{"type":"Feature","geometry":{"type":"Point","coordinates":[103.81765,36.055284]},"properties":{"full_address":"甘肃省兰州市城关区白银路街道柏道路区域（白银路以北、中山路以东、永昌南路以西、庆阳路以南）"}},{"type":"Feature","geometry":{"type":"Point","coordinates":[103.826924,36.050605]},"properties":{"full_address":"甘肃省兰州市城关区酒泉路街道酒泉路130号宴喜楼美食城"}},{"type":"Feature","geometry":{"type":"Point","coordinates":[103.868407,36.039548]},"properties":{"full_address":"甘肃省兰州市城关区团结新村街道定西路5号小区"}},{"type":"Feature","geometry":{"type":"Point","coordinates":[103.910748,36.103628]},"properties":{"full_address":"甘肃省兰州市城关区青白石街道海德郡3号院北苑"}},{"type":"Feature","geometry":{"type":"Point","coordinates":[103.819982,36.059885]},"properties":{"full_address":"甘肃省兰州市城关区临夏路街道（兰大二院以东、张掖路以北、永昌北路以西、南滨河东路以南）紫金大厦、永昌路331-337号、木塔巷32-34栋、木塔巷9-15号区域"}},{"type":"Feature","geometry":{"type":"Point","coordinates":[104.024553,35.99018]},"properties":{"full_address":"甘肃省兰州市榆中县高新区定远镇蒋家营村三社"}},{"type":"Feature","geometry":{"type":"Point","coordinates":[104.187767,36.523309]},"properties":{"full_address":"甘肃省白银市白银区银光新立小区所有楼栋（含甘肃陇源邦农生鲜服务有限公司新立小区店、银光广场德生堂药店，具体为支三路以东、南环路以南、新立小区东门以西、新立小区南围墙以北）"}},{"type":"Feature","geometry":{"type":"Point","coordinates":[104.189911,36.531346]},"properties":{"full_address":"甘肃省白银市白银区银光集贸市场（含外围商铺）"}},{"type":"Feature","geometry":{"type":"Point","coordinates":[104.180911,36.534941]},"properties":{"full_address":"甘肃省白银市白银区农副产品批发市场（含外围商铺，具体为强湾路以东、民勤路以南、农副产品批发市场东围墙以西、农副产品批发市场南围墙以北）"}},{"type":"Feature","geometry":{"type":"Point","coordinates":[104.188561,36.54121]},"properties":{"full_address":"甘肃省白银市白银区馨园小区（含外围商铺）"}},{"type":"Feature","geometry":{"type":"Point","coordinates":[103.858962,35.396202]},"properties":{"full_address":"甘肃省定西市临洮县文峰西路12号"}},{"type":"Feature","geometry":{"type":"Point","coordinates":[103.855455,35.387435]},"properties":{"full_address":"甘肃省定西市临洮县洮阳镇金林佳苑小区15号楼"}},{"type":"Feature","geometry":{"type":"Point","coordinates":[103.853104,35.385177]},"properties":{"full_address":"甘肃省定西市临洮县阳光水岸小区14号楼"}},{"type":"Feature","geometry":{"type":"Point","coordinates":[103.799468,35.540439]},"properties":{"full_address":"甘肃省临夏回族自治州广河县齐家镇上马家村"}},{"type":"Feature","geometry":{"type":"Point","coordinates":[103.564555,35.484866]},"properties":{"full_address":"甘肃省临夏回族自治州广河县城关镇河北社区"}},{"type":"Feature","geometry":{"type":"Point","coordinates":[103.569923,35.481379]},"properties":{"full_address":"甘肃省临夏回族自治州广河县城关镇西街社区"}},{"type":"Feature","geometry":{"type":"Point","coordinates":[103.529508,35.47333]},"properties":{"full_address":"甘肃省临夏回族自治州广河县城关镇大杨家村"}},{"type":"Feature","geometry":{"type":"Point","coordinates":[103.571448,35.481986]},"properties":{"full_address":"甘肃省临夏回族自治州广河县城关镇西关村"}},{"type":"Feature","geometry":{"type":"Point","coordinates":[103.639287,35.493702]},"properties":{"full_address":"甘肃省临夏回族自治州广河县祁家集镇黄赵家村"}},{"type":"Feature","geometry":{"type":"Point","coordinates":[103.649995,35.498014]},"properties":{"full_address":"甘肃省临夏回族自治州广河县祁家集镇徐牟家村"}},{"type":"Feature","geometry":{"type":"Point","coordinates":[103.675435,35.50495]},"properties":{"full_address":"甘肃省临夏回族自治州广河县祁家集镇祁家集村"}},{"type":"Feature","geometry":{"type":"Point","coordinates":[103.701163,35.520321]},"properties":{"full_address":"甘肃省临夏回族自治州广河县祁家集镇高家村"}},{"type":"Feature","geometry":{"type":"Point","coordinates":[103.703983,35.494587]},"properties":{"full_address":"甘肃省临夏回族自治州广河县祁家集镇李家湾村"}},{"type":"Feature","geometry":{"type":"Point","coordinates":[103.836649,35.482313]},"properties":{"full_address":"甘肃省临夏回族自治州广河县齐家镇排子坪村"}},{"type":"Feature","geometry":{"type":"Point","coordinates":[103.776725,35.5763]},"properties":{"full_address":"甘肃省临夏回族自治州广河县三甲集镇水家村"}},{"type":"Feature","geometry":{"type":"Point","coordinates":[103.759736,35.570052]},"properties":{"full_address":"甘肃省临夏回族自治州广河县三甲集镇陈家村"}},{"type":"Feature","geometry":{"type":"Point","coordinates":[103.758137,35.562113]},"properties":{"full_address":"甘肃省临夏回族自治州广河县三甲集镇东关村"}},{"type":"Feature","geometry":{"type":"Point","coordinates":[103.756483,35.549237]},"properties":{"full_address":"甘肃省临夏回族自治州广河县三甲集镇镇沙家村"}},{"type":"Feature","geometry":{"type":"Point","coordinates":[103.744654,35.554987]},"properties":{"full_address":"甘肃省临夏回族自治州广河县三甲集镇上集村"}},{"type":"Feature","geometry":{"type":"Point","coordinates":[103.730225,35.545224]},"properties":{"full_address":"甘肃省临夏回族自治州广河县三甲集镇白庄头村"}},{"type":"Feature","geometry":{"type":"Point","coordinates":[103.718219,35.54384]},"properties":{"full_address":"甘肃省临夏回族自治州广河县三甲集镇头家村"}},{"type":"Feature","geometry":{"type":"Point","coordinates":[103.73418,35.556298]},"properties":{"full_address":"甘肃省临夏回族自治州广河县三甲集镇甘坪村"}},{"type":"Feature","geometry":{"type":"Point","coordinates":[103.767325,35.587118]},"properties":{"full_address":"甘肃省临夏回族自治州广河县三甲集镇康家村"}},{"type":"Feature","geometry":{"type":"Point","coordinates":[103.74769,35.56817]},"properties":{"full_address":"甘肃省临夏回族自治州广河县三甲集镇三甲集社区"}},{"type":"Feature","geometry":{"type":"Point","coordinates":[103.597153,35.444612]},"properties":{"full_address":"甘肃省临夏回族自治州广河县城关镇十里墩村"}},{"type":"Feature","geometry":{"type":"Point","coordinates":[103.625895,35.491161]},"properties":{"full_address":"甘肃省临夏回族自治州广河县祁家集镇寺后子村"}},{"type":"Feature","geometry":{"type":"Point","coordinates":[103.662996,35.498868]},"properties":{"full_address":"甘肃省临夏回族自治州广河县祁家集镇孙家村"}},{"type":"Feature","geometry":{"type":"Point","coordinates":[103.658065,35.508741]},"properties":{"full_address":"甘肃省临夏回族自治州广河县祁家集镇谢家村"}},{"type":"Feature","geometry":{"type":"Point","coordinates":[103.83478,35.490891]},"properties":{"full_address":"甘肃省临夏回族自治州广河县齐家镇园子坪村"}},{"type":"Feature","geometry":{"type":"Point","coordinates":[103.529907,35.488241]},"properties":{"full_address":"甘肃省临夏回族自治州广河县阿力麻土乡贾家村"}},{"type":"Feature","geometry":{"type":"Point","coordinates":[103.809666,35.523916]},"properties":{"full_address":"甘肃省临夏回族自治州广河县齐家镇新民滩村"}},{"type":"Feature","geometry":{"type":"Point","coordinates":[103.784726,35.489281]},"properties":{"full_address":"甘肃省临夏回族自治州广河县齐家魏家咀村"}},{"type":"Feature","geometry":{"type":"Point","coordinates":[103.817915,35.468394]},"properties":{"full_address":"甘肃省临夏回族自治州广河县齐家黄家村"}},{"type":"Feature","geometry":{"type":"Point","coordinates":[103.498426,35.446346]},"properties":{"full_address":"甘肃省临夏回族自治州广河县买家巷镇张家山村"}},{"type":"Feature","geometry":{"type":"Point","coordinates":[103.447981,35.821805]},"properties":{"full_address":"甘肃省临夏回族自治州东乡族自治县董岭乡苏尚村"}},{"type":"Feature","geometry":{"type":"Point","coordinates":[103.4335,35.72666]},"properties":{"full_address":"甘肃省临夏回族自治州东乡族自治县北岭乡"}},{"type":"Feature","geometry":{"type":"Point","coordinates":[103.373344,35.597735]},"properties":{"full_address":"甘肃省临夏回族自治州东乡族自治县坪庄乡坪庄村"}},{"type":"Feature","geometry":{"type":"Point","coordinates":[103.417888,35.620082]},"properties":{"full_address":"甘肃省临夏回族自治州东乡族自治县坪庄乡五麦寺村"}},{"type":"Feature","geometry":{"type":"Point","coordinates":[103.415357,35.756085]},"properties":{"full_address":"甘肃省临夏回族自治州东乡族自治县龙泉镇老庄村"}},{"type":"Feature","geometry":{"type":"Point","coordinates":[103.633637,35.729723]},"properties":{"full_address":"甘肃省临夏回族自治州东乡族自治县达板镇"}},{"type":"Feature","geometry":{"type":"Point","coordinates":[103.470987,35.700009]},"properties":{"full_address":"甘肃省临夏回族自治州东乡族自治县大树乡郑家村"}},{"type":"Feature","geometry":{"type":"Point","coordinates":[103.468969,35.595426]},"properties":{"full_address":"甘肃省临夏回族自治州东乡族自治县大树乡大树村"}},{"type":"Feature","geometry":{"type":"Point","coordinates":[103.361833,35.606575]},"properties":{"full_address":"甘肃省临夏回族自治州东乡族自治县坪庄乡南关村"}},{"type":"Feature","geometry":{"type":"Point","coordinates":[103.333169,35.83887]},"properties":{"full_address":"甘肃省临夏回族自治州东乡族自治县考勒乡河西村"}},{"type":"Feature","geometry":{"type":"Point","coordinates":[103.374397,35.680902]},"properties":{"full_address":"甘肃省临夏回族自治州东乡族自治县锁南镇"}},{"type":"Feature","geometry":{"type":"Point","coordinates":[103.692436,35.566245]},"properties":{"full_address":"甘肃省临夏回族自治州东乡族自治县果园镇"}},{"type":"Feature","geometry":{"type":"Point","coordinates":[103.554198,35.558938]},"properties":{"full_address":"甘肃省临夏回族自治州东乡族自治县五家乡"}},{"type":"Feature","geometry":{"type":"Point","coordinates":[103.516487,35.555145]},"properties":{"full_address":"甘肃省临夏回族自治州东乡族自治县赵家乡"}},{"type":"Feature","geometry":{"type":"Point","coordinates":[103.487276,35.551212]},"properties":{"full_address":"甘肃省临夏回族自治州东乡族自治县那勒寺镇"}},{"type":"Feature","geometry":{"type":"Point","coordinates":[103.458543,35.845153]},"properties":{"full_address":"甘肃省临夏回族自治州东乡族自治县董岭乡董家岭村"}},{"type":"Feature","geometry":{"type":"Point","coordinates":[103.44347,35.841629]},"properties":{"full_address":"甘肃省临夏回族自治州东乡族自治县董岭乡董家沟村"}},{"type":"Feature","geometry":{"type":"Point","coordinates":[103.349368,35.775124]},"properties":{"full_address":"甘肃省临夏回族自治州东乡族自治县龙泉镇大岭村"}},{"type":"Feature","geometry":{"type":"Point","coordinates":[103.346309,35.661638]},"properties":{"full_address":"甘肃省临夏回族自治州东乡族自治县春台乡阳洼村"}},{"type":"Feature","geometry":{"type":"Point","coordinates":[102.07623,33.993619]},"properties":{"full_address":"甘肃省甘南藏族自治州玛曲县雅玛苑小区"}},{"type":"Feature","geometry":{"type":"Point","coordinates":[102.073251,33.999914]},"properties":{"full_address":"甘肃省甘南藏族自治州玛曲县广场苑小区"}},{"type":"Feature","geometry":{"type":"Point","coordinates":[102.186768,34.623597]},"properties":{"full_address":"甘肃省甘南藏族自治州夏河县科才镇科才村、其莫村、赞布宁村"}},{"type":"Feature","geometry":{"type":"Point","coordinates":[102.51676,35.197967]},"properties":{"full_address":"甘肃省甘南藏族自治州夏河县拉卜楞镇城市社区卫生服务中心"}},{"type":"Feature","geometry":{"type":"Point","coordinates":[102.515849,35.193656]},"properties":{"full_address":"甘肃省甘南藏族自治州夏河县拉卜楞镇金轮酒店"}},{"type":"Feature","geometry":{"type":"Point","coordinates":[102.514015,35.196293]},"properties":{"full_address":"甘肃省甘南藏族自治州夏河县拉卜楞镇曲登大酒店"}},{"type":"Feature","geometry":{"type":"Point","coordinates":[102.522411,35.200735]},"properties":{"full_address":"甘肃省甘南藏族自治州夏河县拉卜楞夏瑞酒店"}},{"type":"Feature","geometry":{"type":"Point","coordinates":[102.523776,35.203222]},"properties":{"full_address":"甘肃省甘南藏族自治州夏河县拉卜楞夏兴宾馆"}},{"type":"Feature","geometry":{"type":"Point","coordinates":[102.514519,35.196595]},"properties":{"full_address":"甘肃省甘南藏族自治州夏河县拉卜楞镇宝马宾馆"}},{"type":"Feature","geometry":{"type":"Point","coordinates":[102.693813,34.820087]},"properties":{"full_address":"甘肃省甘南藏族自治州夏河县阿木去乎镇加科行政村、阿木去乎主街道、阿木去乎镇诺布桑牌藏式家具厂、阿木去乎镇诺布桑牌藏式家具店联片"}},{"type":"Feature","geometry":{"type":"Point","coordinates":[102.556498,35.202662]},"properties":{"full_address":"甘肃省甘南藏族自治州夏河县阿木去乎镇牙利吉办事处阿纳行政村第1—11自然村"}},{"type":"Feature","geometry":{"type":"Point","coordinates":[102.515877,34.747205]},"properties":{"full_address":"甘肃省甘南藏族自治州夏河县牙利吉办事处尼玛龙行政村第1—11自然村"}},{"type":"Feature","geometry":{"type":"Point","coordinates":[102.502407,34.848499]},"properties":{"full_address":"甘肃省甘南藏族自治州夏河县牙利吉办事处格合咱行政村第1、2、3、4、5自然村"}},{"type":"Feature","geometry":{"type":"Point","coordinates":[102.652229,34.780428]},"properties":{"full_address":"甘肃省甘南藏族自治州夏河县阿木去乎镇黑力宁巴行政村黑力宁巴青安昂、胡昂、开斗、尕加毛、阿木去乎昂、格个昂、阿斗楼自然村区域"}},{"type":"Feature","geometry":{"type":"Point","coordinates":[102.556498,35.202662]},"properties":{"full_address":"甘肃省甘南藏族自治州夏河县阿木去乎镇牙利吉办事处牙利吉行政村1—6自然村"}},{"type":"Feature","geometry":{"type":"Point","coordinates":[102.647039,34.847275]},"properties":{"full_address":"甘肃省甘南藏族自治州夏河县阿木去乎镇安果行政村周哇自然村和吉利自然村、安果行政村安果昂自然村、安果行政村安果自然村、安果行政村上南畔和下南畔自然村、安果行政村乔吾塘自然村、安果行政村仁赞道自然村联片"}},{"type":"Feature","geometry":{"type":"Point","coordinates":[80.275514,41.181119]},"properties":{"full_address":"新疆生产建设兵团新疆生产建设兵团新疆生产建设兵团第四师六十二团金桥华府鲁豫佳苑小区"}},{"type":"Feature","geometry":{"type":"Point","coordinates":[87.627704,43.793026]},"properties":{"full_address":"新疆生产建设兵团新疆生产建设兵团新疆生产建设兵团第四师六十二团一连幸福路3巷"}},{"type":"Feature","geometry":{"type":"Point","coordinates":[87.627704,43.793026]},"properties":{"full_address":"新疆生产建设兵团新疆生产建设兵团新疆生产建设兵团第四师六十二团一连幸福路5巷"}},{"type":"Feature","geometry":{"type":"Point","coordinates":[80.455305,44.166764]},"properties":{"full_address":"新疆生产建设兵团新疆生产建设兵团新疆生产建设兵团第四师六十二团霍城西街小二楼11巷19号"}},{"type":"Feature","geometry":{"type":"Point","coordinates":[80.478568,44.165215]},"properties":{"full_address":"新疆生产建设兵团新疆生产建设兵团新疆生产建设兵团第四师六十二团光明社区霍城东街9巷和11巷（相邻）"}},{"type":"Feature","geometry":{"type":"Point","coordinates":[80.455305,44.166764]},"properties":{"full_address":"新疆生产建设兵团新疆生产建设兵团新疆生产建设兵团第四师六十二团甘露社区霍城西街七巷"}},{"type":"Feature","geometry":{"type":"Point","coordinates":[87.627704,43.793026]},"properties":{"full_address":"新疆生产建设兵团新疆生产建设兵团新疆生产建设兵团第四师六十二团甘露社区金波罗小区4-5号楼"}}]}