{"type":"FeatureCollection","features":[{"type":"Feature","geometry":{"type":"Point","coordinates":[117.230463,39.17119]},"properties":{"province":"天津市","city":"市辖区","county":"河北区","community":"建昌道街红波西里21号楼","full_address":"天津市市辖区河北区建昌道街红波西里21号楼","info":""}},{"type":"Feature","geometry":{"type":"Point","coordinates":[117.219589,39.148485]},"properties":{"province":"天津市","city":"市辖区","county":"河北区","community":"王串场街汇仁云居7号楼","full_address":"天津市市辖区河北区王串场街汇仁云居7号楼","info":""}},{"type":"Feature","geometry":{"type":"Point","coordinates":[117.226801,39.172253]},"properties":{"province":"天津市","city":"市辖区","county":"河北区","community":"建昌道街中山北里20门","full_address":"天津市市辖区河北区建昌道街中山北里20门","info":""}},{"type":"Feature","geometry":{"type":"Point","coordinates":[117.659878,38.994467]},"properties":{"province":"天津市","city":"市辖区","county":"滨海新区","community":"大沽街安阳里13号楼","full_address":"天津市市辖区滨海新区大沽街安阳里13号楼","info":""}},{"type":"Feature","geometry":{"type":"Point","coordinates":[117.218164,39.140904]},"properties":{"province":"天津市","city":"市辖区","county":"河东区","community":"春华街道月光园2号楼.","full_address":"天津市市辖区河东区春华街道月光园2号楼.","info":""}},{"type":"Feature","geometry":{"type":"Point","coordinates":[121.653301,30.934613]},"properties":{"province":"上海市","city":"市辖区","county":"奉贤区","community":"奉城镇幸福村8组","full_address":"上海市市辖区奉贤区奉城镇幸福村8组","info":""}},{"type":"Feature","geometry":{"type":"Point","coordinates":[116.17707,39.75289]},"properties":{"province":"北京市","city":"市辖区","county":"房山区","community":"长阳镇北广阳城大街8号","full_address":"北京市市辖区房山区长阳镇北广阳城大街8号","info":""}},{"type":"Feature","geometry":{"type":"Point","coordinates":[116.368955,39.806868]},"properties":{"province":"北京市","city":"市辖区","county":"丰台区","community":"南苑街道南庭新苑北区","full_address":"北京市市辖区丰台区南苑街道南庭新苑北区","info":""}},{"type":"Feature","geometry":{"type":"Point","coordinates":[116.336039,39.84522]},"properties":{"province":"北京市","city":"市辖区","county":"丰台区","community":"玉泉营街道亿朋苑一区","full_address":"北京市市辖区丰台区玉泉营街道亿朋苑一区","info":""}},{"type":"Feature","geometry":{"type":"Point","coordinates":[116.367665,40.03222]},"properties":{"province":"北京市","city":"市辖区","county":"丰台区","community":"玉泉营街道万柳西园社区","full_address":"北京市市辖区丰台区玉泉营街道万柳西园社区","info":""}},{"type":"Feature","geometry":{"type":"Point","coordinates":[116.367665,40.03222]},"properties":{"province":"北京市","city":"市辖区","county":"丰台区","community":"王佐镇翡翠山社区","full_address":"北京市市辖区丰台区王佐镇翡翠山社区","info":""}},{"type":"Feature","geometry":{"type":"Point","coordinates":[116.340484,39.797205]},"properties":{"province":"北京市","city":"市辖区","county":"大兴区","community":"西红门镇宏福园小区","full_address":"北京市市辖区大兴区西红门镇宏福园小区","info":""}},{"type":"Feature","geometry":{"type":"Point","coordinates":[80.420759,44.201669]},"properties":{"province":"新疆维吾尔自治区","city":"伊犁哈萨克自治州","county":"霍尔果斯市","community":"雅馨小区","full_address":"新疆维吾尔自治区伊犁哈萨克自治州霍尔果斯市雅馨小区","info":""}},{"type":"Feature","geometry":{"type":"Point","coordinates":[80.415754,44.204038]},"properties":{"province":"新疆维吾尔自治区","city":"伊犁哈萨克自治州","county":"霍尔果斯市","community":"雅居小区","full_address":"新疆维吾尔自治区伊犁哈萨克自治州霍尔果斯市雅居小区","info":""}},{"type":"Feature","geometry":{"type":"Point","coordinates":[80.413534,44.205012]},"properties":{"province":"新疆维吾尔自治区","city":"伊犁哈萨克自治州","county":"霍城县","community":"丁香湾小区","full_address":"新疆维吾尔自治区伊犁哈萨克自治州霍城县丁香湾小区","info":""}},{"type":"Feature","geometry":{"type":"Point","coordinates":[80.422437,44.203581]},"properties":{"province":"新疆维吾尔自治区","city":"伊犁哈萨克自治州","county":"霍尔果斯市","community":"时代嘉苑小区","full_address":"新疆维吾尔自治区伊犁哈萨克自治州霍尔果斯市时代嘉苑小区","info":""}},{"type":"Feature","geometry":{"type":"Point","coordinates":[81.269389,43.926725]},"properties":{"province":"新疆维吾尔自治区","city":"伊犁哈萨克自治州","county":"伊宁市","community":"北京路公租房2号楼","full_address":"新疆维吾尔自治区伊犁哈萨克自治州伊宁市北京路公租房2号楼","info":""}},{"type":"Feature","geometry":{"type":"Point","coordinates":[101.302,21.294441]},"properties":{"province":"云南省","city":"西双版纳傣族自治州","county":"勐腊县","community":"勐满镇集镇片区","full_address":"云南省西双版纳傣族自治州勐腊县勐满镇集镇片区","info":""}},{"type":"Feature","geometry":{"type":"Point","coordinates":[131.157975,44.402403]},"properties":{"province":"黑龙江省","city":"牡丹江市","county":"绥芬河市","community":"鸿福小区","full_address":"黑龙江省牡丹江市绥芬河市鸿福小区","info":""}},{"type":"Feature","geometry":{"type":"Point","coordinates":[131.163474,44.403198]},"properties":{"province":"黑龙江省","city":"牡丹江市","county":"绥芬河市","community":"千园小区","full_address":"黑龙江省牡丹江市绥芬河市千园小区","info":""}},{"type":"Feature","geometry":{"type":"Point","coordinates":[131.152546,44.412309]},"properties":{"province":"黑龙江省","city":"牡丹江市","county":"绥芬河市","community":"良运公司","full_address":"黑龙江省牡丹江市绥芬河市良运公司","info":""}},{"type":"Feature","geometry":{"type":"Point","coordinates":[131.148004,44.411587]},"properties":{"province":"黑龙江省","city":"牡丹江市","county":"绥芬河市","community":"环保局家属楼","full_address":"黑龙江省牡丹江市绥芬河市环保局家属楼","info":""}},{"type":"Feature","geometry":{"type":"Point","coordinates":[131.138329,44.39671]},"properties":{"province":"黑龙江省","city":"牡丹江市","county":"绥芬河市","community":"二中集资楼","full_address":"黑龙江省牡丹江市绥芬河市二中集资楼","info":""}},{"type":"Feature","geometry":{"type":"Point","coordinates":[131.164473,44.394966]},"properties":{"province":"黑龙江省","city":"牡丹江市","county":"绥芬河市","community":"兴建大厦","full_address":"黑龙江省牡丹江市绥芬河市兴建大厦","info":""}},{"type":"Feature","geometry":{"type":"Point","coordinates":[131.137884,44.388517]},"properties":{"province":"黑龙江省","city":"牡丹江市","county":"绥芬河市","community":"龙泉文苑8号楼","full_address":"黑龙江省牡丹江市绥芬河市龙泉文苑8号楼","info":""}},{"type":"Feature","geometry":{"type":"Point","coordinates":[131.14037,44.394447]},"properties":{"province":"黑龙江省","city":"牡丹江市","county":"绥芬河市","community":"旗苑嘉园C区","full_address":"黑龙江省牡丹江市绥芬河市旗苑嘉园C区","info":""}},{"type":"Feature","geometry":{"type":"Point","coordinates":[130.265481,44.523109]},"properties":{"province":"黑龙江省","city":"牡丹江市","county":"穆棱市","community":"馨怡纯粮油公司","full_address":"黑龙江省牡丹江市穆棱市馨怡纯粮油公司","info":""}},{"type":"Feature","geometry":{"type":"Point","coordinates":[131.161331,44.399952]},"properties":{"province":"黑龙江省","city":"牡丹江市","county":"绥芬河市","community":"春龙农贸市场","full_address":"黑龙江省牡丹江市绥芬河市春龙农贸市场","info":""}},{"type":"Feature","geometry":{"type":"Point","coordinates":[131.168635,44.397787]},"properties":{"province":"黑龙江省","city":"牡丹江市","county":"绥芬河市","community":"五彩楼7单元","full_address":"黑龙江省牡丹江市绥芬河市五彩楼7单元","info":""}},{"type":"Feature","geometry":{"type":"Point","coordinates":[131.152546,44.412309]},"properties":{"province":"黑龙江省","city":"牡丹江市","county":"绥芬河市","community":"老妇幼院里3单元","full_address":"黑龙江省牡丹江市绥芬河市老妇幼院里3单元","info":""}},{"type":"Feature","geometry":{"type":"Point","coordinates":[131.134144,44.396005]},"properties":{"province":"黑龙江省","city":"牡丹江市","county":"绥芬河市","community":"海融富华苑13号楼","full_address":"黑龙江省牡丹江市绥芬河市海融富华苑13号楼","info":""}},{"type":"Feature","geometry":{"type":"Point","coordinates":[131.152546,44.412309]},"properties":{"province":"黑龙江省","city":"牡丹江市","county":"绥芬河市","community":"集资1号楼4单元","full_address":"黑龙江省牡丹江市绥芬河市集资1号楼4单元","info":""}},{"type":"Feature","geometry":{"type":"Point","coordinates":[131.173476,44.399556]},"properties":{"province":"黑龙江省","city":"牡丹江市","county":"绥芬河市","community":"鑫城小区8号楼","full_address":"黑龙江省牡丹江市绥芬河市鑫城小区8号楼","info":""}},{"type":"Feature","geometry":{"type":"Point","coordinates":[129.665205,44.611591]},"properties":{"province":"黑龙江省","city":"牡丹江市","county":"阳明区","community":"花园小区3号楼","full_address":"黑龙江省牡丹江市阳明区花园小区3号楼","info":""}},{"type":"Feature","geometry":{"type":"Point","coordinates":[131.141941,44.388415]},"properties":{"province":"黑龙江省","city":"牡丹江市","county":"绥芬河市","community":"阜宁雅居17号楼","full_address":"黑龙江省牡丹江市绥芬河市阜宁雅居17号楼","info":""}},{"type":"Feature","geometry":{"type":"Point","coordinates":[131.131507,44.38962]},"properties":{"province":"黑龙江省","city":"牡丹江市","county":"绥芬河市","community":"迎泽丽都三期9号楼","full_address":"黑龙江省牡丹江市绥芬河市迎泽丽都三期9号楼","info":""}},{"type":"Feature","geometry":{"type":"Point","coordinates":[129.642015,44.577945]},"properties":{"province":"黑龙江省","city":"牡丹江市","county":"阳明区","community":"阳光小区7号楼","full_address":"黑龙江省牡丹江市阳明区阳光小区7号楼","info":""}},{"type":"Feature","geometry":{"type":"Point","coordinates":[131.129193,44.068938]},"properties":{"province":"黑龙江省","city":"牡丹江市","county":"东宁市","community":"邮政小区","full_address":"黑龙江省牡丹江市东宁市邮政小区","info":""}},{"type":"Feature","geometry":{"type":"Point","coordinates":[129.637462,44.587641]},"properties":{"province":"黑龙江省","city":"牡丹江市","county":"阳明区","community":"春城小区","full_address":"黑龙江省牡丹江市阳明区春城小区","info":""}},{"type":"Feature","geometry":{"type":"Point","coordinates":[115.953614,38.852771]},"properties":{"province":"河北省","city":"保定市","county":"安新县","community":"端村镇西堤东堤片区","full_address":"河北省保定市安新县端村镇西堤东堤片区","info":""}},{"type":"Feature","geometry":{"type":"Point","coordinates":[115.859378,37.079804]},"properties":{"province":"河北省","city":"衡水市","county":"故城县","community":"建国镇叶庄村","full_address":"河北省衡水市故城县建国镇叶庄村","info":""}},{"type":"Feature","geometry":{"type":"Point","coordinates":[120.183727,30.179604]},"properties":{"province":"浙江省","city":"杭州市","county":"滨江区","community":"长河街道建业路151号[惠而特（中国）餐饮设备有限公司]","full_address":"浙江省杭州市滨江区长河街道建业路151号[惠而特（中国）餐饮设备有限公司]","info":""}},{"type":"Feature","geometry":{"type":"Point","coordinates":[120.216737,30.181234]},"properties":{"province":"浙江省","city":"杭州市","county":"滨江区","community":"漫寓公寓","full_address":"浙江省杭州市滨江区漫寓公寓","info":""}},{"type":"Feature","geometry":{"type":"Point","coordinates":[120.183616,30.190277]},"properties":{"province":"浙江省","city":"杭州市","county":"滨江区","community":"冠新佳苑小区","full_address":"浙江省杭州市滨江区冠新佳苑小区","info":""}},{"type":"Feature","geometry":{"type":"Point","coordinates":[120.215128,30.191446]},"properties":{"province":"浙江省","city":"杭州市","county":"滨江区","community":"春波小区","full_address":"浙江省杭州市滨江区春波小区","info":""}},{"type":"Feature","geometry":{"type":"Point","coordinates":[120.183251,30.1493]},"properties":{"province":"浙江省","city":"杭州市","county":"滨江区","community":"白马湖和院","full_address":"浙江省杭州市滨江区白马湖和院","info":""}},{"type":"Feature","geometry":{"type":"Point","coordinates":[120.186641,30.179382]},"properties":{"province":"浙江省","city":"杭州市","county":"滨江区","community":"长江小区","full_address":"浙江省杭州市滨江区长江小区","info":""}},{"type":"Feature","geometry":{"type":"Point","coordinates":[119.712877,30.229058]},"properties":{"province":"浙江省","city":"杭州市","county":"临安区","community":"长江西苑小区","full_address":"浙江省杭州市临安区长江西苑小区","info":""}},{"type":"Feature","geometry":{"type":"Point","coordinates":[120.194691,30.185255]},"properties":{"province":"浙江省","city":"杭州市","county":"滨江区","community":"华城和瑞科技园","full_address":"浙江省杭州市滨江区华城和瑞科技园","info":""}},{"type":"Feature","geometry":{"type":"Point","coordinates":[120.150933,30.161292]},"properties":{"province":"浙江省","city":"杭州市","county":"滨江区","community":"新浦苑","full_address":"浙江省杭州市滨江区新浦苑","info":""}},{"type":"Feature","geometry":{"type":"Point","coordinates":[119.923188,30.055636]},"properties":{"province":"浙江省","city":"杭州市","county":"富阳区","community":"润泽院","full_address":"浙江省杭州市富阳区润泽院","info":""}},{"type":"Feature","geometry":{"type":"Point","coordinates":[119.936498,30.048248]},"properties":{"province":"浙江省","city":"杭州市","county":"富阳区","community":"富春街道桂花西路262号","full_address":"浙江省杭州市富阳区富春街道桂花西路262号","info":""}},{"type":"Feature","geometry":{"type":"Point","coordinates":[119.576365,30.016843]},"properties":{"province":"浙江省","city":"杭州市","county":"富阳区","community":"洞桥镇贤德村何村坞168号","full_address":"浙江省杭州市富阳区洞桥镇贤德村何村坞168号","info":""}},{"type":"Feature","geometry":{"type":"Point","coordinates":[113.9331,22.66934]},"properties":{"province":"广东省","city":"深圳市","county":"宝安区","community":"石岩街道罗租社区艾美特科技园B栋","full_address":"广东省深圳市宝安区石岩街道罗租社区艾美特科技园B栋","info":""}},{"type":"Feature","geometry":{"type":"Point","coordinates":[113.931278,22.674942]},"properties":{"province":"广东省","city":"深圳市","county":"宝安区","community":"石岩街道罗租社区下新村十四巷4号","full_address":"广东省深圳市宝安区石岩街道罗租社区下新村十四巷4号","info":""}},{"type":"Feature","geometry":{"type":"Point","coordinates":[113.805714,22.716632]},"properties":{"province":"广东省","city":"深圳市","county":"宝安区","community":"十五巷4号","full_address":"广东省深圳市宝安区十五巷4号","info":""}}]}