{"type":"FeatureCollection","features":[{"type":"Feature","geometry":{"type":"Point","coordinates":[116.687463,39.938106]},"properties":{"full_address":"北京市通州区潞邑街道珠江拉维小镇小区"}},{"type":"Feature","geometry":{"type":"Point","coordinates":[116.506283,40.083147]},"properties":{"full_address":"北京市顺义区空港街道龙湾别墅5702栋"}},{"type":"Feature","geometry":{"type":"Point","coordinates":[116.400704,40.067954]},"properties":{"full_address":"北京市昌平区东小口（地区）镇中东路121号院"}},{"type":"Feature","geometry":{"type":"Point","coordinates":[116.055233,40.340545]},"properties":{"full_address":"北京市延庆区八达岭镇长城脚下的公社（酒店）"}},{"type":"Feature","geometry":{"type":"Point","coordinates":[116.043795,40.340168]},"properties":{"full_address":"北京市延庆区八达岭镇石佛寺村"}},{"type":"Feature","geometry":{"type":"Point","coordinates":[117.314289,39.139464]},"properties":{"full_address":"天津市天津市东丽区万新街蔚秀花园9、10、11、14、15、22、23、26号楼"}},{"type":"Feature","geometry":{"type":"Point","coordinates":[117.296287,39.048961]},"properties":{"full_address":"天津市天津市津南区双林街海天南苑"}},{"type":"Feature","geometry":{"type":"Point","coordinates":[117.343757,38.946914]},"properties":{"full_address":"天津市天津市津南区八里台镇瞰湖苑小区"}},{"type":"Feature","geometry":{"type":"Point","coordinates":[117.277327,39.049641]},"properties":{"full_address":"天津市天津市津南区双林街津铁惠苑-南区"}},{"type":"Feature","geometry":{"type":"Point","coordinates":[117.316058,39.046749]},"properties":{"full_address":"天津市天津市津南区双港镇金地格林棕榈苑D区"}},{"type":"Feature","geometry":{"type":"Point","coordinates":[107.574006,42.400569]},"properties":{"full_address":"内蒙古自治区巴彦淖尔市乌拉特中旗甘其毛都镇中蒙花园"}},{"type":"Feature","geometry":{"type":"Point","coordinates":[108.513645,41.587732]},"properties":{"full_address":"内蒙古自治区巴彦淖尔市乌拉特中旗酒吧街A区"}},{"type":"Feature","geometry":{"type":"Point","coordinates":[108.65802,40.722183]},"properties":{"full_address":"内蒙古自治区巴彦淖尔市乌拉特中旗汇鑫源商店所在生活区"}},{"type":"Feature","geometry":{"type":"Point","coordinates":[121.581491,38.902348]},"properties":{"full_address":"辽宁省大连市沙河口区南沙河口街道幸福e家5期6区28号楼"}},{"type":"Feature","geometry":{"type":"Point","coordinates":[124.360782,40.098887]},"properties":{"full_address":"辽宁省丹东市振兴区纤维街道福馨佳园小区"}},{"type":"Feature","geometry":{"type":"Point","coordinates":[124.349081,40.01215]},"properties":{"full_address":"辽宁省丹东市振兴区合作区中央大街31-2至31-18号楼，文庆路70-19至70-43号楼/文庆路70-45号楼"}},{"type":"Feature","geometry":{"type":"Point","coordinates":[124.369533,40.127859]},"properties":{"full_address":"辽宁省丹东市振兴区永昌街道保利一期A2区5号楼"}},{"type":"Feature","geometry":{"type":"Point","coordinates":[124.359647,40.108628]},"properties":{"full_address":"辽宁省丹东市振兴区帽盔山街道知春园小区5号楼"}},{"type":"Feature","geometry":{"type":"Point","coordinates":[124.357021,40.098048]},"properties":{"full_address":"辽宁省丹东市振兴区纤维街道和谐家园小区10号楼"}},{"type":"Feature","geometry":{"type":"Point","coordinates":[124.285868,40.069241]},"properties":{"full_address":"辽宁省丹东市振兴区汤池镇集环路47号"}},{"type":"Feature","geometry":{"type":"Point","coordinates":[124.303403,40.061903]},"properties":{"full_address":"辽宁省丹东市振兴区汤池镇集贤新村二期"}},{"type":"Feature","geometry":{"type":"Point","coordinates":[124.392431,40.132536]},"properties":{"full_address":"辽宁省丹东市振兴区站前街道三纬路90号/92号/94号/锦山大街58号"}},{"type":"Feature","geometry":{"type":"Point","coordinates":[124.382135,40.12045]},"properties":{"full_address":"辽宁省丹东市振兴区临江街道振四街15号/17号/19号"}},{"type":"Feature","geometry":{"type":"Point","coordinates":[124.348603,40.091199]},"properties":{"full_address":"辽宁省丹东市振兴区纤维街道锦山大街382号"}},{"type":"Feature","geometry":{"type":"Point","coordinates":[124.36882,40.127717]},"properties":{"full_address":"辽宁省丹东市振兴区永昌街道保利一期B区4号楼"}},{"type":"Feature","geometry":{"type":"Point","coordinates":[124.493588,40.210176]},"properties":{"full_address":"辽宁省丹东市振安区九连城镇上尖村5组"}},{"type":"Feature","geometry":{"type":"Point","coordinates":[124.494185,40.197849]},"properties":{"full_address":"辽宁省丹东市振安区九连城镇马市村3组"}},{"type":"Feature","geometry":{"type":"Point","coordinates":[121.402439,31.20537]},"properties":{"full_address":"上海市上海市长宁区虹桥街道娄山关路85号A座2楼仙纳都量贩式KTV"}},{"type":"Feature","geometry":{"type":"Point","coordinates":[121.44446,31.2662]},"properties":{"full_address":"上海市上海市静安区共和新路街道沪太路785号B座501西区天空音乐量贩式KTV"}},{"type":"Feature","geometry":{"type":"Point","coordinates":[121.407826,31.223057]},"properties":{"full_address":"上海市上海市普陀区长风新村街道光复西路2077弄小区"}},{"type":"Feature","geometry":{"type":"Point","coordinates":[121.491337,31.252245]},"properties":{"full_address":"上海市上海市虹口区北外滩街道九龙路515号振兴公寓"}},{"type":"Feature","geometry":{"type":"Point","coordinates":[121.493867,31.17592]},"properties":{"full_address":"上海市上海市浦东新区上钢新村街道上钢二村小区"}},{"type":"Feature","geometry":{"type":"Point","coordinates":[121.139792,31.0355]},"properties":{"full_address":"上海市上海市松江区小昆山镇平原街86弄平原新村"}},{"type":"Feature","geometry":{"type":"Point","coordinates":[120.372881,31.621496]},"properties":{"full_address":"江苏省无锡市锡山区云林街道皮革城北门木材市场"}},{"type":"Feature","geometry":{"type":"Point","coordinates":[120.385685,31.632358]},"properties":{"full_address":"江苏省无锡市锡山区云林街道国泰精密机件无锡有限公司"}},{"type":"Feature","geometry":{"type":"Point","coordinates":[120.372144,31.608245]},"properties":{"full_address":"江苏省无锡市锡山区云林街道春雷苑"}},{"type":"Feature","geometry":{"type":"Point","coordinates":[120.284452,31.645038]},"properties":{"full_address":"江苏省无锡市惠山区堰桥街道阳光100阿尔勒二期"}},{"type":"Feature","geometry":{"type":"Point","coordinates":[120.242807,31.557039]},"properties":{"full_address":"江苏省无锡市滨湖区荣巷街道集景花园东北片区"}},{"type":"Feature","geometry":{"type":"Point","coordinates":[120.259474,31.552415]},"properties":{"full_address":"江苏省无锡市滨湖区蠡园街道隐秀苑线泾浜西侧"}},{"type":"Feature","geometry":{"type":"Point","coordinates":[120.337333,31.582733]},"properties":{"full_address":"江苏省无锡市梁溪区广益街道华东商贸城"}},{"type":"Feature","geometry":{"type":"Point","coordinates":[120.3408,31.581187]},"properties":{"full_address":"江苏省无锡市梁溪区广益街道银仁御墅"}},{"type":"Feature","geometry":{"type":"Point","coordinates":[120.30476,31.540131]},"properties":{"full_address":"江苏省无锡市梁溪区扬名街道时代上城C8"}},{"type":"Feature","geometry":{"type":"Point","coordinates":[120.312519,31.520367]},"properties":{"full_address":"江苏省无锡市梁溪区扬名街道扬名花园"}},{"type":"Feature","geometry":{"type":"Point","coordinates":[120.268988,31.591028]},"properties":{"full_address":"江苏省无锡市梁溪区惠山街道盛岸二村东区"}},{"type":"Feature","geometry":{"type":"Point","coordinates":[120.268674,31.587671]},"properties":{"full_address":"江苏省无锡市梁溪区惠山街道惠盛路小区"}},{"type":"Feature","geometry":{"type":"Point","coordinates":[120.41495,31.513625]},"properties":{"full_address":"江苏省无锡市新吴区无锡威孚高科技集团股份有限公司（锡兴路30号）"}},{"type":"Feature","geometry":{"type":"Point","coordinates":[120.381952,31.476162]},"properties":{"full_address":"江苏省无锡市新吴区新安街道新安花苑一区南区"}},{"type":"Feature","geometry":{"type":"Point","coordinates":[120.336503,31.569748]},"properties":{"full_address":"江苏省无锡市新吴区江溪街道中海海雅锦园二期"}},{"type":"Feature","geometry":{"type":"Point","coordinates":[120.351665,31.553527]},"properties":{"full_address":"江苏省无锡市新吴区江溪街道万科东郡"}},{"type":"Feature","geometry":{"type":"Point","coordinates":[120.429663,31.538001]},"properties":{"full_address":"江苏省无锡市新吴区梅村街道梅荆五期"}},{"type":"Feature","geometry":{"type":"Point","coordinates":[120.444556,31.547699]},"properties":{"full_address":"江苏省无锡市新吴区梅村街道泰伯花苑二期"}},{"type":"Feature","geometry":{"type":"Point","coordinates":[120.439215,31.465215]},"properties":{"full_address":"江苏省无锡市新吴区硕放街道香楠佳苑"}},{"type":"Feature","geometry":{"type":"Point","coordinates":[120.38949,31.556594]},"properties":{"full_address":"江苏省无锡市新吴区硕放街道尚品尚农家菜馆"}},{"type":"Feature","geometry":{"type":"Point","coordinates":[120.455854,31.471849]},"properties":{"full_address":"江苏省无锡市新吴区硕放街道丽景佳苑二期"}},{"type":"Feature","geometry":{"type":"Point","coordinates":[120.381619,31.499646]},"properties":{"full_address":"江苏省无锡市新吴区旺庄街道无锡威孚精密机械制造有限公司"}},{"type":"Feature","geometry":{"type":"Point","coordinates":[120.370768,31.546639]},"properties":{"full_address":"江苏省无锡市新吴区旺庄街道春潮花园二区北区"}},{"type":"Feature","geometry":{"type":"Point","coordinates":[120.418957,31.545462]},"properties":{"full_address":"江苏省无锡市新吴区旺庄街道联心嘉园"}},{"type":"Feature","geometry":{"type":"Point","coordinates":[117.235924,34.209137]},"properties":{"full_address":"江苏省徐州市云龙区大郭庄街道如意家园"}},{"type":"Feature","geometry":{"type":"Point","coordinates":[117.227106,34.212831]},"properties":{"full_address":"江苏省徐州市泉山区翟山街道滨湖御景湾9号楼"}},{"type":"Feature","geometry":{"type":"Point","coordinates":[117.225308,34.205798]},"properties":{"full_address":"江苏省徐州市泉山区翟山街道东南郡三期"}},{"type":"Feature","geometry":{"type":"Point","coordinates":[117.222716,34.205805]},"properties":{"full_address":"江苏省徐州市泉山区翟山街道翡翠城29号楼"}},{"type":"Feature","geometry":{"type":"Point","coordinates":[117.220969,34.206049]},"properties":{"full_address":"江苏省徐州市泉山区翟山街道翡翠城38号楼"}},{"type":"Feature","geometry":{"type":"Point","coordinates":[117.210324,34.200617]},"properties":{"full_address":"江苏省徐州市泉山区翡翠路（北至姚庄路南至欣欣路）沿街商铺"}},{"type":"Feature","geometry":{"type":"Point","coordinates":[117.222224,34.205093]},"properties":{"full_address":"江苏省徐州市泉山区翡翠城高端幼儿园"}},{"type":"Feature","geometry":{"type":"Point","coordinates":[117.274153,34.473117]},"properties":{"full_address":"江苏省徐州市铜山区柳泉镇铙山村5组"}},{"type":"Feature","geometry":{"type":"Point","coordinates":[117.55377,33.544634]},"properties":{"full_address":"安徽省宿州市灵璧县灵城镇中安江山印小区"}},{"type":"Feature","geometry":{"type":"Point","coordinates":[117.553795,33.544229]},"properties":{"full_address":"安徽省宿州市灵璧县灵城镇温州商城"}},{"type":"Feature","geometry":{"type":"Point","coordinates":[117.603518,33.387177]},"properties":{"full_address":"安徽省宿州市灵璧县韦集镇代家村"}},{"type":"Feature","geometry":{"type":"Point","coordinates":[117.560745,33.390333]},"properties":{"full_address":"安徽省宿州市灵璧县韦集镇韦集村"}},{"type":"Feature","geometry":{"type":"Point","coordinates":[117.65277,33.394962]},"properties":{"full_address":"安徽省宿州市灵璧县韦集镇藕庄村"}},{"type":"Feature","geometry":{"type":"Point","coordinates":[117.625816,33.37409]},"properties":{"full_address":"安徽省宿州市灵璧县韦集镇永久村"}},{"type":"Feature","geometry":{"type":"Point","coordinates":[117.624898,33.415437]},"properties":{"full_address":"安徽省宿州市灵璧县向阳镇新湖村"}},{"type":"Feature","geometry":{"type":"Point","coordinates":[117.65842,33.4724]},"properties":{"full_address":"安徽省宿州市灵璧县向阳镇官庄村"}},{"type":"Feature","geometry":{"type":"Point","coordinates":[117.566192,33.538053]},"properties":{"full_address":"安徽省宿州市灵璧县灵城镇星和湾小区（南区）及附属门面"}},{"type":"Feature","geometry":{"type":"Point","coordinates":[117.535432,33.544393]},"properties":{"full_address":"安徽省宿州市灵璧县灵城镇灵璧县技工学校工地"}},{"type":"Feature","geometry":{"type":"Point","coordinates":[117.57755,33.370274]},"properties":{"full_address":"安徽省宿州市灵璧县韦集镇双圩村"}},{"type":"Feature","geometry":{"type":"Point","coordinates":[117.641584,33.371755]},"properties":{"full_address":"安徽省宿州市灵璧县韦集镇双龙村"}},{"type":"Feature","geometry":{"type":"Point","coordinates":[117.59285,33.422756]},"properties":{"full_address":"安徽省宿州市灵璧县向阳镇河王村"}},{"type":"Feature","geometry":{"type":"Point","coordinates":[117.558668,33.461581]},"properties":{"full_address":"安徽省宿州市灵璧县向阳镇苏圩村"}},{"type":"Feature","geometry":{"type":"Point","coordinates":[117.536897,33.539915]},"properties":{"full_address":"安徽省宿州市灵璧县灵城镇君临天下小区"}},{"type":"Feature","geometry":{"type":"Point","coordinates":[117.577236,33.328747]},"properties":{"full_address":"安徽省宿州市灵璧县韦集镇杨马村"}},{"type":"Feature","geometry":{"type":"Point","coordinates":[117.888762,33.455485]},"properties":{"full_address":"安徽省宿州市泗县运河街道汴河国际（南区、北区）"}},{"type":"Feature","geometry":{"type":"Point","coordinates":[117.887746,33.460141]},"properties":{"full_address":"安徽省宿州市泗县运河街道南都贵苑"}},{"type":"Feature","geometry":{"type":"Point","coordinates":[117.889839,33.468152]},"properties":{"full_address":"安徽省宿州市泗县运河街道泗水文苑"}},{"type":"Feature","geometry":{"type":"Point","coordinates":[117.907811,33.473944]},"properties":{"full_address":"安徽省宿州市泗县运河街道玉兰公馆"}},{"type":"Feature","geometry":{"type":"Point","coordinates":[117.886137,33.468969]},"properties":{"full_address":"安徽省宿州市泗县运河街道百合花园小区"}},{"type":"Feature","geometry":{"type":"Point","coordinates":[117.899467,33.469447]},"properties":{"full_address":"安徽省宿州市泗县运河街道阜康联邦花园"}},{"type":"Feature","geometry":{"type":"Point","coordinates":[117.888924,33.471344]},"properties":{"full_address":"安徽省宿州市泗县运河街道富贵苑"}},{"type":"Feature","geometry":{"type":"Point","coordinates":[117.913759,33.489128]},"properties":{"full_address":"安徽省宿州市泗县运河街道紫悦府"}},{"type":"Feature","geometry":{"type":"Point","coordinates":[117.882936,33.478012]},"properties":{"full_address":"安徽省宿州市泗县运河街道南柳小区"}},{"type":"Feature","geometry":{"type":"Point","coordinates":[117.884997,33.474398]},"properties":{"full_address":"安徽省宿州市泗县运河街道丝绸厂北楼"}},{"type":"Feature","geometry":{"type":"Point","coordinates":[117.910629,33.482982]},"properties":{"full_address":"安徽省宿州市泗县运河街道香格里拉"}},{"type":"Feature","geometry":{"type":"Point","coordinates":[117.88902,33.479095]},"properties":{"full_address":"安徽省宿州市泗县运河街道商南街、人民路、新市街、学士中路合围区域"}},{"type":"Feature","geometry":{"type":"Point","coordinates":[117.902648,33.488784]},"properties":{"full_address":"安徽省宿州市泗县泗水街道康庄家园"}},{"type":"Feature","geometry":{"type":"Point","coordinates":[117.9216,33.47862]},"properties":{"full_address":"安徽省宿州市泗县泗水街道东城康居"}},{"type":"Feature","geometry":{"type":"Point","coordinates":[117.896,33.4958]},"properties":{"full_address":"安徽省宿州市泗县虹城街道城市之光东区"}},{"type":"Feature","geometry":{"type":"Point","coordinates":[117.899416,33.486232]},"properties":{"full_address":"安徽省宿州市泗县虹城街道凤凰城（南区、北区）"}},{"type":"Feature","geometry":{"type":"Point","coordinates":[117.899174,33.492921]},"properties":{"full_address":"安徽省宿州市泗县虹城街道虹乡家园"}},{"type":"Feature","geometry":{"type":"Point","coordinates":[117.893358,33.475977]},"properties":{"full_address":"安徽省宿州市泗县虹城街道桃花源小区"}},{"type":"Feature","geometry":{"type":"Point","coordinates":[117.874615,33.495052]},"properties":{"full_address":"安徽省宿州市泗县虹城街道石梁景苑"}},{"type":"Feature","geometry":{"type":"Point","coordinates":[117.888306,33.434049]},"properties":{"full_address":"安徽省宿州市泗县大路口镇大季村"}},{"type":"Feature","geometry":{"type":"Point","coordinates":[117.90849,33.444095]},"properties":{"full_address":"安徽省宿州市泗县大路口镇网周村"}},{"type":"Feature","geometry":{"type":"Point","coordinates":[117.894231,33.384838]},"properties":{"full_address":"安徽省宿州市泗县大路口镇渔民上岸小区"}},{"type":"Feature","geometry":{"type":"Point","coordinates":[117.897833,33.376885]},"properties":{"full_address":"安徽省宿州市泗县大路口镇邓公村"}},{"type":"Feature","geometry":{"type":"Point","coordinates":[117.928506,33.389549]},"properties":{"full_address":"安徽省宿州市泗县大路口镇石霸村"}},{"type":"Feature","geometry":{"type":"Point","coordinates":[117.757597,33.456083]},"properties":{"full_address":"安徽省宿州市泗县草沟镇大张村"}},{"type":"Feature","geometry":{"type":"Point","coordinates":[117.736304,33.448652]},"properties":{"full_address":"安徽省宿州市泗县草沟镇瓦韩村"}},{"type":"Feature","geometry":{"type":"Point","coordinates":[117.722861,33.368532]},"properties":{"full_address":"安徽省宿州市泗县草沟镇草沟村"}},{"type":"Feature","geometry":{"type":"Point","coordinates":[117.699099,33.37459]},"properties":{"full_address":"安徽省宿州市泗县草沟镇王楼村"}},{"type":"Feature","geometry":{"type":"Point","coordinates":[117.686526,33.414401]},"properties":{"full_address":"安徽省宿州市泗县草沟镇孙巷村"}},{"type":"Feature","geometry":{"type":"Point","coordinates":[117.729141,33.338031]},"properties":{"full_address":"安徽省宿州市泗县草沟镇街南村"}},{"type":"Feature","geometry":{"type":"Point","coordinates":[117.678981,33.345822]},"properties":{"full_address":"安徽省宿州市泗县草沟镇大梁村"}},{"type":"Feature","geometry":{"type":"Point","coordinates":[117.810034,33.442571]},"properties":{"full_address":"安徽省宿州市泗县丁湖镇春韩村"}},{"type":"Feature","geometry":{"type":"Point","coordinates":[117.796737,33.402499]},"properties":{"full_address":"安徽省宿州市泗县丁湖镇文湖村"}},{"type":"Feature","geometry":{"type":"Point","coordinates":[117.785465,33.293761]},"properties":{"full_address":"安徽省宿州市泗县丁湖镇樊集村"}},{"type":"Feature","geometry":{"type":"Point","coordinates":[117.801914,33.455716]},"properties":{"full_address":"安徽省宿州市泗县丁湖镇张彭村"}},{"type":"Feature","geometry":{"type":"Point","coordinates":[117.869055,33.616163]},"properties":{"full_address":"安徽省宿州市泗县屏山镇大李村"}},{"type":"Feature","geometry":{"type":"Point","coordinates":[117.845016,33.655993]},"properties":{"full_address":"安徽省宿州市泗县大庄镇朝阳村"}},{"type":"Feature","geometry":{"type":"Point","coordinates":[117.940904,33.378137]},"properties":{"full_address":"安徽省宿州市泗县墩集镇霸王村"}},{"type":"Feature","geometry":{"type":"Point","coordinates":[117.886957,33.459575]},"properties":{"full_address":"安徽省宿州市泗县运河街道高尤社区"}},{"type":"Feature","geometry":{"type":"Point","coordinates":[117.884717,33.471462]},"properties":{"full_address":"安徽省宿州市泗县运河街道南关社区"}},{"type":"Feature","geometry":{"type":"Point","coordinates":[117.901278,33.46706]},"properties":{"full_address":"安徽省宿州市泗县运河街道衡尤社区"}},{"type":"Feature","geometry":{"type":"Point","coordinates":[117.877947,33.478113]},"properties":{"full_address":"安徽省宿州市泗县运河街道泗州名城南区"}},{"type":"Feature","geometry":{"type":"Point","coordinates":[117.872862,33.467456]},"properties":{"full_address":"安徽省宿州市泗县运河街道国际装饰城小区"}},{"type":"Feature","geometry":{"type":"Point","coordinates":[117.868319,33.474552]},"properties":{"full_address":"安徽省宿州市泗县运河街道春暖花开"}},{"type":"Feature","geometry":{"type":"Point","coordinates":[117.90042,33.47872]},"properties":{"full_address":"安徽省宿州市泗县运河街道瑞兴花园"}},{"type":"Feature","geometry":{"type":"Point","coordinates":[117.905829,33.484083]},"properties":{"full_address":"安徽省宿州市泗县运河街道东城虹郡"}},{"type":"Feature","geometry":{"type":"Point","coordinates":[117.911129,33.478705]},"properties":{"full_address":"安徽省宿州市泗县运河街道东城美郡"}},{"type":"Feature","geometry":{"type":"Point","coordinates":[117.872596,33.480196]},"properties":{"full_address":"安徽省宿州市泗县运河街道清水湾景苑小区"}},{"type":"Feature","geometry":{"type":"Point","coordinates":[117.909347,33.456131]},"properties":{"full_address":"安徽省宿州市泗县运河街道赵魏社区孙湾庄"}},{"type":"Feature","geometry":{"type":"Point","coordinates":[117.915918,33.474995]},"properties":{"full_address":"安徽省宿州市泗县泗水街道盛世豪庭"}},{"type":"Feature","geometry":{"type":"Point","coordinates":[117.924136,33.478417]},"properties":{"full_address":"安徽省宿州市泗县泗水街道惠民苑"}},{"type":"Feature","geometry":{"type":"Point","coordinates":[117.896,33.4958]},"properties":{"full_address":"安徽省宿州市泗县虹城街道城市之光中区"}},{"type":"Feature","geometry":{"type":"Point","coordinates":[117.905808,33.489749]},"properties":{"full_address":"安徽省宿州市泗县虹城街道御景城"}},{"type":"Feature","geometry":{"type":"Point","coordinates":[117.908216,33.490022]},"properties":{"full_address":"安徽省宿州市泗县虹城街道荣辉名门府邸"}},{"type":"Feature","geometry":{"type":"Point","coordinates":[117.910629,33.482982]},"properties":{"full_address":"安徽省宿州市泗县虹城街道城市花园"}},{"type":"Feature","geometry":{"type":"Point","coordinates":[117.878713,33.490324]},"properties":{"full_address":"安徽省宿州市泗县虹城街道尚品公馆"}},{"type":"Feature","geometry":{"type":"Point","coordinates":[117.873447,33.484415]},"properties":{"full_address":"安徽省宿州市泗县虹城街道御龙公馆"}},{"type":"Feature","geometry":{"type":"Point","coordinates":[117.871669,33.470444]},"properties":{"full_address":"安徽省宿州市泗县虹城街道西苑小区"}},{"type":"Feature","geometry":{"type":"Point","coordinates":[117.864067,33.469696]},"properties":{"full_address":"安徽省宿州市泗县泗城镇泗州华府"}},{"type":"Feature","geometry":{"type":"Point","coordinates":[117.871875,33.466564]},"properties":{"full_address":"安徽省宿州市泗县泗城镇西城丽苑"}},{"type":"Feature","geometry":{"type":"Point","coordinates":[117.773354,33.488617]},"properties":{"full_address":"安徽省宿州市泗县泗城镇大吴村"}},{"type":"Feature","geometry":{"type":"Point","coordinates":[117.87725,33.423571]},"properties":{"full_address":"安徽省宿州市泗县大路口镇西李村"}},{"type":"Feature","geometry":{"type":"Point","coordinates":[117.706499,33.482241]},"properties":{"full_address":"安徽省宿州市泗县草沟镇秦桥村"}},{"type":"Feature","geometry":{"type":"Point","coordinates":[117.821213,33.360254]},"properties":{"full_address":"安徽省宿州市泗县丁湖镇丁湖村"}},{"type":"Feature","geometry":{"type":"Point","coordinates":[117.838384,33.412311]},"properties":{"full_address":"安徽省宿州市泗县丁湖镇苗尤村"}},{"type":"Feature","geometry":{"type":"Point","coordinates":[117.774404,33.380666]},"properties":{"full_address":"安徽省宿州市泗县丁湖镇丁陈村"}},{"type":"Feature","geometry":{"type":"Point","coordinates":[117.848913,33.59866]},"properties":{"full_address":"安徽省宿州市泗县屏山镇屏北村"}},{"type":"Feature","geometry":{"type":"Point","coordinates":[117.930174,33.524517]},"properties":{"full_address":"安徽省宿州市泗县屏山镇张乔村"}},{"type":"Feature","geometry":{"type":"Point","coordinates":[117.836324,33.540266]},"properties":{"full_address":"安徽省宿州市泗县屏山镇陈刘村"}},{"type":"Feature","geometry":{"type":"Point","coordinates":[117.928929,33.579245]},"properties":{"full_address":"安徽省宿州市泗县屏山镇老山村"}},{"type":"Feature","geometry":{"type":"Point","coordinates":[117.908387,33.589154]},"properties":{"full_address":"安徽省宿州市泗县屏山镇涂山村"}},{"type":"Feature","geometry":{"type":"Point","coordinates":[117.870834,33.722613]},"properties":{"full_address":"安徽省宿州市泗县大庄镇王官村"}},{"type":"Feature","geometry":{"type":"Point","coordinates":[117.945152,33.429224]},"properties":{"full_address":"安徽省宿州市泗县墩集镇石梁河村"}},{"type":"Feature","geometry":{"type":"Point","coordinates":[118.008995,33.388568]},"properties":{"full_address":"安徽省宿州市泗县墩集镇界牌张村"}},{"type":"Feature","geometry":{"type":"Point","coordinates":[117.947524,33.342471]},"properties":{"full_address":"安徽省宿州市泗县墩集镇石龙岗村"}},{"type":"Feature","geometry":{"type":"Point","coordinates":[117.997756,33.596408]},"properties":{"full_address":"安徽省宿州市泗县黑塔镇马厂村"}},{"type":"Feature","geometry":{"type":"Point","coordinates":[118.059792,33.5703]},"properties":{"full_address":"安徽省宿州市泗县黑塔镇韩徐村"}},{"type":"Feature","geometry":{"type":"Point","coordinates":[117.713639,33.509679]},"properties":{"full_address":"安徽省宿州市泗县长沟镇长沟村"}},{"type":"Feature","geometry":{"type":"Point","coordinates":[117.787577,33.54023]},"properties":{"full_address":"安徽省宿州市泗县长沟镇大高圩村"}},{"type":"Feature","geometry":{"type":"Point","coordinates":[117.684807,33.519566]},"properties":{"full_address":"安徽省宿州市泗县长沟镇汴河村"}},{"type":"Feature","geometry":{"type":"Point","coordinates":[117.733049,33.503354]},"properties":{"full_address":"安徽省宿州市泗县长沟镇洋城湖村"}},{"type":"Feature","geometry":{"type":"Point","coordinates":[117.90469,33.475228]},"properties":{"full_address":"安徽省宿州市泗县运河街道锦绣华庭小区"}},{"type":"Feature","geometry":{"type":"Point","coordinates":[117.90087,33.482596]},"properties":{"full_address":"安徽省宿州市泗县运河街道东方明珠小区"}},{"type":"Feature","geometry":{"type":"Point","coordinates":[117.872273,33.479309]},"properties":{"full_address":"安徽省宿州市泗县运河街道泗州名城观湖苑"}},{"type":"Feature","geometry":{"type":"Point","coordinates":[117.897661,33.474381]},"properties":{"full_address":"安徽省宿州市泗县运河街道玉兰菜市场"}},{"type":"Feature","geometry":{"type":"Point","coordinates":[117.877946,33.468995]},"properties":{"full_address":"安徽省宿州市泗县运河街道西关社区天和鞋服宿舍"}},{"type":"Feature","geometry":{"type":"Point","coordinates":[117.942398,33.487145]},"properties":{"full_address":"安徽省宿州市泗县泗水街道新发地"}},{"type":"Feature","geometry":{"type":"Point","coordinates":[117.89608,33.488867]},"properties":{"full_address":"安徽省宿州市泗县虹城街道和谐家园小区"}},{"type":"Feature","geometry":{"type":"Point","coordinates":[117.860111,33.468756]},"properties":{"full_address":"安徽省宿州市泗县虹城街道古汴湾小区"}},{"type":"Feature","geometry":{"type":"Point","coordinates":[117.870683,33.464556]},"properties":{"full_address":"安徽省宿州市泗县泗城镇西关开发区虹州运输公司"}},{"type":"Feature","geometry":{"type":"Point","coordinates":[117.740717,33.392705]},"properties":{"full_address":"安徽省宿州市泗县草沟镇于韩村"}},{"type":"Feature","geometry":{"type":"Point","coordinates":[117.868596,33.478047]},"properties":{"full_address":"安徽省宿州市泗县运河街道荣辉国际小区"}},{"type":"Feature","geometry":{"type":"Point","coordinates":[117.882936,33.478012]},"properties":{"full_address":"安徽省宿州市泗县泗水街道泗州绿苑小区"}},{"type":"Feature","geometry":{"type":"Point","coordinates":[117.921992,33.41307]},"properties":{"full_address":"安徽省宿州市泗县大路口镇河平村"}},{"type":"Feature","geometry":{"type":"Point","coordinates":[117.866013,33.379207]},"properties":{"full_address":"安徽省宿州市泗县大路口镇龙沟村"}},{"type":"Feature","geometry":{"type":"Point","coordinates":[117.746294,33.366217]},"properties":{"full_address":"安徽省宿州市泗县草沟镇桥东村"}},{"type":"Feature","geometry":{"type":"Point","coordinates":[117.712502,33.46524]},"properties":{"full_address":"安徽省宿州市泗县草沟镇夏庙村"}},{"type":"Feature","geometry":{"type":"Point","coordinates":[117.70209,33.30906]},"properties":{"full_address":"安徽省宿州市泗县草沟镇李圩村"}},{"type":"Feature","geometry":{"type":"Point","coordinates":[117.681642,33.316729]},"properties":{"full_address":"安徽省宿州市泗县草沟镇汪尚村"}},{"type":"Feature","geometry":{"type":"Point","coordinates":[117.828246,33.32272]},"properties":{"full_address":"安徽省宿州市泗县丁湖镇汤湖村"}},{"type":"Feature","geometry":{"type":"Point","coordinates":[117.883788,33.578077]},"properties":{"full_address":"安徽省宿州市泗县屏山镇屏东村"}},{"type":"Feature","geometry":{"type":"Point","coordinates":[117.828298,33.69679]},"properties":{"full_address":"安徽省宿州市泗县大庄镇万安村"}},{"type":"Feature","geometry":{"type":"Point","coordinates":[117.782121,33.695278]},"properties":{"full_address":"安徽省宿州市泗县黄圩镇三侯村"}},{"type":"Feature","geometry":{"type":"Point","coordinates":[117.908351,33.486207]},"properties":{"full_address":"安徽省宿州市泗县运河街道东城英郡小区"}},{"type":"Feature","geometry":{"type":"Point","coordinates":[117.903127,33.478116]},"properties":{"full_address":"安徽省宿州市泗县运河街道家和花园小区"}},{"type":"Feature","geometry":{"type":"Point","coordinates":[117.926388,33.479511]},"properties":{"full_address":"安徽省宿州市泗县泗水街道东城丽苑"}},{"type":"Feature","geometry":{"type":"Point","coordinates":[117.882936,33.478012]},"properties":{"full_address":"安徽省宿州市泗县虹城街道紫宸苑"}},{"type":"Feature","geometry":{"type":"Point","coordinates":[117.904879,33.712988]},"properties":{"full_address":"安徽省宿州市泗县大庄镇东风村"}},{"type":"Feature","geometry":{"type":"Point","coordinates":[117.991741,33.529019]},"properties":{"full_address":"安徽省宿州市泗县黑塔镇三葛村"}},{"type":"Feature","geometry":{"type":"Point","coordinates":[117.794129,33.625625]},"properties":{"full_address":"安徽省宿州市泗县大杨镇大杨镇卫生院"}},{"type":"Feature","geometry":{"type":"Point","coordinates":[117.604323,24.631076]},"properties":{"full_address":"福建省漳州市芗城区浦南镇布坑村龙前社26-1号4幢"}},{"type":"Feature","geometry":{"type":"Point","coordinates":[119.98723,26.884043]},"properties":{"full_address":"福建省宁德市霞浦县松城街道富荣弄196号"}},{"type":"Feature","geometry":{"type":"Point","coordinates":[120.000335,26.880099]},"properties":{"full_address":"福建省宁德市霞浦县东至松城街道永福弄348号，北至松城街道永福弄89号，西至松城街道茶厂路，南至松城街道茶厂路40号整个区域"}},{"type":"Feature","geometry":{"type":"Point","coordinates":[120.003855,26.876978]},"properties":{"full_address":"福建省宁德市霞浦县松城街道山河路96号"}},{"type":"Feature","geometry":{"type":"Point","coordinates":[120.004854,26.878762]},"properties":{"full_address":"福建省宁德市霞浦县松城街道龙首花园楼下盐田泡冰店"}},{"type":"Feature","geometry":{"type":"Point","coordinates":[120.01309,26.885845]},"properties":{"full_address":"福建省宁德市霞浦县松港街道百丽花园12栋店面"}},{"type":"Feature","geometry":{"type":"Point","coordinates":[120.010658,26.880858]},"properties":{"full_address":"福建省宁德市霞浦县松城街道燕窝里172号周边两排"}},{"type":"Feature","geometry":{"type":"Point","coordinates":[120.110444,26.772874]},"properties":{"full_address":"福建省宁德市霞浦县长春镇渔家地村（主村）"}},{"type":"Feature","geometry":{"type":"Point","coordinates":[120.028426,26.908484]},"properties":{"full_address":"福建省宁德市霞浦县松港街道金顶国际3号楼"}},{"type":"Feature","geometry":{"type":"Point","coordinates":[119.984562,26.865271]},"properties":{"full_address":"福建省宁德市霞浦县松城街道玉旺新村后四排"}},{"type":"Feature","geometry":{"type":"Point","coordinates":[120.012611,26.879709]},"properties":{"full_address":"福建省宁德市霞浦县松城街道家缘小区1号楼"}},{"type":"Feature","geometry":{"type":"Point","coordinates":[120.00825,26.88171]},"properties":{"full_address":"福建省宁德市霞浦县松城街道康辉花园2号楼"}},{"type":"Feature","geometry":{"type":"Point","coordinates":[119.996745,26.717584]},"properties":{"full_address":"福建省宁德市霞浦县长春镇文岐村主村"}},{"type":"Feature","geometry":{"type":"Point","coordinates":[120.028253,26.908124]},"properties":{"full_address":"福建省宁德市霞浦县松港街道金顶国际一期1#、2#、5#"}},{"type":"Feature","geometry":{"type":"Point","coordinates":[120.016221,26.894279]},"properties":{"full_address":"福建省宁德市霞浦县松港街道东关平安路165号"}},{"type":"Feature","geometry":{"type":"Point","coordinates":[120.021035,26.895487]},"properties":{"full_address":"福建省宁德市霞浦县松港街道东关永康路9号"}},{"type":"Feature","geometry":{"type":"Point","coordinates":[120.023167,26.887934]},"properties":{"full_address":"福建省宁德市霞浦县松港街道阳光城6号楼"}},{"type":"Feature","geometry":{"type":"Point","coordinates":[120.016174,26.885216]},"properties":{"full_address":"福建省宁德市霞浦县松港街道金山花园19号楼"}},{"type":"Feature","geometry":{"type":"Point","coordinates":[120.02722,26.890473]},"properties":{"full_address":"福建省宁德市霞浦县松港街道东阳社区东泰华府二期盐田湾海鲜楼店铺"}},{"type":"Feature","geometry":{"type":"Point","coordinates":[120.043048,26.892402]},"properties":{"full_address":"福建省宁德市霞浦县松港街道后港村育英街103号"}},{"type":"Feature","geometry":{"type":"Point","coordinates":[120.010439,26.887582]},"properties":{"full_address":"福建省宁德市霞浦县松城街道东吾华庭1号楼、3号楼"}},{"type":"Feature","geometry":{"type":"Point","coordinates":[120.005554,26.8817]},"properties":{"full_address":"福建省宁德市霞浦县松城街道天安花苑26号"}},{"type":"Feature","geometry":{"type":"Point","coordinates":[120.009187,26.880433]},"properties":{"full_address":"福建省宁德市霞浦县松城街道东园新村23号"}},{"type":"Feature","geometry":{"type":"Point","coordinates":[119.973894,26.873964]},"properties":{"full_address":"福建省宁德市霞浦县松城街道七宝洋新村"}},{"type":"Feature","geometry":{"type":"Point","coordinates":[120.003198,26.883605]},"properties":{"full_address":"福建省宁德市霞浦县松城街道中乘社区中兴商场"}},{"type":"Feature","geometry":{"type":"Point","coordinates":[120.005643,26.885204]},"properties":{"full_address":"福建省宁德市霞浦县松山街道红星美凯龙商场"}},{"type":"Feature","geometry":{"type":"Point","coordinates":[119.857975,26.777514]},"properties":{"full_address":"福建省宁德市霞浦县沙江镇坡头村渔民沃自然村"}},{"type":"Feature","geometry":{"type":"Point","coordinates":[120.183127,35.973247]},"properties":{"full_address":"山东省青岛市黄岛区太行山一支路6号绿岛印象欣苑小区"}},{"type":"Feature","geometry":{"type":"Point","coordinates":[120.184791,35.982925]},"properties":{"full_address":"山东省青岛市黄岛区青岛保税港区东京路49号（A）"}},{"type":"Feature","geometry":{"type":"Point","coordinates":[118.26083,35.148546]},"properties":{"full_address":"山东省临沂市兰山区义堂镇小邬埠湖村"}},{"type":"Feature","geometry":{"type":"Point","coordinates":[118.26083,35.148546]},"properties":{"full_address":"山东省临沂市兰山区义堂镇大邬埠湖村"}},{"type":"Feature","geometry":{"type":"Point","coordinates":[118.232707,35.136019]},"properties":{"full_address":"山东省临沂市兰山区义堂镇堰东村中央大街以东区域"}},{"type":"Feature","geometry":{"type":"Point","coordinates":[118.305284,35.055025]},"properties":{"full_address":"山东省临沂市兰山区银雀山街道阳光新城小区"}},{"type":"Feature","geometry":{"type":"Point","coordinates":[109.035422,34.23808]},"properties":{"full_address":"陕西省西安市雁塔区等驾坡街道白杨寨村"}},{"type":"Feature","geometry":{"type":"Point","coordinates":[108.927792,34.209554]},"properties":{"full_address":"陕西省西安市雁塔区长延堡街道青松路社区西安市46中学家属院"}},{"type":"Feature","geometry":{"type":"Point","coordinates":[109.012922,34.177592]},"properties":{"full_address":"陕西省西安市长安区韦曲街道简王井村陕西朝辉再生资源交易集散市场（大风尚再生艺术馆）"}},{"type":"Feature","geometry":{"type":"Point","coordinates":[109.009112,34.207903]},"properties":{"full_address":"陕西省西安市曲江新区中铁国际社区龙邸小区"}},{"type":"Feature","geometry":{"type":"Point","coordinates":[108.988074,34.186969]},"properties":{"full_address":"陕西省西安市曲江新区曲江香都社区万科蜜柚小区"}},{"type":"Feature","geometry":{"type":"Point","coordinates":[108.898777,34.215171]},"properties":{"full_address":"陕西省西安市曲江新区曲江香都社区天地源曲江香都小区"}},{"type":"Feature","geometry":{"type":"Point","coordinates":[109.003863,34.214018]},"properties":{"full_address":"陕西省西安市曲江新区龙游北路社区万科翡翠国际城东区"}},{"type":"Feature","geometry":{"type":"Point","coordinates":[108.972283,34.182977]},"properties":{"full_address":"陕西省西安市曲江新区金辉社区金辉世界城小区C区"}},{"type":"Feature","geometry":{"type":"Point","coordinates":[108.957875,34.160477]},"properties":{"full_address":"陕西省西安市航天基地上元郡社区航天新佳园一期（含临街商铺）"}},{"type":"Feature","geometry":{"type":"Point","coordinates":[109.042548,34.369456]},"properties":{"full_address":"陕西省西安市国际港务区新筑街道兰家村"}}]}