{"type":"FeatureCollection","features":[{"type":"Feature","geometry":{"type":"Point","coordinates":[117.189019,39.105494]},"properties":{"province":"天津市","city":"天津市","county":"和平区","community":"新兴街吴家窑二号路15号楼及相连底商","full_address":"天津市天津市和平区新兴街吴家窑二号路15号楼及相连底商","info":""}},{"type":"Feature","geometry":{"type":"Point","coordinates":[117.189122,39.105061]},"properties":{"province":"天津市","city":"天津市","county":"和平区","community":"新兴街新中东里1-7号楼","full_address":"天津市天津市和平区新兴街新中东里1-7号楼","info":""}},{"type":"Feature","geometry":{"type":"Point","coordinates":[117.256492,39.138911]},"properties":{"province":"天津市","city":"天津市","county":"河东区","community":"向阳楼街道昕旺南苑1号楼、2号楼","full_address":"天津市天津市河东区向阳楼街道昕旺南苑1号楼、2号楼","info":""}},{"type":"Feature","geometry":{"type":"Point","coordinates":[117.282535,39.095591]},"properties":{"province":"天津市","city":"天津市","county":"河东区","community":"二号桥街道金地紫云庭13号楼、14号楼","full_address":"天津市天津市河东区二号桥街道金地紫云庭13号楼、14号楼","info":""}},{"type":"Feature","geometry":{"type":"Point","coordinates":[117.24318,39.148279]},"properties":{"province":"天津市","city":"天津市","county":"河东区","community":"鲁山道街道皓阳园（4号楼除外）","full_address":"天津市天津市河东区鲁山道街道皓阳园（4号楼除外）","info":""}},{"type":"Feature","geometry":{"type":"Point","coordinates":[117.261132,39.102843]},"properties":{"province":"天津市","city":"天津市","county":"河东区","community":"中山门街道中山门西里（21号楼独院除外）和互助南里（16号楼、18号楼除外）","full_address":"天津市天津市河东区中山门街道中山门西里（21号楼独院除外）和互助南里（16号楼、18号楼除外）","info":""}},{"type":"Feature","geometry":{"type":"Point","coordinates":[117.262074,39.155391]},"properties":{"province":"天津市","city":"天津市","county":"河东区","community":"常州道街道东惠家园（9号楼除外）","full_address":"天津市天津市河东区常州道街道东惠家园（9号楼除外）","info":""}},{"type":"Feature","geometry":{"type":"Point","coordinates":[117.270317,39.075814]},"properties":{"province":"天津市","city":"天津市","county":"河西区","community":"柳林街金海湾花园21号楼","full_address":"天津市天津市河西区柳林街金海湾花园21号楼","info":""}},{"type":"Feature","geometry":{"type":"Point","coordinates":[117.231908,39.08687]},"properties":{"province":"天津市","city":"天津市","county":"河西区","community":"尖山街红升里41、43、45、47门","full_address":"天津市天津市河西区尖山街红升里41、43、45、47门","info":""}},{"type":"Feature","geometry":{"type":"Point","coordinates":[117.201759,39.104094]},"properties":{"province":"天津市","city":"天津市","county":"河西区","community":"桃园街湛江路4-18门（双号门）、湛江路新村除上述高风险区以外的其他区域","full_address":"天津市天津市河西区桃园街湛江路4-18门（双号门）、湛江路新村除上述高风险区以外的其他区域","info":""}},{"type":"Feature","geometry":{"type":"Point","coordinates":[117.209673,39.098774]},"properties":{"province":"天津市","city":"天津市","county":"河西区","community":"越秀路街恩德西里1-47门、恩德东里1-42门","full_address":"天津市天津市河西区越秀路街恩德西里1-47门、恩德东里1-42门","info":""}},{"type":"Feature","geometry":{"type":"Point","coordinates":[117.207156,39.095007]},"properties":{"province":"天津市","city":"天津市","county":"河西区","community":"越秀路街育红楼13至19门","full_address":"天津市天津市河西区越秀路街育红楼13至19门","info":""}},{"type":"Feature","geometry":{"type":"Point","coordinates":[117.260395,39.076446]},"properties":{"province":"天津市","city":"天津市","county":"河西区","community":"陈塘庄街幸福家园除高风险区外的其他区域、钢厂宿舍、副食大楼","full_address":"天津市天津市河西区陈塘庄街幸福家园除高风险区外的其他区域、钢厂宿舍、副食大楼","info":""}},{"type":"Feature","geometry":{"type":"Point","coordinates":[117.26326,39.070007]},"properties":{"province":"天津市","city":"天津市","county":"河西区","community":"柳林街恒山里46门、48门","full_address":"天津市天津市河西区柳林街恒山里46门、48门","info":""}},{"type":"Feature","geometry":{"type":"Point","coordinates":[117.26326,39.070007]},"properties":{"province":"天津市","city":"天津市","county":"河西区","community":"柳林街恒山里12门、14门、16门、26门至32门","full_address":"天津市天津市河西区柳林街恒山里12门、14门、16门、26门至32门","info":""}},{"type":"Feature","geometry":{"type":"Point","coordinates":[117.207161,39.098526]},"properties":{"province":"天津市","city":"天津市","county":"河西区","community":"越秀路街黄埔里2、4、9、13、27、29、30门","full_address":"天津市天津市河西区越秀路街黄埔里2、4、9、13、27、29、30门","info":""}},{"type":"Feature","geometry":{"type":"Point","coordinates":[117.143802,39.085065]},"properties":{"province":"天津市","city":"天津市","county":"南开区","community":"王顶堤街林苑西里19号楼","full_address":"天津市天津市南开区王顶堤街林苑西里19号楼","info":""}},{"type":"Feature","geometry":{"type":"Point","coordinates":[117.141144,39.143575]},"properties":{"province":"天津市","city":"天津市","county":"南开区","community":"长虹街雅云里小区2、3、7、9、10号楼和雅云里平房","full_address":"天津市天津市南开区长虹街雅云里小区2、3、7、9、10号楼和雅云里平房","info":""}},{"type":"Feature","geometry":{"type":"Point","coordinates":[117.170367,39.1766]},"properties":{"province":"天津市","city":"天津市","county":"红桥区","community":"丁字沽街桃花园东里除高风险区外其他区域、光荣楼小区","full_address":"天津市天津市红桥区丁字沽街桃花园东里除高风险区外其他区域、光荣楼小区","info":""}},{"type":"Feature","geometry":{"type":"Point","coordinates":[117.305219,39.086369]},"properties":{"province":"天津市","city":"天津市","county":"东丽区","community":"张贵庄街詹滨西里小区南院19、27号楼","full_address":"天津市天津市东丽区张贵庄街詹滨西里小区南院19、27号楼","info":""}},{"type":"Feature","geometry":{"type":"Point","coordinates":[117.311722,39.086208]},"properties":{"province":"天津市","city":"天津市","county":"东丽区","community":"张贵庄街津门里小区除高风险区以外区域","full_address":"天津市天津市东丽区张贵庄街津门里小区除高风险区以外区域","info":""}},{"type":"Feature","geometry":{"type":"Point","coordinates":[117.328544,39.094431]},"properties":{"province":"天津市","city":"天津市","county":"东丽区","community":"丰年村街万科民和巷花园小区5、12、13、16、17、19、20、21、24、25、26、27、29号楼","full_address":"天津市天津市东丽区丰年村街万科民和巷花园小区5、12、13、16、17、19、20、21、24、25、26、27、29号楼","info":""}},{"type":"Feature","geometry":{"type":"Point","coordinates":[117.277164,39.111013]},"properties":{"province":"天津市","city":"天津市","county":"东丽区","community":"万新街增兴家园小区除高风险区以外区域","full_address":"天津市天津市东丽区万新街增兴家园小区除高风险区以外区域","info":""}},{"type":"Feature","geometry":{"type":"Point","coordinates":[117.114701,39.043537]},"properties":{"province":"天津市","city":"天津市","county":"西青区","community":"精武镇锦泽苑小区43号楼","full_address":"天津市天津市西青区精武镇锦泽苑小区43号楼","info":""}},{"type":"Feature","geometry":{"type":"Point","coordinates":[117.216739,38.993891]},"properties":{"province":"天津市","city":"天津市","county":"西青区","community":"大寺镇芦欣家园小区四区8号楼","full_address":"天津市天津市西青区大寺镇芦欣家园小区四区8号楼","info":""}},{"type":"Feature","geometry":{"type":"Point","coordinates":[117.173751,39.048094]},"properties":{"province":"天津市","city":"天津市","county":"西青区","community":"李七庄街盛阳园（除1号楼、2号楼外）","full_address":"天津市天津市西青区李七庄街盛阳园（除1号楼、2号楼外）","info":""}},{"type":"Feature","geometry":{"type":"Point","coordinates":[117.236941,38.92198]},"properties":{"province":"天津市","city":"天津市","county":"西青区","community":"王稳庄镇大侯庄村平房区（津淄公路以东）","full_address":"天津市天津市西青区王稳庄镇大侯庄村平房区（津淄公路以东）","info":""}},{"type":"Feature","geometry":{"type":"Point","coordinates":[117.286415,39.054357]},"properties":{"province":"天津市","city":"天津市","county":"津南区","community":"双林街福松源庄一期15号楼","full_address":"天津市天津市津南区双林街福松源庄一期15号楼","info":""}},{"type":"Feature","geometry":{"type":"Point","coordinates":[117.347413,39.02642]},"properties":{"province":"天津市","city":"天津市","county":"津南区","community":"辛庄镇首创星景苑3号楼、6号楼","full_address":"天津市天津市津南区辛庄镇首创星景苑3号楼、6号楼","info":""}},{"type":"Feature","geometry":{"type":"Point","coordinates":[117.332188,38.938644]},"properties":{"province":"天津市","city":"天津市","county":"津南区","community":"八里台镇碧桂园映月庭院除2号楼以外区域","full_address":"天津市天津市津南区八里台镇碧桂园映月庭院除2号楼以外区域","info":""}},{"type":"Feature","geometry":{"type":"Point","coordinates":[117.680818,39.006933]},"properties":{"province":"天津市","city":"天津市","county":"滨海新区","community":"“东至海滨大道，西至秦滨高速，北至永定新河，南至海河”为四至区域，涉及北塘街、新河街、新北街、杭州道街、泰达街、胡家园街、新村街、塘沽街、新港街等9个街道在以上四至范围内高风险区域之外的区域","full_address":"天津市天津市滨海新区“东至海滨大道，西至秦滨高速，北至永定新河，南至海河”为四至区域，涉及北塘街、新河街、新北街、杭州道街、泰达街、胡家园街、新村街、塘沽街、新港街等9个街道在以上四至范围内高风险区域之外的区域","info":""}},{"type":"Feature","geometry":{"type":"Point","coordinates":[114.575242,38.027191]},"properties":{"province":"河北省","city":"石家庄市","county":"裕华区","community":"裕东街道阳光361小区","full_address":"河北省石家庄市裕华区裕东街道阳光361小区","info":""}},{"type":"Feature","geometry":{"type":"Point","coordinates":[114.52575,38.024125]},"properties":{"province":"河北省","city":"石家庄市","county":"裕华区","community":"槐底街道槐底二区","full_address":"河北省石家庄市裕华区槐底街道槐底二区","info":""}},{"type":"Feature","geometry":{"type":"Point","coordinates":[115.517572,38.871032]},"properties":{"province":"河北省","city":"保定市","county":"莲池区","community":"河北大学五四路校区（五四东路180号）","full_address":"河北省保定市莲池区河北大学五四路校区（五四东路180号）","info":""}},{"type":"Feature","geometry":{"type":"Point","coordinates":[115.214905,37.932313]},"properties":{"province":"河北省","city":"辛集市","county":"辛集市","community":"维也纳酒店（兴华路与方碑大街交口西北角）","full_address":"河北省辛集市辛集市维也纳酒店（兴华路与方碑大街交口西北角）","info":""}},{"type":"Feature","geometry":{"type":"Point","coordinates":[115.210636,37.93772]},"properties":{"province":"河北省","city":"辛集市","county":"辛集市","community":"亨盛小区南区东院2号楼","full_address":"河北省辛集市辛集市亨盛小区南区东院2号楼","info":""}},{"type":"Feature","geometry":{"type":"Point","coordinates":[112.554443,37.824196]},"properties":{"province":"山西省","city":"太原市","county":"小店区","community":"水总花园小区","full_address":"山西省太原市小店区水总花园小区","info":""}},{"type":"Feature","geometry":{"type":"Point","coordinates":[112.547732,37.967843]},"properties":{"province":"山西省","city":"太原市","county":"尖草坪区","community":"新店小区二期（3、4、5号楼）；荣兴天顺小区1号楼；太钢青楼宿舍（12、13、14、15、16、17、18、19、20号楼及社区食堂）","full_address":"山西省太原市尖草坪区新店小区二期（3、4、5号楼）；荣兴天顺小区1号楼；太钢青楼宿舍（12、13、14、15、16、17、18、19、20号楼及社区食堂）","info":""}},{"type":"Feature","geometry":{"type":"Point","coordinates":[112.563644,37.808288]},"properties":{"province":"山西省","city":"太原市","county":"万柏林区","community":"山西大众电子信息产业集团有限公司厂区","full_address":"山西省太原市万柏林区山西大众电子信息产业集团有限公司厂区","info":""}},{"type":"Feature","geometry":{"type":"Point","coordinates":[112.508578,37.79503]},"properties":{"province":"山西省","city":"太原市","county":"晋源区","community":"太原科技大学南校区","full_address":"山西省太原市晋源区太原科技大学南校区","info":""}},{"type":"Feature","geometry":{"type":"Point","coordinates":[113.611557,40.034962]},"properties":{"province":"山西省","city":"大同市","county":"云州区","community":"云州区交通小区","full_address":"山西省大同市云州区云州区交通小区","info":""}},{"type":"Feature","geometry":{"type":"Point","coordinates":[113.896706,40.055986]},"properties":{"province":"山西省","city":"大同市","county":"阳高县","community":"阳高县东小村（包括新村）","full_address":"山西省大同市阳高县阳高县东小村（包括新村）","info":""}},{"type":"Feature","geometry":{"type":"Point","coordinates":[111.640617,40.820814]},"properties":{"province":"内蒙古自治区","city":"呼和浩特市","county":"回民区","community":"光明路探矿小区（除简易楼南排一楼）","full_address":"内蒙古自治区呼和浩特市回民区光明路探矿小区（除简易楼南排一楼）","info":""}},{"type":"Feature","geometry":{"type":"Point","coordinates":[111.635409,40.815691]},"properties":{"province":"内蒙古自治区","city":"呼和浩特市","county":"回民区","community":"阿吉拉沁北路与新华西街交叉口工行家属院（除三号楼）","full_address":"内蒙古自治区呼和浩特市回民区阿吉拉沁北路与新华西街交叉口工行家属院（除三号楼）","info":""}},{"type":"Feature","geometry":{"type":"Point","coordinates":[111.65395,40.8185]},"properties":{"province":"内蒙古自治区","city":"呼和浩特市","county":"回民区","community":"回民区通道街新华桥铁路小区（除一号楼）","full_address":"内蒙古自治区呼和浩特市回民区回民区通道街新华桥铁路小区（除一号楼）","info":""}},{"type":"Feature","geometry":{"type":"Point","coordinates":[111.654118,40.8058]},"properties":{"province":"内蒙古自治区","city":"呼和浩特市","county":"玉泉区","community":"九龙湾街兰德公寓(除6-17层)","full_address":"内蒙古自治区呼和浩特市玉泉区九龙湾街兰德公寓(除6-17层)","info":""}},{"type":"Feature","geometry":{"type":"Point","coordinates":[107.467651,40.854113]},"properties":{"province":"内蒙古自治区","city":"巴彦淖尔市","county":"临河区","community":"曙光乡治丰二组","full_address":"内蒙古自治区巴彦淖尔市临河区曙光乡治丰二组","info":""}},{"type":"Feature","geometry":{"type":"Point","coordinates":[126.761453,45.727293]},"properties":{"province":"黑龙江省","city":"哈尔滨市","county":"香坊区","community":"金源幸福小区","full_address":"黑龙江省哈尔滨市香坊区金源幸福小区","info":""}},{"type":"Feature","geometry":{"type":"Point","coordinates":[126.685463,45.725451]},"properties":{"province":"黑龙江省","city":"哈尔滨市","county":"香坊区","community":"香坊大街45-3号院","full_address":"黑龙江省哈尔滨市香坊区香坊大街45-3号院","info":""}},{"type":"Feature","geometry":{"type":"Point","coordinates":[126.673367,45.675695]},"properties":{"province":"黑龙江省","city":"哈尔滨市","county":"香坊区","community":"黎明街道办事处穆家新区9号楼","full_address":"黑龙江省哈尔滨市香坊区黎明街道办事处穆家新区9号楼","info":""}},{"type":"Feature","geometry":{"type":"Point","coordinates":[126.727454,45.731695]},"properties":{"province":"黑龙江省","city":"哈尔滨市","county":"香坊区","community":"城东新居C区5号楼","full_address":"黑龙江省哈尔滨市香坊区城东新居C区5号楼","info":""}},{"type":"Feature","geometry":{"type":"Point","coordinates":[126.677846,45.723892]},"properties":{"province":"黑龙江省","city":"哈尔滨市","county":"香坊区","community":"通站街106号院内多福公寓","full_address":"黑龙江省哈尔滨市香坊区通站街106号院内多福公寓","info":""}},{"type":"Feature","geometry":{"type":"Point","coordinates":[126.726039,45.729561]},"properties":{"province":"黑龙江省","city":"哈尔滨市","county":"香坊区","community":"城东新居D区8号楼","full_address":"黑龙江省哈尔滨市香坊区城东新居D区8号楼","info":""}},{"type":"Feature","geometry":{"type":"Point","coordinates":[126.677798,45.725027]},"properties":{"province":"黑龙江省","city":"哈尔滨市","county":"香坊区","community":"香木街副12-10号院1号楼","full_address":"黑龙江省哈尔滨市香坊区香木街副12-10号院1号楼","info":""}},{"type":"Feature","geometry":{"type":"Point","coordinates":[126.679488,45.726504]},"properties":{"province":"黑龙江省","city":"哈尔滨市","county":"香坊区","community":"古香街44号楼","full_address":"黑龙江省哈尔滨市香坊区古香街44号楼","info":""}},{"type":"Feature","geometry":{"type":"Point","coordinates":[126.73983,45.721534]},"properties":{"province":"黑龙江省","city":"哈尔滨市","county":"香坊区","community":"幸福镇安居社区4号楼","full_address":"黑龙江省哈尔滨市香坊区幸福镇安居社区4号楼","info":""}},{"type":"Feature","geometry":{"type":"Point","coordinates":[126.797418,45.700963]},"properties":{"province":"黑龙江省","city":"哈尔滨市","county":"香坊区","community":"哈纺社区210栋","full_address":"黑龙江省哈尔滨市香坊区哈纺社区210栋","info":""}},{"type":"Feature","geometry":{"type":"Point","coordinates":[126.679885,45.722312]},"properties":{"province":"黑龙江省","city":"哈尔滨市","county":"香坊区","community":"香坊大街200号院","full_address":"黑龙江省哈尔滨市香坊区香坊大街200号院","info":""}},{"type":"Feature","geometry":{"type":"Point","coordinates":[126.684216,45.724776]},"properties":{"province":"黑龙江省","city":"哈尔滨市","county":"香坊区","community":"香武胡同4号","full_address":"黑龙江省哈尔滨市香坊区香武胡同4号","info":""}},{"type":"Feature","geometry":{"type":"Point","coordinates":[126.6842,45.724847]},"properties":{"province":"黑龙江省","city":"哈尔滨市","county":"香坊区","community":"香武胡同6号","full_address":"黑龙江省哈尔滨市香坊区香武胡同6号","info":""}},{"type":"Feature","geometry":{"type":"Point","coordinates":[126.684566,45.722327]},"properties":{"province":"黑龙江省","city":"哈尔滨市","county":"香坊区","community":"公滨路、红旗大街、香坊大街、卫生街、滨北线、三合路合围区域","full_address":"黑龙江省哈尔滨市香坊区公滨路、红旗大街、香坊大街、卫生街、滨北线、三合路合围区域","info":""}},{"type":"Feature","geometry":{"type":"Point","coordinates":[126.684229,45.725]},"properties":{"province":"黑龙江省","city":"哈尔滨市","county":"香坊区","community":"香武胡同10号1单元、2单元、3单元风险等级调整为中风险区","full_address":"黑龙江省哈尔滨市香坊区香武胡同10号1单元、2单元、3单元风险等级调整为中风险区","info":""}},{"type":"Feature","geometry":{"type":"Point","coordinates":[130.362288,46.819308]},"properties":{"province":"黑龙江省","city":"佳木斯市","county":"向阳区","community":"市委22号楼","full_address":"黑龙江省佳木斯市向阳区市委22号楼","info":""}},{"type":"Feature","geometry":{"type":"Point","coordinates":[130.368803,46.807333]},"properties":{"province":"黑龙江省","city":"佳木斯市","county":"向阳区","community":"金厦佳苑","full_address":"黑龙江省佳木斯市向阳区金厦佳苑","info":""}},{"type":"Feature","geometry":{"type":"Point","coordinates":[130.36703,46.811155]},"properties":{"province":"黑龙江省","city":"佳木斯市","county":"向阳区","community":"时代景城小区","full_address":"黑龙江省佳木斯市向阳区时代景城小区","info":""}},{"type":"Feature","geometry":{"type":"Point","coordinates":[130.373844,46.796295]},"properties":{"province":"黑龙江省","city":"佳木斯市","county":"向阳区","community":"中山名苑7号楼","full_address":"黑龙江省佳木斯市向阳区中山名苑7号楼","info":""}},{"type":"Feature","geometry":{"type":"Point","coordinates":[130.355583,46.811417]},"properties":{"province":"黑龙江省","city":"佳木斯市","county":"向阳区","community":"建业小区","full_address":"黑龙江省佳木斯市向阳区建业小区","info":""}},{"type":"Feature","geometry":{"type":"Point","coordinates":[130.376464,46.79375]},"properties":{"province":"黑龙江省","city":"佳木斯市","county":"向阳区","community":"南铁西小区","full_address":"黑龙江省佳木斯市向阳区南铁西小区","info":""}},{"type":"Feature","geometry":{"type":"Point","coordinates":[130.361175,46.811067]},"properties":{"province":"黑龙江省","city":"佳木斯市","county":"向阳区","community":"珍铭苑小区","full_address":"黑龙江省佳木斯市向阳区珍铭苑小区","info":""}},{"type":"Feature","geometry":{"type":"Point","coordinates":[130.332412,46.793061]},"properties":{"province":"黑龙江省","city":"佳木斯市","county":"向阳区","community":"万公馆","full_address":"黑龙江省佳木斯市向阳区万公馆","info":""}},{"type":"Feature","geometry":{"type":"Point","coordinates":[130.366323,46.812309]},"properties":{"province":"黑龙江省","city":"佳木斯市","county":"向阳区","community":"红旗嘉苑","full_address":"黑龙江省佳木斯市向阳区红旗嘉苑","info":""}},{"type":"Feature","geometry":{"type":"Point","coordinates":[130.355074,46.817015]},"properties":{"province":"黑龙江省","city":"佳木斯市","county":"向阳区","community":"金地家园","full_address":"黑龙江省佳木斯市向阳区金地家园","info":""}},{"type":"Feature","geometry":{"type":"Point","coordinates":[130.367009,46.809711]},"properties":{"province":"黑龙江省","city":"佳木斯市","county":"向阳区","community":"中元宾馆","full_address":"黑龙江省佳木斯市向阳区中元宾馆","info":""}},{"type":"Feature","geometry":{"type":"Point","coordinates":[130.35123,46.816986]},"properties":{"province":"黑龙江省","city":"佳木斯市","county":"向阳区","community":"嘉园小区独栋楼","full_address":"黑龙江省佳木斯市向阳区嘉园小区独栋楼","info":""}},{"type":"Feature","geometry":{"type":"Point","coordinates":[130.368938,46.78633]},"properties":{"province":"黑龙江省","city":"佳木斯市","county":"向阳区","community":"新华名苑A2栋","full_address":"黑龙江省佳木斯市向阳区新华名苑A2栋","info":""}},{"type":"Feature","geometry":{"type":"Point","coordinates":[130.368953,46.790457]},"properties":{"province":"黑龙江省","city":"佳木斯市","county":"向阳区","community":"翰林名苑15号楼","full_address":"黑龙江省佳木斯市向阳区翰林名苑15号楼","info":""}},{"type":"Feature","geometry":{"type":"Point","coordinates":[130.363071,46.801679]},"properties":{"province":"黑龙江省","city":"佳木斯市","county":"向阳区","community":"杏湖壹品4号楼","full_address":"黑龙江省佳木斯市向阳区杏湖壹品4号楼","info":""}},{"type":"Feature","geometry":{"type":"Point","coordinates":[130.361932,46.816277]},"properties":{"province":"黑龙江省","city":"佳木斯市","county":"向阳区","community":"西林金地C栋","full_address":"黑龙江省佳木斯市向阳区西林金地C栋","info":""}},{"type":"Feature","geometry":{"type":"Point","coordinates":[130.366833,46.81125]},"properties":{"province":"黑龙江省","city":"佳木斯市","county":"向阳区","community":"珍铭苑3号楼","full_address":"黑龙江省佳木斯市向阳区珍铭苑3号楼","info":""}},{"type":"Feature","geometry":{"type":"Point","coordinates":[130.332412,46.793061]},"properties":{"province":"黑龙江省","city":"佳木斯市","county":"向阳区","community":"万公馆22号楼","full_address":"黑龙江省佳木斯市向阳区万公馆22号楼","info":""}},{"type":"Feature","geometry":{"type":"Point","coordinates":[130.365759,46.786449]},"properties":{"province":"黑龙江省","city":"佳木斯市","county":"向阳区","community":"佳木斯大学一区B院50号楼","full_address":"黑龙江省佳木斯市向阳区佳木斯大学一区B院50号楼","info":""}},{"type":"Feature","geometry":{"type":"Point","coordinates":[130.35912,46.80531]},"properties":{"province":"黑龙江省","city":"佳木斯市","county":"向阳区","community":"光明社区佳大26号楼","full_address":"黑龙江省佳木斯市向阳区光明社区佳大26号楼","info":""}},{"type":"Feature","geometry":{"type":"Point","coordinates":[130.339302,46.789603]},"properties":{"province":"黑龙江省","city":"佳木斯市","county":"向阳区","community":"万象府4号楼","full_address":"黑龙江省佳木斯市向阳区万象府4号楼","info":""}},{"type":"Feature","geometry":{"type":"Point","coordinates":[130.348775,46.798434]},"properties":{"province":"黑龙江省","city":"佳木斯市","county":"向阳区","community":"金地家园7号楼","full_address":"黑龙江省佳木斯市向阳区金地家园7号楼","info":""}},{"type":"Feature","geometry":{"type":"Point","coordinates":[130.337405,46.806864]},"properties":{"province":"黑龙江省","city":"佳木斯市","county":"向阳区","community":"港龙东方城小区","full_address":"黑龙江省佳木斯市向阳区港龙东方城小区","info":""}},{"type":"Feature","geometry":{"type":"Point","coordinates":[130.3552,46.815]},"properties":{"province":"黑龙江省","city":"佳木斯市","county":"向阳区","community":"牧工商小区","full_address":"黑龙江省佳木斯市向阳区牧工商小区","info":""}},{"type":"Feature","geometry":{"type":"Point","coordinates":[130.36803,46.804326]},"properties":{"province":"黑龙江省","city":"佳木斯市","county":"向阳区","community":"永房教育一小区","full_address":"黑龙江省佳木斯市向阳区永房教育一小区","info":""}},{"type":"Feature","geometry":{"type":"Point","coordinates":[130.365346,46.80779]},"properties":{"province":"黑龙江省","city":"佳木斯市","county":"向阳区","community":"天福城东区","full_address":"黑龙江省佳木斯市向阳区天福城东区","info":""}},{"type":"Feature","geometry":{"type":"Point","coordinates":[130.367242,46.790403]},"properties":{"province":"黑龙江省","city":"佳木斯市","county":"向阳区","community":"翰林名苑小区","full_address":"黑龙江省佳木斯市向阳区翰林名苑小区","info":""}},{"type":"Feature","geometry":{"type":"Point","coordinates":[130.362545,46.810295]},"properties":{"province":"黑龙江省","city":"佳木斯市","county":"向阳区","community":"爱心家园小区","full_address":"黑龙江省佳木斯市向阳区爱心家园小区","info":""}},{"type":"Feature","geometry":{"type":"Point","coordinates":[130.360668,46.811921]},"properties":{"province":"黑龙江省","city":"佳木斯市","county":"向阳区","community":"滨江小区二期","full_address":"黑龙江省佳木斯市向阳区滨江小区二期","info":""}},{"type":"Feature","geometry":{"type":"Point","coordinates":[130.35455,46.8155]},"properties":{"province":"黑龙江省","city":"佳木斯市","county":"向阳区","community":"帝景豪庭小区","full_address":"黑龙江省佳木斯市向阳区帝景豪庭小区","info":""}},{"type":"Feature","geometry":{"type":"Point","coordinates":[130.356375,46.811]},"properties":{"province":"黑龙江省","city":"佳木斯市","county":"向阳区","community":"九州社区永房小区","full_address":"黑龙江省佳木斯市向阳区九州社区永房小区","info":""}},{"type":"Feature","geometry":{"type":"Point","coordinates":[130.362871,46.801909]},"properties":{"province":"黑龙江省","city":"佳木斯市","county":"向阳区","community":"杏湖壹品小区","full_address":"黑龙江省佳木斯市向阳区杏湖壹品小区","info":""}},{"type":"Feature","geometry":{"type":"Point","coordinates":[130.362853,46.810853]},"properties":{"province":"黑龙江省","city":"佳木斯市","county":"向阳区","community":"三江商贸城小区","full_address":"黑龙江省佳木斯市向阳区三江商贸城小区","info":""}},{"type":"Feature","geometry":{"type":"Point","coordinates":[130.348223,46.804335]},"properties":{"province":"黑龙江省","city":"佳木斯市","county":"向阳区","community":"长青街教育一小区","full_address":"黑龙江省佳木斯市向阳区长青街教育一小区","info":""}},{"type":"Feature","geometry":{"type":"Point","coordinates":[130.365346,46.80779]},"properties":{"province":"黑龙江省","city":"佳木斯市","county":"向阳区","community":"璞院3号楼","full_address":"黑龙江省佳木斯市向阳区璞院3号楼","info":""}},{"type":"Feature","geometry":{"type":"Point","coordinates":[130.355571,46.819232]},"properties":{"province":"黑龙江省","city":"佳木斯市","county":"向阳区","community":"德祥小区33号楼","full_address":"黑龙江省佳木斯市向阳区德祥小区33号楼","info":""}},{"type":"Feature","geometry":{"type":"Point","coordinates":[130.369281,46.806078]},"properties":{"province":"黑龙江省","city":"佳木斯市","county":"向阳区","community":"佳里中心C座","full_address":"黑龙江省佳木斯市向阳区佳里中心C座","info":""}},{"type":"Feature","geometry":{"type":"Point","coordinates":[130.365346,46.80779]},"properties":{"province":"黑龙江省","city":"佳木斯市","county":"向阳区","community":"中央公园7号楼","full_address":"黑龙江省佳木斯市向阳区中央公园7号楼","info":""}},{"type":"Feature","geometry":{"type":"Point","coordinates":[130.36803,46.804326]},"properties":{"province":"黑龙江省","city":"佳木斯市","county":"向阳区","community":"体委小区2号楼","full_address":"黑龙江省佳木斯市向阳区体委小区2号楼","info":""}},{"type":"Feature","geometry":{"type":"Point","coordinates":[130.361121,46.813337]},"properties":{"province":"黑龙江省","city":"佳木斯市","county":"向阳区","community":"龙海大厦","full_address":"黑龙江省佳木斯市向阳区龙海大厦","info":""}},{"type":"Feature","geometry":{"type":"Point","coordinates":[130.36145,46.816806]},"properties":{"province":"黑龙江省","city":"佳木斯市","county":"向阳区","community":"西林兴城小区A楼","full_address":"黑龙江省佳木斯市向阳区西林兴城小区A楼","info":""}},{"type":"Feature","geometry":{"type":"Point","coordinates":[130.359982,46.800633]},"properties":{"province":"黑龙江省","city":"佳木斯市","county":"向阳区","community":"杏林南苑A栋","full_address":"黑龙江省佳木斯市向阳区杏林南苑A栋","info":""}},{"type":"Feature","geometry":{"type":"Point","coordinates":[130.367949,46.812382]},"properties":{"province":"黑龙江省","city":"佳木斯市","county":"向阳区","community":"金鑫综合楼","full_address":"黑龙江省佳木斯市向阳区金鑫综合楼","info":""}},{"type":"Feature","geometry":{"type":"Point","coordinates":[130.350622,46.789402]},"properties":{"province":"黑龙江省","city":"佳木斯市","county":"向阳区","community":"昌隆世家小区","full_address":"黑龙江省佳木斯市向阳区昌隆世家小区","info":""}},{"type":"Feature","geometry":{"type":"Point","coordinates":[130.357408,46.812907]},"properties":{"province":"黑龙江省","city":"佳木斯市","county":"向阳区","community":"宏安小区","full_address":"黑龙江省佳木斯市向阳区宏安小区","info":""}},{"type":"Feature","geometry":{"type":"Point","coordinates":[130.360546,46.799885]},"properties":{"province":"黑龙江省","city":"佳木斯市","county":"向阳区","community":"杏林南苑","full_address":"黑龙江省佳木斯市向阳区杏林南苑","info":""}},{"type":"Feature","geometry":{"type":"Point","coordinates":[130.351394,46.807064]},"properties":{"province":"黑龙江省","city":"佳木斯市","county":"向阳区","community":"志兴社区林业楼","full_address":"黑龙江省佳木斯市向阳区志兴社区林业楼","info":""}},{"type":"Feature","geometry":{"type":"Point","coordinates":[130.360567,46.81225]},"properties":{"province":"黑龙江省","city":"佳木斯市","county":"向阳区","community":"滨江小区一期","full_address":"黑龙江省佳木斯市向阳区滨江小区一期","info":""}},{"type":"Feature","geometry":{"type":"Point","coordinates":[130.367458,46.811988]},"properties":{"province":"黑龙江省","city":"佳木斯市","county":"向阳区","community":"枫和林里小区","full_address":"黑龙江省佳木斯市向阳区枫和林里小区","info":""}},{"type":"Feature","geometry":{"type":"Point","coordinates":[130.340464,46.809775]},"properties":{"province":"黑龙江省","city":"佳木斯市","county":"向阳区","community":"临江花园小区","full_address":"黑龙江省佳木斯市向阳区临江花园小区","info":""}},{"type":"Feature","geometry":{"type":"Point","coordinates":[130.351394,46.807064]},"properties":{"province":"黑龙江省","city":"佳木斯市","county":"向阳区","community":"志兴小区","full_address":"黑龙江省佳木斯市向阳区志兴小区","info":""}},{"type":"Feature","geometry":{"type":"Point","coordinates":[130.36803,46.804326]},"properties":{"province":"黑龙江省","city":"佳木斯市","county":"向阳区","community":"安民社区小区","full_address":"黑龙江省佳木斯市向阳区安民社区小区","info":""}},{"type":"Feature","geometry":{"type":"Point","coordinates":[130.366947,46.798848]},"properties":{"province":"黑龙江省","city":"佳木斯市","county":"向阳区","community":"迪尔小区","full_address":"黑龙江省佳木斯市向阳区迪尔小区","info":""}},{"type":"Feature","geometry":{"type":"Point","coordinates":[130.355707,46.816699]},"properties":{"province":"黑龙江省","city":"佳木斯市","county":"向阳区","community":"中央公馆K区","full_address":"黑龙江省佳木斯市向阳区中央公馆K区","info":""}},{"type":"Feature","geometry":{"type":"Point","coordinates":[130.365346,46.80779]},"properties":{"province":"黑龙江省","city":"佳木斯市","county":"向阳区","community":"中央公园家榆园（不包含2号楼、4号楼）","full_address":"黑龙江省佳木斯市向阳区中央公园家榆园（不包含2号楼、4号楼）","info":""}},{"type":"Feature","geometry":{"type":"Point","coordinates":[130.372515,46.79155]},"properties":{"province":"黑龙江省","city":"佳木斯市","county":"向阳区","community":"佳大尚都54号楼","full_address":"黑龙江省佳木斯市向阳区佳大尚都54号楼","info":""}},{"type":"Feature","geometry":{"type":"Point","coordinates":[130.356375,46.81025]},"properties":{"province":"黑龙江省","city":"佳木斯市","county":"向阳区","community":"玻璃厂家属楼","full_address":"黑龙江省佳木斯市向阳区玻璃厂家属楼","info":""}},{"type":"Feature","geometry":{"type":"Point","coordinates":[130.359853,46.790301]},"properties":{"province":"黑龙江省","city":"佳木斯市","county":"向阳区","community":"学府嘉园小区","full_address":"黑龙江省佳木斯市向阳区学府嘉园小区","info":""}},{"type":"Feature","geometry":{"type":"Point","coordinates":[130.371415,46.802604]},"properties":{"province":"黑龙江省","city":"佳木斯市","county":"向阳区","community":"圣泰嘉苑小区","full_address":"黑龙江省佳木斯市向阳区圣泰嘉苑小区","info":""}},{"type":"Feature","geometry":{"type":"Point","coordinates":[130.340134,46.79557]},"properties":{"province":"黑龙江省","city":"佳木斯市","county":"向阳区","community":"时代景城9号楼","full_address":"黑龙江省佳木斯市向阳区时代景城9号楼","info":""}},{"type":"Feature","geometry":{"type":"Point","coordinates":[130.373127,46.810139]},"properties":{"province":"黑龙江省","city":"佳木斯市","county":"向阳区","community":"志兴社区光大小区","full_address":"黑龙江省佳木斯市向阳区志兴社区光大小区","info":""}},{"type":"Feature","geometry":{"type":"Point","coordinates":[130.361444,46.81203]},"properties":{"province":"黑龙江省","city":"佳木斯市","county":"向阳区","community":"万达公寓","full_address":"黑龙江省佳木斯市向阳区万达公寓","info":""}},{"type":"Feature","geometry":{"type":"Point","coordinates":[130.355266,46.817168]},"properties":{"province":"黑龙江省","city":"佳木斯市","county":"向阳区","community":"九洲社区美丽家园","full_address":"黑龙江省佳木斯市向阳区九洲社区美丽家园","info":""}},{"type":"Feature","geometry":{"type":"Point","coordinates":[130.351394,46.807064]},"properties":{"province":"黑龙江省","city":"佳木斯市","county":"向阳区","community":"志兴社区沪鸭楼","full_address":"黑龙江省佳木斯市向阳区志兴社区沪鸭楼","info":""}},{"type":"Feature","geometry":{"type":"Point","coordinates":[130.350796,46.816765]},"properties":{"province":"黑龙江省","city":"佳木斯市","county":"向阳区","community":"祥瑞嘉园小区、果品综合楼","full_address":"黑龙江省佳木斯市向阳区祥瑞嘉园小区、果品综合楼","info":""}},{"type":"Feature","geometry":{"type":"Point","coordinates":[130.367796,46.817379]},"properties":{"province":"黑龙江省","city":"佳木斯市","county":"向阳区","community":"御景华庭一期6号楼","full_address":"黑龙江省佳木斯市向阳区御景华庭一期6号楼","info":""}},{"type":"Feature","geometry":{"type":"Point","coordinates":[130.361301,46.810899]},"properties":{"province":"黑龙江省","city":"佳木斯市","county":"向阳区","community":"沁香华庭H栋","full_address":"黑龙江省佳木斯市向阳区沁香华庭H栋","info":""}},{"type":"Feature","geometry":{"type":"Point","coordinates":[130.356375,46.811]},"properties":{"province":"黑龙江省","city":"佳木斯市","county":"向阳区","community":"永房小区39号楼","full_address":"黑龙江省佳木斯市向阳区永房小区39号楼","info":""}},{"type":"Feature","geometry":{"type":"Point","coordinates":[130.340722,46.811522]},"properties":{"province":"黑龙江省","city":"佳木斯市","county":"向阳区","community":"御景华庭5号楼","full_address":"黑龙江省佳木斯市向阳区御景华庭5号楼","info":""}},{"type":"Feature","geometry":{"type":"Point","coordinates":[130.363362,46.811075]},"properties":{"province":"黑龙江省","city":"佳木斯市","county":"向阳区","community":"美好家园13号楼","full_address":"黑龙江省佳木斯市向阳区美好家园13号楼","info":""}},{"type":"Feature","geometry":{"type":"Point","coordinates":[130.355583,46.811417]},"properties":{"province":"黑龙江省","city":"佳木斯市","county":"向阳区","community":"建业小区2号楼","full_address":"黑龙江省佳木斯市向阳区建业小区2号楼","info":""}},{"type":"Feature","geometry":{"type":"Point","coordinates":[130.357,46.80545]},"properties":{"province":"黑龙江省","city":"佳木斯市","county":"向阳区","community":"沁香华庭U栋","full_address":"黑龙江省佳木斯市向阳区沁香华庭U栋","info":""}},{"type":"Feature","geometry":{"type":"Point","coordinates":[130.372571,46.791411]},"properties":{"province":"黑龙江省","city":"佳木斯市","county":"向阳区","community":"佳大尚都55号楼","full_address":"黑龙江省佳木斯市向阳区佳大尚都55号楼","info":""}},{"type":"Feature","geometry":{"type":"Point","coordinates":[130.34693,46.813426]},"properties":{"province":"黑龙江省","city":"佳木斯市","county":"向阳区","community":"谷丰家园8号楼","full_address":"黑龙江省佳木斯市向阳区谷丰家园8号楼","info":""}},{"type":"Feature","geometry":{"type":"Point","coordinates":[130.364899,46.807368]},"properties":{"province":"黑龙江省","city":"佳木斯市","county":"向阳区","community":"恒基乐园独栋楼","full_address":"黑龙江省佳木斯市向阳区恒基乐园独栋楼","info":""}},{"type":"Feature","geometry":{"type":"Point","coordinates":[130.349266,46.811029]},"properties":{"province":"黑龙江省","city":"佳木斯市","county":"向阳区","community":"宏光新天地C栋","full_address":"黑龙江省佳木斯市向阳区宏光新天地C栋","info":""}},{"type":"Feature","geometry":{"type":"Point","coordinates":[130.351394,46.807064]},"properties":{"province":"黑龙江省","city":"佳木斯市","county":"向阳区","community":"志兴社区托管1号楼","full_address":"黑龙江省佳木斯市向阳区志兴社区托管1号楼","info":""}},{"type":"Feature","geometry":{"type":"Point","coordinates":[130.36145,46.816806]},"properties":{"province":"黑龙江省","city":"佳木斯市","county":"向阳区","community":"西林兴城小区C栋","full_address":"黑龙江省佳木斯市向阳区西林兴城小区C栋","info":""}},{"type":"Feature","geometry":{"type":"Point","coordinates":[130.368509,46.807444]},"properties":{"province":"黑龙江省","city":"佳木斯市","county":"向阳区","community":"金夏佳苑独栋楼","full_address":"黑龙江省佳木斯市向阳区金夏佳苑独栋楼","info":""}},{"type":"Feature","geometry":{"type":"Point","coordinates":[130.371949,46.789827]},"properties":{"province":"黑龙江省","city":"佳木斯市","county":"向阳区","community":"翰林苑一期2号楼","full_address":"黑龙江省佳木斯市向阳区翰林苑一期2号楼","info":""}},{"type":"Feature","geometry":{"type":"Point","coordinates":[130.367927,46.811683]},"properties":{"province":"黑龙江省","city":"佳木斯市","county":"向阳区","community":"万达华府一期2号楼","full_address":"黑龙江省佳木斯市向阳区万达华府一期2号楼","info":""}},{"type":"Feature","geometry":{"type":"Point","coordinates":[130.367927,46.811683]},"properties":{"province":"黑龙江省","city":"佳木斯市","county":"向阳区","community":"万达华府一期3号楼","full_address":"黑龙江省佳木斯市向阳区万达华府一期3号楼","info":""}},{"type":"Feature","geometry":{"type":"Point","coordinates":[130.355174,46.804023]},"properties":{"province":"黑龙江省","city":"佳木斯市","county":"向阳区","community":"建业小区4号楼","full_address":"黑龙江省佳木斯市向阳区建业小区4号楼","info":""}},{"type":"Feature","geometry":{"type":"Point","coordinates":[130.3369,46.810696]},"properties":{"province":"黑龙江省","city":"佳木斯市","county":"向阳区","community":"常青花园G栋","full_address":"黑龙江省佳木斯市向阳区常青花园G栋","info":""}},{"type":"Feature","geometry":{"type":"Point","coordinates":[130.365346,46.80779]},"properties":{"province":"黑龙江省","city":"佳木斯市","county":"向阳区","community":"璞院11号楼","full_address":"黑龙江省佳木斯市向阳区璞院11号楼","info":""}},{"type":"Feature","geometry":{"type":"Point","coordinates":[130.365346,46.80779]},"properties":{"province":"黑龙江省","city":"佳木斯市","county":"向阳区","community":"璞院12号楼","full_address":"黑龙江省佳木斯市向阳区璞院12号楼","info":""}},{"type":"Feature","geometry":{"type":"Point","coordinates":[130.354967,46.80286]},"properties":{"province":"黑龙江省","city":"佳木斯市","county":"向阳区","community":"群英社区补贴2号楼","full_address":"黑龙江省佳木斯市向阳区群英社区补贴2号楼","info":""}},{"type":"Feature","geometry":{"type":"Point","coordinates":[130.357188,46.808031]},"properties":{"province":"黑龙江省","city":"佳木斯市","county":"向阳区","community":"环卫小区政府31号楼","full_address":"黑龙江省佳木斯市向阳区环卫小区政府31号楼","info":""}},{"type":"Feature","geometry":{"type":"Point","coordinates":[130.355101,46.817032]},"properties":{"province":"黑龙江省","city":"佳木斯市","county":"向阳区","community":"帝景豪庭3号楼","full_address":"黑龙江省佳木斯市向阳区帝景豪庭3号楼","info":""}},{"type":"Feature","geometry":{"type":"Point","coordinates":[130.362585,46.810565]},"properties":{"province":"黑龙江省","city":"佳木斯市","county":"向阳区","community":"复兴小区A栋","full_address":"黑龙江省佳木斯市向阳区复兴小区A栋","info":""}},{"type":"Feature","geometry":{"type":"Point","coordinates":[130.363992,46.811713]},"properties":{"province":"黑龙江省","city":"佳木斯市","county":"向阳区","community":"益海花园小区","full_address":"黑龙江省佳木斯市向阳区益海花园小区","info":""}},{"type":"Feature","geometry":{"type":"Point","coordinates":[130.376421,46.787363]},"properties":{"province":"黑龙江省","city":"佳木斯市","county":"向阳区","community":"佳大尚都三角地","full_address":"黑龙江省佳木斯市向阳区佳大尚都三角地","info":""}},{"type":"Feature","geometry":{"type":"Point","coordinates":[130.354967,46.80286]},"properties":{"province":"黑龙江省","city":"佳木斯市","county":"向阳区","community":"群英社区","full_address":"黑龙江省佳木斯市向阳区群英社区","info":""}},{"type":"Feature","geometry":{"type":"Point","coordinates":[130.361148,46.804475]},"properties":{"province":"黑龙江省","city":"佳木斯市","county":"向阳区","community":"杏林公馆小区","full_address":"黑龙江省佳木斯市向阳区杏林公馆小区","info":""}},{"type":"Feature","geometry":{"type":"Point","coordinates":[130.369246,46.806088]},"properties":{"province":"黑龙江省","city":"佳木斯市","county":"向阳区","community":"佳里中心及其东面永房1号楼","full_address":"黑龙江省佳木斯市向阳区佳里中心及其东面永房1号楼","info":""}},{"type":"Feature","geometry":{"type":"Point","coordinates":[130.35786,46.81787]},"properties":{"province":"黑龙江省","city":"佳木斯市","county":"向阳区","community":"时代景城一期","full_address":"黑龙江省佳木斯市向阳区时代景城一期","info":""}},{"type":"Feature","geometry":{"type":"Point","coordinates":[130.357188,46.808031]},"properties":{"province":"黑龙江省","city":"佳木斯市","county":"向阳区","community":"环卫小区","full_address":"黑龙江省佳木斯市向阳区环卫小区","info":""}},{"type":"Feature","geometry":{"type":"Point","coordinates":[130.369336,46.806148]},"properties":{"province":"黑龙江省","city":"佳木斯市","county":"向阳区","community":"财富国际楼","full_address":"黑龙江省佳木斯市向阳区财富国际楼","info":""}},{"type":"Feature","geometry":{"type":"Point","coordinates":[130.35123,46.816986]},"properties":{"province":"黑龙江省","city":"佳木斯市","county":"向阳区","community":"同福嘉园小区","full_address":"黑龙江省佳木斯市向阳区同福嘉园小区","info":""}},{"type":"Feature","geometry":{"type":"Point","coordinates":[130.355337,46.816998]},"properties":{"province":"黑龙江省","city":"佳木斯市","county":"向阳区","community":"美好家园小区","full_address":"黑龙江省佳木斯市向阳区美好家园小区","info":""}},{"type":"Feature","geometry":{"type":"Point","coordinates":[130.360136,46.812007]},"properties":{"province":"黑龙江省","city":"佳木斯市","county":"向阳区","community":"枫和万嘉小区","full_address":"黑龙江省佳木斯市向阳区枫和万嘉小区","info":""}},{"type":"Feature","geometry":{"type":"Point","coordinates":[130.367355,46.812543]},"properties":{"province":"黑龙江省","city":"佳木斯市","county":"向阳区","community":"宏光新天地小区","full_address":"黑龙江省佳木斯市向阳区宏光新天地小区","info":""}},{"type":"Feature","geometry":{"type":"Point","coordinates":[130.345075,46.813527]},"properties":{"province":"黑龙江省","city":"佳木斯市","county":"向阳区","community":"慧海家园小区","full_address":"黑龙江省佳木斯市向阳区慧海家园小区","info":""}},{"type":"Feature","geometry":{"type":"Point","coordinates":[130.372113,46.792673]},"properties":{"province":"黑龙江省","city":"佳木斯市","county":"向阳区","community":"佳大尚都九栋洋房小区","full_address":"黑龙江省佳木斯市向阳区佳大尚都九栋洋房小区","info":""}},{"type":"Feature","geometry":{"type":"Point","coordinates":[130.362288,46.819308]},"properties":{"province":"黑龙江省","city":"佳木斯市","county":"向阳区","community":"市委25号楼","full_address":"黑龙江省佳木斯市向阳区市委25号楼","info":""}},{"type":"Feature","geometry":{"type":"Point","coordinates":[130.365346,46.80779]},"properties":{"province":"黑龙江省","city":"佳木斯市","county":"向阳区","community":"新宜社区公企2号楼","full_address":"黑龙江省佳木斯市向阳区新宜社区公企2号楼","info":""}},{"type":"Feature","geometry":{"type":"Point","coordinates":[130.368917,46.812083]},"properties":{"province":"黑龙江省","city":"佳木斯市","county":"向阳区","community":"馨泰家园A楼","full_address":"黑龙江省佳木斯市向阳区馨泰家园A楼","info":""}},{"type":"Feature","geometry":{"type":"Point","coordinates":[130.367927,46.811683]},"properties":{"province":"黑龙江省","city":"佳木斯市","county":"向阳区","community":"万达华府一期","full_address":"黑龙江省佳木斯市向阳区万达华府一期","info":""}},{"type":"Feature","geometry":{"type":"Point","coordinates":[130.386265,46.819277]},"properties":{"province":"黑龙江省","city":"佳木斯市","county":"前进区","community":"金港湾小区","full_address":"黑龙江省佳木斯市前进区金港湾小区","info":""}},{"type":"Feature","geometry":{"type":"Point","coordinates":[130.403134,46.799793]},"properties":{"province":"黑龙江省","city":"佳木斯市","county":"前进区","community":"胜利小区","full_address":"黑龙江省佳木斯市前进区胜利小区","info":""}},{"type":"Feature","geometry":{"type":"Point","coordinates":[130.375063,46.814103]},"properties":{"province":"黑龙江省","city":"佳木斯市","county":"前进区","community":"粮库7组啤酒厂家属楼2号楼","full_address":"黑龙江省佳木斯市前进区粮库7组啤酒厂家属楼2号楼","info":""}},{"type":"Feature","geometry":{"type":"Point","coordinates":[130.383937,46.792098]},"properties":{"province":"黑龙江省","city":"佳木斯市","county":"前进区","community":"山水家园18号楼","full_address":"黑龙江省佳木斯市前进区山水家园18号楼","info":""}},{"type":"Feature","geometry":{"type":"Point","coordinates":[130.37438,46.80728]},"properties":{"province":"黑龙江省","city":"佳木斯市","county":"前进区","community":"军苑一号独栋楼","full_address":"黑龙江省佳木斯市前进区军苑一号独栋楼","info":""}},{"type":"Feature","geometry":{"type":"Point","coordinates":[130.372087,46.818323]},"properties":{"province":"黑龙江省","city":"佳木斯市","county":"前进区","community":"航运小区","full_address":"黑龙江省佳木斯市前进区航运小区","info":""}},{"type":"Feature","geometry":{"type":"Point","coordinates":[130.380061,46.807929]},"properties":{"province":"黑龙江省","city":"佳木斯市","county":"前进区","community":"地质小区及院内地质勘探院","full_address":"黑龙江省佳木斯市前进区地质小区及院内地质勘探院","info":""}},{"type":"Feature","geometry":{"type":"Point","coordinates":[130.37537,46.810055]},"properties":{"province":"黑龙江省","city":"佳木斯市","county":"前进区","community":"园林社区","full_address":"黑龙江省佳木斯市前进区园林社区","info":""}},{"type":"Feature","geometry":{"type":"Point","coordinates":[130.375063,46.814103]},"properties":{"province":"黑龙江省","city":"佳木斯市","county":"前进区","community":"永和街大厦楼5-6单元","full_address":"黑龙江省佳木斯市前进区永和街大厦楼5-6单元","info":""}},{"type":"Feature","geometry":{"type":"Point","coordinates":[130.381455,46.816061]},"properties":{"province":"黑龙江省","city":"佳木斯市","county":"前进区","community":"港务小区","full_address":"黑龙江省佳木斯市前进区港务小区","info":""}},{"type":"Feature","geometry":{"type":"Point","coordinates":[130.380621,46.790114]},"properties":{"province":"黑龙江省","city":"佳木斯市","county":"前进区","community":"林业局家属楼","full_address":"黑龙江省佳木斯市前进区林业局家属楼","info":""}},{"type":"Feature","geometry":{"type":"Point","coordinates":[130.372087,46.818323]},"properties":{"province":"黑龙江省","city":"佳木斯市","county":"前进区","community":"航运小区22号楼、23号楼","full_address":"黑龙江省佳木斯市前进区航运小区22号楼、23号楼","info":""}},{"type":"Feature","geometry":{"type":"Point","coordinates":[130.389452,46.798426]},"properties":{"province":"黑龙江省","city":"佳木斯市","county":"前进区","community":"枫桥社区Z4栋、Z2栋1单元","full_address":"黑龙江省佳木斯市前进区枫桥社区Z4栋、Z2栋1单元","info":""}},{"type":"Feature","geometry":{"type":"Point","coordinates":[130.396984,46.790702]},"properties":{"province":"黑龙江省","city":"佳木斯市","county":"前进区","community":"江南府邸小区","full_address":"黑龙江省佳木斯市前进区江南府邸小区","info":""}},{"type":"Feature","geometry":{"type":"Point","coordinates":[130.382063,46.815746]},"properties":{"province":"黑龙江省","city":"佳木斯市","county":"前进区","community":"春光电业小区19号楼","full_address":"黑龙江省佳木斯市前进区春光电业小区19号楼","info":""}},{"type":"Feature","geometry":{"type":"Point","coordinates":[130.391434,46.81212]},"properties":{"province":"黑龙江省","city":"佳木斯市","county":"前进区","community":"教育二小区13号楼","full_address":"黑龙江省佳木斯市前进区教育二小区13号楼","info":""}},{"type":"Feature","geometry":{"type":"Point","coordinates":[130.389374,46.820459]},"properties":{"province":"黑龙江省","city":"佳木斯市","county":"前进区","community":"金港湾2期11号楼","full_address":"黑龙江省佳木斯市前进区金港湾2期11号楼","info":""}},{"type":"Feature","geometry":{"type":"Point","coordinates":[130.374881,46.803604]},"properties":{"province":"黑龙江省","city":"佳木斯市","county":"前进区","community":"佳和福居J栋","full_address":"黑龙江省佳木斯市前进区佳和福居J栋","info":""}},{"type":"Feature","geometry":{"type":"Point","coordinates":[130.387648,46.820148]},"properties":{"province":"黑龙江省","city":"佳木斯市","county":"前进区","community":"金港湾2期9号楼","full_address":"黑龙江省佳木斯市前进区金港湾2期9号楼","info":""}},{"type":"Feature","geometry":{"type":"Point","coordinates":[130.397128,46.804386]},"properties":{"province":"黑龙江省","city":"佳木斯市","county":"前进区","community":"康居嘉园小区","full_address":"黑龙江省佳木斯市前进区康居嘉园小区","info":""}},{"type":"Feature","geometry":{"type":"Point","coordinates":[130.38122,46.789975]},"properties":{"province":"黑龙江省","city":"佳木斯市","county":"前进区","community":"林管局85楼独栋","full_address":"黑龙江省佳木斯市前进区林管局85楼独栋","info":""}},{"type":"Feature","geometry":{"type":"Point","coordinates":[130.379546,46.797136]},"properties":{"province":"黑龙江省","city":"佳木斯市","county":"前进区","community":"水岸花城8号楼","full_address":"黑龙江省佳木斯市前进区水岸花城8号楼","info":""}},{"type":"Feature","geometry":{"type":"Point","coordinates":[130.365027,46.817201]},"properties":{"province":"黑龙江省","city":"佳木斯市","county":"前进区","community":"唐人中心小区","full_address":"黑龙江省佳木斯市前进区唐人中心小区","info":""}},{"type":"Feature","geometry":{"type":"Point","coordinates":[130.375631,46.810795]},"properties":{"province":"黑龙江省","city":"佳木斯市","county":"前进区","community":"文明小区14号楼","full_address":"黑龙江省佳木斯市前进区文明小区14号楼","info":""}},{"type":"Feature","geometry":{"type":"Point","coordinates":[130.389662,46.810573]},"properties":{"province":"黑龙江省","city":"佳木斯市","county":"前进区","community":"鸿基家园F栋","full_address":"黑龙江省佳木斯市前进区鸿基家园F栋","info":""}},{"type":"Feature","geometry":{"type":"Point","coordinates":[130.373183,46.802788]},"properties":{"province":"黑龙江省","city":"佳木斯市","county":"前进区","community":"吉祥福苑（独栋楼）","full_address":"黑龙江省佳木斯市前进区吉祥福苑（独栋楼）","info":""}},{"type":"Feature","geometry":{"type":"Point","coordinates":[130.399507,46.816912]},"properties":{"province":"黑龙江省","city":"佳木斯市","county":"东风区","community":"阳光绿洲H栋","full_address":"黑龙江省佳木斯市东风区阳光绿洲H栋","info":""}},{"type":"Feature","geometry":{"type":"Point","coordinates":[130.403028,46.827823]},"properties":{"province":"黑龙江省","city":"佳木斯市","county":"东风区","community":"发电北区33号楼","full_address":"黑龙江省佳木斯市东风区发电北区33号楼","info":""}},{"type":"Feature","geometry":{"type":"Point","coordinates":[130.398726,46.816616]},"properties":{"province":"黑龙江省","city":"佳木斯市","county":"东风区","community":"阳光绿洲小区","full_address":"黑龙江省佳木斯市东风区阳光绿洲小区","info":""}},{"type":"Feature","geometry":{"type":"Point","coordinates":[130.403664,46.822572]},"properties":{"province":"黑龙江省","city":"佳木斯市","county":"东风区","community":"东兴城C区43号楼","full_address":"黑龙江省佳木斯市东风区东兴城C区43号楼","info":""}},{"type":"Feature","geometry":{"type":"Point","coordinates":[130.403096,46.827924]},"properties":{"province":"黑龙江省","city":"佳木斯市","county":"东风区","community":"兴电社区33号楼","full_address":"黑龙江省佳木斯市东风区兴电社区33号楼","info":""}},{"type":"Feature","geometry":{"type":"Point","coordinates":[130.397492,46.814555]},"properties":{"province":"黑龙江省","city":"佳木斯市","county":"东风区","community":"玫瑰园小区U栋","full_address":"黑龙江省佳木斯市东风区玫瑰园小区U栋","info":""}},{"type":"Feature","geometry":{"type":"Point","coordinates":[130.398871,46.823278]},"properties":{"province":"黑龙江省","city":"佳木斯市","county":"东风区","community":"东湾假日小区","full_address":"黑龙江省佳木斯市东风区东湾假日小区","info":""}},{"type":"Feature","geometry":{"type":"Point","coordinates":[130.407313,46.817695]},"properties":{"province":"黑龙江省","city":"佳木斯市","county":"东风区","community":"东方花园小区","full_address":"黑龙江省佳木斯市东风区东方花园小区","info":""}},{"type":"Feature","geometry":{"type":"Point","coordinates":[130.430948,46.82703]},"properties":{"province":"黑龙江省","city":"佳木斯市","county":"东风区","community":"东兴城G区98#、100#、103#、104#、108#","full_address":"黑龙江省佳木斯市东风区东兴城G区98#、100#、103#、104#、108#","info":""}},{"type":"Feature","geometry":{"type":"Point","coordinates":[130.4185,46.8125]},"properties":{"province":"黑龙江省","city":"佳木斯市","county":"东风区","community":"农家小区2号楼","full_address":"黑龙江省佳木斯市东风区农家小区2号楼","info":""}},{"type":"Feature","geometry":{"type":"Point","coordinates":[130.397756,46.812383]},"properties":{"province":"黑龙江省","city":"佳木斯市","county":"东风区","community":"晓云小区3号楼","full_address":"黑龙江省佳木斯市东风区晓云小区3号楼","info":""}},{"type":"Feature","geometry":{"type":"Point","coordinates":[130.340542,46.799046]},"properties":{"province":"黑龙江省","city":"佳木斯市","county":"郊区","community":"长安社区P栋","full_address":"黑龙江省佳木斯市郊区长安社区P栋","info":""}},{"type":"Feature","geometry":{"type":"Point","coordinates":[130.327195,46.810086]},"properties":{"province":"黑龙江省","city":"佳木斯市","county":"郊区","community":"运输公司家属楼独栋楼","full_address":"黑龙江省佳木斯市郊区运输公司家属楼独栋楼","info":""}},{"type":"Feature","geometry":{"type":"Point","coordinates":[130.3332,46.803482]},"properties":{"province":"黑龙江省","city":"佳木斯市","county":"郊区","community":"长安新城3号楼","full_address":"黑龙江省佳木斯市郊区长安新城3号楼","info":""}},{"type":"Feature","geometry":{"type":"Point","coordinates":[130.302986,46.809612]},"properties":{"province":"黑龙江省","city":"佳木斯市","county":"郊区","community":"五一社区三合A栋16号楼","full_address":"黑龙江省佳木斯市郊区五一社区三合A栋16号楼","info":""}},{"type":"Feature","geometry":{"type":"Point","coordinates":[130.329344,46.807797]},"properties":{"province":"黑龙江省","city":"佳木斯市","county":"郊区","community":"欧亚小镇F栋","full_address":"黑龙江省佳木斯市郊区欧亚小镇F栋","info":""}},{"type":"Feature","geometry":{"type":"Point","coordinates":[130.315531,46.815536]},"properties":{"province":"黑龙江省","city":"佳木斯市","county":"郊区","community":"江南雅居21号楼","full_address":"黑龙江省佳木斯市郊区江南雅居21号楼","info":""}},{"type":"Feature","geometry":{"type":"Point","coordinates":[130.366894,46.812233]},"properties":{"province":"黑龙江省","city":"佳木斯市","county":"郊区","community":"佳天国际9号楼","full_address":"黑龙江省佳木斯市郊区佳天国际9号楼","info":""}},{"type":"Feature","geometry":{"type":"Point","coordinates":[130.368566,46.812271]},"properties":{"province":"黑龙江省","city":"佳木斯市","county":"郊区","community":"长安新城小区","full_address":"黑龙江省佳木斯市郊区长安新城小区","info":""}},{"type":"Feature","geometry":{"type":"Point","coordinates":[130.402714,46.822482]},"properties":{"province":"黑龙江省","city":"佳木斯市","county":"郊区","community":"物价小区","full_address":"黑龙江省佳木斯市郊区物价小区","info":""}},{"type":"Feature","geometry":{"type":"Point","coordinates":[130.328485,46.804589]},"properties":{"province":"黑龙江省","city":"佳木斯市","county":"郊区","community":"英伦尚城小区","full_address":"黑龙江省佳木斯市郊区英伦尚城小区","info":""}},{"type":"Feature","geometry":{"type":"Point","coordinates":[130.320609,46.803399]},"properties":{"province":"黑龙江省","city":"佳木斯市","county":"郊区","community":"荷兰城观湖小区","full_address":"黑龙江省佳木斯市郊区荷兰城观湖小区","info":""}},{"type":"Feature","geometry":{"type":"Point","coordinates":[130.315951,46.817032]},"properties":{"province":"黑龙江省","city":"佳木斯市","county":"郊区","community":"江南雅居小区","full_address":"黑龙江省佳木斯市郊区江南雅居小区","info":""}},{"type":"Feature","geometry":{"type":"Point","coordinates":[130.240296,46.801003]},"properties":{"province":"黑龙江省","city":"佳木斯市","county":"郊区","community":"佳天国际小区","full_address":"黑龙江省佳木斯市郊区佳天国际小区","info":""}},{"type":"Feature","geometry":{"type":"Point","coordinates":[130.32692,46.78937]},"properties":{"province":"黑龙江省","city":"佳木斯市","county":"郊区","community":"万兴华城B2栋","full_address":"黑龙江省佳木斯市郊区万兴华城B2栋","info":""}},{"type":"Feature","geometry":{"type":"Point","coordinates":[130.333909,46.801163]},"properties":{"province":"黑龙江省","city":"佳木斯市","county":"郊区","community":"长安新城10号楼","full_address":"黑龙江省佳木斯市郊区长安新城10号楼","info":""}},{"type":"Feature","geometry":{"type":"Point","coordinates":[130.33052,46.80632]},"properties":{"province":"黑龙江省","city":"佳木斯市","county":"郊区","community":"英伦尚城D区3号楼","full_address":"黑龙江省佳木斯市郊区英伦尚城D区3号楼","info":""}},{"type":"Feature","geometry":{"type":"Point","coordinates":[130.341388,46.79845]},"properties":{"province":"黑龙江省","city":"佳木斯市","county":"郊区","community":"荣军社区良种场2号楼","full_address":"黑龙江省佳木斯市郊区荣军社区良种场2号楼","info":""}},{"type":"Feature","geometry":{"type":"Point","coordinates":[130.37228,46.869492]},"properties":{"province":"黑龙江省","city":"佳木斯市","county":"郊区","community":"平安乡群英村2组","full_address":"黑龙江省佳木斯市郊区平安乡群英村2组","info":""}},{"type":"Feature","geometry":{"type":"Point","coordinates":[130.318945,46.857964]},"properties":{"province":"黑龙江省","city":"佳木斯市","county":"郊区","community":"莲江口镇鑫城小区厢楼","full_address":"黑龙江省佳木斯市郊区莲江口镇鑫城小区厢楼","info":""}},{"type":"Feature","geometry":{"type":"Point","coordinates":[130.342927,46.799839]},"properties":{"province":"黑龙江省","city":"佳木斯市","county":"郊区","community":"长安嘉苑检察院楼B栋","full_address":"黑龙江省佳木斯市郊区长安嘉苑检察院楼B栋","info":""}},{"type":"Feature","geometry":{"type":"Point","coordinates":[130.311438,46.821393]},"properties":{"province":"黑龙江省","city":"佳木斯市","county":"郊区","community":"东升江畔小区","full_address":"黑龙江省佳木斯市郊区东升江畔小区","info":""}},{"type":"Feature","geometry":{"type":"Point","coordinates":[130.329299,46.810746]},"properties":{"province":"黑龙江省","city":"佳木斯市","county":"郊区","community":"　　农行家属楼（友谊路和红旗路交叉口附近）","full_address":"黑龙江省佳木斯市郊区　　农行家属楼（友谊路和红旗路交叉口附近）","info":""}},{"type":"Feature","geometry":{"type":"Point","coordinates":[130.358181,46.757541]},"properties":{"province":"黑龙江省","city":"佳木斯市","county":"郊区","community":"四丰湖小镇","full_address":"黑龙江省佳木斯市郊区四丰湖小镇","info":""}},{"type":"Feature","geometry":{"type":"Point","coordinates":[130.368957,46.81206]},"properties":{"province":"黑龙江省","city":"佳木斯市","county":"郊区","community":"金融小区21栋","full_address":"黑龙江省佳木斯市郊区金融小区21栋","info":""}},{"type":"Feature","geometry":{"type":"Point","coordinates":[130.26729,46.81352]},"properties":{"province":"黑龙江省","city":"佳木斯市","county":"郊区","community":"中兴小区14号楼","full_address":"黑龙江省佳木斯市郊区中兴小区14号楼","info":""}},{"type":"Feature","geometry":{"type":"Point","coordinates":[130.368887,46.812198]},"properties":{"province":"黑龙江省","city":"佳木斯市","county":"郊区","community":"吉运花园小区","full_address":"黑龙江省佳木斯市郊区吉运花园小区","info":""}},{"type":"Feature","geometry":{"type":"Point","coordinates":[130.368957,46.81206]},"properties":{"province":"黑龙江省","city":"佳木斯市","county":"郊区","community":"金融小区","full_address":"黑龙江省佳木斯市郊区金融小区","info":""}},{"type":"Feature","geometry":{"type":"Point","coordinates":[130.070529,46.687861]},"properties":{"province":"黑龙江省","city":"佳木斯市","county":"郊区","community":"胜利华城小区","full_address":"黑龙江省佳木斯市郊区胜利华城小区","info":""}},{"type":"Feature","geometry":{"type":"Point","coordinates":[130.417619,46.810461]},"properties":{"province":"黑龙江省","city":"佳木斯市","county":"郊区","community":"长青社区D5号楼","full_address":"黑龙江省佳木斯市郊区长青社区D5号楼","info":""}},{"type":"Feature","geometry":{"type":"Point","coordinates":[129.917533,46.732737]},"properties":{"province":"黑龙江省","city":"佳木斯市","county":"汤原县","community":"阳光河畔29号楼","full_address":"黑龙江省佳木斯市汤原县阳光河畔29号楼","info":""}},{"type":"Feature","geometry":{"type":"Point","coordinates":[129.894588,46.725689]},"properties":{"province":"黑龙江省","city":"佳木斯市","county":"汤原县","community":"幸福家园6号楼","full_address":"黑龙江省佳木斯市汤原县幸福家园6号楼","info":""}},{"type":"Feature","geometry":{"type":"Point","coordinates":[130.031735,47.013926]},"properties":{"province":"黑龙江省","city":"佳木斯市","county":"汤原县","community":"北华种畜场东一号住宅（平房）","full_address":"黑龙江省佳木斯市汤原县北华种畜场东一号住宅（平房）","info":""}},{"type":"Feature","geometry":{"type":"Point","coordinates":[130.726037,47.015047]},"properties":{"province":"黑龙江省","city":"佳木斯市","county":"富锦市","community":"新开社区多喜客超市","full_address":"黑龙江省佳木斯市富锦市新开社区多喜客超市","info":""}},{"type":"Feature","geometry":{"type":"Point","coordinates":[132.035078,47.251425]},"properties":{"province":"黑龙江省","city":"佳木斯市","county":"富锦市","community":"新开社区枫悦肉店","full_address":"黑龙江省佳木斯市富锦市新开社区枫悦肉店","info":""}},{"type":"Feature","geometry":{"type":"Point","coordinates":[132.034553,47.245412]},"properties":{"province":"黑龙江省","city":"佳木斯市","county":"富锦市","community":"向阳社区百亿超市","full_address":"黑龙江省佳木斯市富锦市向阳社区百亿超市","info":""}},{"type":"Feature","geometry":{"type":"Point","coordinates":[132.040324,47.260439]},"properties":{"province":"黑龙江省","city":"佳木斯市","county":"富锦市","community":"繁荣社区风情城一期13号楼","full_address":"黑龙江省佳木斯市富锦市繁荣社区风情城一期13号楼","info":""}},{"type":"Feature","geometry":{"type":"Point","coordinates":[132.03974,47.241533]},"properties":{"province":"黑龙江省","city":"佳木斯市","county":"富锦市","community":"太东林场","full_address":"黑龙江省佳木斯市富锦市太东林场","info":""}},{"type":"Feature","geometry":{"type":"Point","coordinates":[132.623286,47.414628]},"properties":{"province":"黑龙江省","city":"佳木斯市","county":"富锦市","community":"二龙山镇太东村","full_address":"黑龙江省佳木斯市富锦市二龙山镇太东村","info":""}},{"type":"Feature","geometry":{"type":"Point","coordinates":[132.033065,47.254091]},"properties":{"province":"黑龙江省","city":"佳木斯市","county":"富锦市","community":"世纪家园B区16号楼","full_address":"黑龙江省佳木斯市富锦市世纪家园B区16号楼","info":""}},{"type":"Feature","geometry":{"type":"Point","coordinates":[132.043068,47.255378]},"properties":{"province":"黑龙江省","city":"佳木斯市","county":"富锦市","community":"向阳社区星语新苑C区","full_address":"黑龙江省佳木斯市富锦市向阳社区星语新苑C区","info":""}},{"type":"Feature","geometry":{"type":"Point","coordinates":[130.565887,45.75029]},"properties":{"province":"黑龙江省","city":"七台河市","county":"勃利县","community":"　勃利县城西街润育华庭小区3栋以外区域","full_address":"黑龙江省七台河市勃利县　勃利县城西街润育华庭小区3栋以外区域","info":""}},{"type":"Feature","geometry":{"type":"Point","coordinates":[130.571243,45.749897]},"properties":{"province":"黑龙江省","city":"七台河市","county":"勃利县","community":"勃利桥以东，转盘道（由西至东方向）以北，学府路以西，转盘道（由东至西方向）以南，合围区域（无症状感染者的工作区域）","full_address":"黑龙江省七台河市勃利县勃利桥以东，转盘道（由西至东方向）以北，学府路以西，转盘道（由东至西方向）以南，合围区域（无症状感染者的工作区域）","info":""}},{"type":"Feature","geometry":{"type":"Point","coordinates":[129.399146,44.57109]},"properties":{"province":"黑龙江省","city":"牡丹江市","county":"海林市","community":"柴河镇被服小区","full_address":"黑龙江省牡丹江市海林市柴河镇被服小区","info":""}},{"type":"Feature","geometry":{"type":"Point","coordinates":[127.502441,50.239295]},"properties":{"province":"黑龙江省","city":"黑河市","county":"爱辉区","community":"花园街道长海社区龙滨嘉苑小区2号楼1单元及1单元附属门市、4号楼1单元及1单元楼下车库","full_address":"黑龙江省黑河市爱辉区花园街道长海社区龙滨嘉苑小区2号楼1单元及1单元附属门市、4号楼1单元及1单元楼下车库","info":""}},{"type":"Feature","geometry":{"type":"Point","coordinates":[127.497957,50.252053]},"properties":{"province":"黑龙江省","city":"黑河市","county":"爱辉区","community":"海兰街道鹿源春社区中房怡园66号楼2单元及2单元附属门市","full_address":"黑龙江省黑河市爱辉区海兰街道鹿源春社区中房怡园66号楼2单元及2单元附属门市","info":""}},{"type":"Feature","geometry":{"type":"Point","coordinates":[127.47671,50.245983]},"properties":{"province":"黑龙江省","city":"黑河市","county":"爱辉区","community":"海兰街道温馨社区力波家园24号楼1单元","full_address":"黑龙江省黑河市爱辉区海兰街道温馨社区力波家园24号楼1单元","info":""}},{"type":"Feature","geometry":{"type":"Point","coordinates":[127.530603,50.238833]},"properties":{"province":"黑龙江省","city":"黑河市","county":"爱辉区","community":"花园街道长海社区组织部集资楼及附属门市","full_address":"黑龙江省黑河市爱辉区花园街道长海社区组织部集资楼及附属门市","info":""}},{"type":"Feature","geometry":{"type":"Point","coordinates":[127.517584,50.245438]},"properties":{"province":"黑龙江省","city":"黑河市","county":"爱辉区","community":"花园街道金兰社区华林庭苑小区1号楼2单元及2单元附属门市","full_address":"黑龙江省黑河市爱辉区花园街道金兰社区华林庭苑小区1号楼2单元及2单元附属门市","info":""}},{"type":"Feature","geometry":{"type":"Point","coordinates":[127.530701,50.237656]},"properties":{"province":"黑龙江省","city":"黑河市","county":"爱辉区","community":"花园街道武庙屯社区之路佳苑小区10号楼3单元","full_address":"黑龙江省黑河市爱辉区花园街道武庙屯社区之路佳苑小区10号楼3单元","info":""}},{"type":"Feature","geometry":{"type":"Point","coordinates":[127.522418,50.234325]},"properties":{"province":"黑龙江省","city":"黑河市","county":"爱辉区","community":"花园街道博文社区安发小区7号楼4单元","full_address":"黑龙江省黑河市爱辉区花园街道博文社区安发小区7号楼4单元","info":""}},{"type":"Feature","geometry":{"type":"Point","coordinates":[127.509752,50.231367]},"properties":{"province":"黑龙江省","city":"黑河市","county":"爱辉区","community":"花园街道博文社区中房尚城小区1号楼2单元及2单元附属门市、5号楼4单元及4单元附属门市","full_address":"黑龙江省黑河市爱辉区花园街道博文社区中房尚城小区1号楼2单元及2单元附属门市、5号楼4单元及4单元附属门市","info":""}},{"type":"Feature","geometry":{"type":"Point","coordinates":[127.49554,50.243425]},"properties":{"province":"黑龙江省","city":"黑河市","county":"爱辉区","community":"兴安街道热电社区民政小区61号楼5单元、一建2号楼3单元","full_address":"黑龙江省黑河市爱辉区兴安街道热电社区民政小区61号楼5单元、一建2号楼3单元","info":""}},{"type":"Feature","geometry":{"type":"Point","coordinates":[127.512173,50.218138]},"properties":{"province":"黑龙江省","city":"黑河市","county":"爱辉区","community":"二公河工业园区中小企业创业中心办公楼","full_address":"黑龙江省黑河市爱辉区二公河工业园区中小企业创业中心办公楼","info":""}},{"type":"Feature","geometry":{"type":"Point","coordinates":[127.489122,50.246789]},"properties":{"province":"黑龙江省","city":"黑河市","county":"爱辉区","community":"海兰街道鹿源春社区金达之家小区民航家属楼6单元及6单元附属门市、国际公司改造楼2单元及2单元附属门市","full_address":"黑龙江省黑河市爱辉区海兰街道鹿源春社区金达之家小区民航家属楼6单元及6单元附属门市、国际公司改造楼2单元及2单元附属门市","info":""}},{"type":"Feature","geometry":{"type":"Point","coordinates":[127.501834,50.238791]},"properties":{"province":"黑龙江省","city":"黑河市","county":"爱辉区","community":"花园街道长海社区龙滨嘉苑小区1号楼、2号楼（不含1单元及1单元附属门市）、4号楼（不含1单元及1单元楼下车库）、8号楼","full_address":"黑龙江省黑河市爱辉区花园街道长海社区龙滨嘉苑小区1号楼、2号楼（不含1单元及1单元附属门市）、4号楼（不含1单元及1单元楼下车库）、8号楼","info":""}},{"type":"Feature","geometry":{"type":"Point","coordinates":[127.512145,50.241397]},"properties":{"province":"黑龙江省","city":"黑河市","county":"爱辉区","community":"海兰街道温馨社区供销社家属楼（不含3单元）、盛世华庭小区、多客隆食杂店、迎恩路110—2号、万顺叫车黑河分公司喇嘛台社区服务站（迎恩路110—3号）、澳创集团（迎恩路112—1号）、罗曼蒂克婚纱馆（迎恩路112—4号）、乡村铁锅炖（迎恩路114—2号）、洪森沙发（迎恩路114—3号）门市","full_address":"黑龙江省黑河市爱辉区海兰街道温馨社区供销社家属楼（不含3单元）、盛世华庭小区、多客隆食杂店、迎恩路110—2号、万顺叫车黑河分公司喇嘛台社区服务站（迎恩路110—3号）、澳创集团（迎恩路112—1号）、罗曼蒂克婚纱馆（迎恩路112—4号）、乡村铁锅炖（迎恩路114—2号）、洪森沙发（迎恩路114—3号）门市","info":""}},{"type":"Feature","geometry":{"type":"Point","coordinates":[127.505825,50.233663]},"properties":{"province":"黑龙江省","city":"黑河市","county":"爱辉区","community":"花园街道长海社区国税小区1号楼及附属门市（不含4单元及4单元附属门市）、2号楼","full_address":"黑龙江省黑河市爱辉区花园街道长海社区国税小区1号楼及附属门市（不含4单元及4单元附属门市）、2号楼","info":""}},{"type":"Feature","geometry":{"type":"Point","coordinates":[127.521489,50.234591]},"properties":{"province":"黑龙江省","city":"黑河市","county":"爱辉区","community":"花园街道博文社区安发小区及附属门市（不含3号楼1单元、7号楼4单元）","full_address":"黑龙江省黑河市爱辉区花园街道博文社区安发小区及附属门市（不含3号楼1单元、7号楼4单元）","info":""}},{"type":"Feature","geometry":{"type":"Point","coordinates":[127.53045,50.230125]},"properties":{"province":"黑龙江省","city":"黑河市","county":"爱辉区","community":"花园街道博文社区学府家园小区1号楼1单元、2号楼（不含7单元）","full_address":"黑龙江省黑河市爱辉区花园街道博文社区学府家园小区1号楼1单元、2号楼（不含7单元）","info":""}},{"type":"Feature","geometry":{"type":"Point","coordinates":[127.509752,50.231367]},"properties":{"province":"黑龙江省","city":"黑河市","county":"爱辉区","community":"花园街道博文社区中房尚城小区及附属门市（不含1号楼2单元及2单元附属门市、5号楼4单元及4单元附属门市）","full_address":"黑龙江省黑河市爱辉区花园街道博文社区中房尚城小区及附属门市（不含1号楼2单元及2单元附属门市、5号楼4单元及4单元附属门市）","info":""}},{"type":"Feature","geometry":{"type":"Point","coordinates":[127.489122,50.246789]},"properties":{"province":"黑龙江省","city":"黑河市","county":"爱辉区","community":"海兰街道鹿源春社区金达之家小区及附属门市（不含民航家属楼6单元及6单元附属门市、国际公司改造楼2单元及2单元附属门市）","full_address":"黑龙江省黑河市爱辉区海兰街道鹿源春社区金达之家小区及附属门市（不含民航家属楼6单元及6单元附属门市、国际公司改造楼2单元及2单元附属门市）","info":""}},{"type":"Feature","geometry":{"type":"Point","coordinates":[127.505825,50.233663]},"properties":{"province":"黑龙江省","city":"黑河市","county":"爱辉区","community":"花园街道长海社区国税小区1号楼4单元及4单元附属门市","full_address":"黑龙江省黑河市爱辉区花园街道长海社区国税小区1号楼4单元及4单元附属门市","info":""}},{"type":"Feature","geometry":{"type":"Point","coordinates":[127.507217,50.246904]},"properties":{"province":"黑龙江省","city":"黑河市","county":"爱辉区","community":"花园街道网通社区楼中楼小区地开发30号楼3单元及3单元附属门市","full_address":"黑龙江省黑河市爱辉区花园街道网通社区楼中楼小区地开发30号楼3单元及3单元附属门市","info":""}},{"type":"Feature","geometry":{"type":"Point","coordinates":[127.520241,50.242368]},"properties":{"province":"黑龙江省","city":"黑河市","county":"爱辉区","community":"花园街道金兰社区建行家属楼小区2号楼4单元","full_address":"黑龙江省黑河市爱辉区花园街道金兰社区建行家属楼小区2号楼4单元","info":""}},{"type":"Feature","geometry":{"type":"Point","coordinates":[127.533424,50.238059]},"properties":{"province":"黑龙江省","city":"黑河市","county":"爱辉区","community":"花园街道武庙屯社区华泰颐和国际小区3号楼2单元","full_address":"黑龙江省黑河市爱辉区花园街道武庙屯社区华泰颐和国际小区3号楼2单元","info":""}},{"type":"Feature","geometry":{"type":"Point","coordinates":[127.482755,50.251722]},"properties":{"province":"黑龙江省","city":"黑河市","county":"爱辉区","community":"西兴街道人保财险社区林业小区11区3号楼3单元","full_address":"黑龙江省黑河市爱辉区西兴街道人保财险社区林业小区11区3号楼3单元","info":""}},{"type":"Feature","geometry":{"type":"Point","coordinates":[127.487701,50.253547]},"properties":{"province":"黑龙江省","city":"黑河市","county":"爱辉区","community":"西兴街道人保财险社区节能小区7号楼3单元及3单元附属门市","full_address":"黑龙江省黑河市爱辉区西兴街道人保财险社区节能小区7号楼3单元及3单元附属门市","info":""}},{"type":"Feature","geometry":{"type":"Point","coordinates":[127.4195,50.1432]},"properties":{"province":"黑龙江省","city":"黑河市","county":"爱辉区","community":"锦河农场金河小区10号楼1单元","full_address":"黑龙江省黑河市爱辉区锦河农场金河小区10号楼1单元","info":""}},{"type":"Feature","geometry":{"type":"Point","coordinates":[127.52282,50.238765]},"properties":{"province":"黑龙江省","city":"黑河市","county":"爱辉区","community":"花园街道网通社区地开发商30号楼（不含3单元及3单元附属门市）、31号楼、32号楼、33号楼及附属门市","full_address":"黑龙江省黑河市爱辉区花园街道网通社区地开发商30号楼（不含3单元及3单元附属门市）、31号楼、32号楼、33号楼及附属门市","info":""}},{"type":"Feature","geometry":{"type":"Point","coordinates":[127.533424,50.238059]},"properties":{"province":"黑龙江省","city":"黑河市","county":"爱辉区","community":"花园街道武庙屯社区华泰颐和国际小区3号楼（不含2单元）","full_address":"黑龙江省黑河市爱辉区花园街道武庙屯社区华泰颐和国际小区3号楼（不含2单元）","info":""}},{"type":"Feature","geometry":{"type":"Point","coordinates":[127.503723,50.239185]},"properties":{"province":"黑龙江省","city":"黑河市","county":"爱辉区","community":"花园街道长海社区龙滨嘉苑小区3号楼","full_address":"黑龙江省黑河市爱辉区花园街道长海社区龙滨嘉苑小区3号楼","info":""}},{"type":"Feature","geometry":{"type":"Point","coordinates":[127.493629,50.2458]},"properties":{"province":"黑龙江省","city":"黑河市","county":"爱辉区","community":"兴安街道金融社区祥和景园小区8单元","full_address":"黑龙江省黑河市爱辉区兴安街道金融社区祥和景园小区8单元","info":""}},{"type":"Feature","geometry":{"type":"Point","coordinates":[127.523979,50.239513]},"properties":{"province":"黑龙江省","city":"黑河市","county":"爱辉区","community":"兴安街道邮政社区松辽委小区中房94号楼4单元及4单元附属门市","full_address":"黑龙江省黑河市爱辉区兴安街道邮政社区松辽委小区中房94号楼4单元及4单元附属门市","info":""}},{"type":"Feature","geometry":{"type":"Point","coordinates":[127.496451,50.242701]},"properties":{"province":"黑龙江省","city":"黑河市","county":"爱辉区","community":"兴安街道热电社区爱家佳苑小区2号楼2单元及2单元附属门市","full_address":"黑龙江省黑河市爱辉区兴安街道热电社区爱家佳苑小区2号楼2单元及2单元附属门市","info":""}},{"type":"Feature","geometry":{"type":"Point","coordinates":[127.488387,50.241911]},"properties":{"province":"黑龙江省","city":"黑河市","county":"爱辉区","community":"兴安街道热电社区南湖雅苑小区17号楼2单元及2单元附属门市","full_address":"黑龙江省黑河市爱辉区兴安街道热电社区南湖雅苑小区17号楼2单元及2单元附属门市","info":""}},{"type":"Feature","geometry":{"type":"Point","coordinates":[127.498771,50.237077]},"properties":{"province":"黑龙江省","city":"黑河市","county":"爱辉区","community":"兴安街道热电社区新生活家园小区（铁路街）3号楼2单元","full_address":"黑龙江省黑河市爱辉区兴安街道热电社区新生活家园小区（铁路街）3号楼2单元","info":""}},{"type":"Feature","geometry":{"type":"Point","coordinates":[127.483444,50.246046]},"properties":{"province":"黑龙江省","city":"黑河市","county":"爱辉区","community":"海兰街道温馨社区金地花园小区13号楼4单元及4单元附属门市","full_address":"黑龙江省黑河市爱辉区海兰街道温馨社区金地花园小区13号楼4单元及4单元附属门市","info":""}},{"type":"Feature","geometry":{"type":"Point","coordinates":[127.489956,50.249542]},"properties":{"province":"黑龙江省","city":"黑河市","county":"爱辉区","community":"西兴街道福龙社区益民二区17区11号楼6单元及6单元附属车库","full_address":"黑龙江省黑河市爱辉区西兴街道福龙社区益民二区17区11号楼6单元及6单元附属车库","info":""}},{"type":"Feature","geometry":{"type":"Point","coordinates":[127.489956,50.249542]},"properties":{"province":"黑龙江省","city":"黑河市","county":"爱辉区","community":"西兴街道福龙社区益民二区18区18号楼9单元及9单元附属门市","full_address":"黑龙江省黑河市爱辉区西兴街道福龙社区益民二区18区18号楼9单元及9单元附属门市","info":""}},{"type":"Feature","geometry":{"type":"Point","coordinates":[127.52282,50.238765]},"properties":{"province":"黑龙江省","city":"黑河市","county":"爱辉区","community":"花园街道网通社区卧牛湖小区中房2开楼4单元及4单元附属门市","full_address":"黑龙江省黑河市爱辉区花园街道网通社区卧牛湖小区中房2开楼4单元及4单元附属门市","info":""}},{"type":"Feature","geometry":{"type":"Point","coordinates":[127.517233,50.242845]},"properties":{"province":"黑龙江省","city":"黑河市","county":"爱辉区","community":"花园街道金兰社区园丁小区1号楼3单元及3单元附属门市","full_address":"黑龙江省黑河市爱辉区花园街道金兰社区园丁小区1号楼3单元及3单元附属门市","info":""}},{"type":"Feature","geometry":{"type":"Point","coordinates":[127.515297,50.236049]},"properties":{"province":"黑龙江省","city":"黑河市","county":"爱辉区","community":"花园街道博文社区黑供小区2号楼3单元","full_address":"黑龙江省黑河市爱辉区花园街道博文社区黑供小区2号楼3单元","info":""}},{"type":"Feature","geometry":{"type":"Point","coordinates":[127.344707,49.425638]},"properties":{"province":"黑龙江省","city":"黑河市","county":"爱辉区","community":"花园街道喇嘛台社区尚品世纪经典小区7号楼3单元","full_address":"黑龙江省黑河市爱辉区花园街道喇嘛台社区尚品世纪经典小区7号楼3单元","info":""}},{"type":"Feature","geometry":{"type":"Point","coordinates":[127.492289,50.24577]},"properties":{"province":"黑龙江省","city":"黑河市","county":"爱辉区","community":"海兰街道温馨社区盛世华庭小区1号楼1单元","full_address":"黑龙江省黑河市爱辉区海兰街道温馨社区盛世华庭小区1号楼1单元","info":""}},{"type":"Feature","geometry":{"type":"Point","coordinates":[127.521283,50.234314]},"properties":{"province":"黑龙江省","city":"黑河市","county":"爱辉区","community":"花园街道博文社区安发家园小区8号楼5单元","full_address":"黑龙江省黑河市爱辉区花园街道博文社区安发家园小区8号楼5单元","info":""}},{"type":"Feature","geometry":{"type":"Point","coordinates":[127.511584,50.239075]},"properties":{"province":"黑龙江省","city":"黑河市","county":"爱辉区","community":"花园街道长海社区地税家属楼小区（龙滨路）地税家属楼","full_address":"黑龙江省黑河市爱辉区花园街道长海社区地税家属楼小区（龙滨路）地税家属楼","info":""}},{"type":"Feature","geometry":{"type":"Point","coordinates":[127.500209,50.2385]},"properties":{"province":"黑龙江省","city":"黑河市","county":"爱辉区","community":"花园街道长海社区黑龙大厦水利家属楼小区水利家属楼","full_address":"黑龙江省黑河市爱辉区花园街道长海社区黑龙大厦水利家属楼小区水利家属楼","info":""}},{"type":"Feature","geometry":{"type":"Point","coordinates":[127.488456,50.241535]},"properties":{"province":"黑龙江省","city":"黑河市","county":"爱辉区","community":"兴安街道热电社区南湖雅苑小区16号楼、17号楼（不含2单元及2单元附属门市）、18号楼及附属门市","full_address":"黑龙江省黑河市爱辉区兴安街道热电社区南湖雅苑小区16号楼、17号楼（不含2单元及2单元附属门市）、18号楼及附属门市","info":""}},{"type":"Feature","geometry":{"type":"Point","coordinates":[127.490963,50.2368]},"properties":{"province":"黑龙江省","city":"黑河市","county":"爱辉区","community":"兴安街道热电社区惠民小区9号地9号楼及附属门市（不含3单元）、8号楼","full_address":"黑龙江省黑河市爱辉区兴安街道热电社区惠民小区9号地9号楼及附属门市（不含3单元）、8号楼","info":""}},{"type":"Feature","geometry":{"type":"Point","coordinates":[127.489956,50.249542]},"properties":{"province":"黑龙江省","city":"黑河市","county":"爱辉区","community":"西兴街道福龙社区益民二区17区9号楼及附属车库和门市、10号楼及附属车库、11号楼及附属车库（不含6单元及6单元附属车库）","full_address":"黑龙江省黑河市爱辉区西兴街道福龙社区益民二区17区9号楼及附属车库和门市、10号楼及附属车库、11号楼及附属车库（不含6单元及6单元附属车库）","info":""}},{"type":"Feature","geometry":{"type":"Point","coordinates":[127.504605,50.238491]},"properties":{"province":"黑龙江省","city":"黑河市","county":"爱辉区","community":"花园街道长海社区龙滨嘉苑小区6号楼及附属车库（不含2单元及2单元附属车库）","full_address":"黑龙江省黑河市爱辉区花园街道长海社区龙滨嘉苑小区6号楼及附属车库（不含2单元及2单元附属车库）","info":""}},{"type":"Feature","geometry":{"type":"Point","coordinates":[127.493629,50.2458]},"properties":{"province":"黑龙江省","city":"黑河市","county":"爱辉区","community":"兴安街道金融社区兴林家园测绘楼小区及附属车库门市（不含测绘楼及附属门市）","full_address":"黑龙江省黑河市爱辉区兴安街道金融社区兴林家园测绘楼小区及附属车库门市（不含测绘楼及附属门市）","info":""}},{"type":"Feature","geometry":{"type":"Point","coordinates":[127.520241,50.242368]},"properties":{"province":"黑龙江省","city":"黑河市","county":"爱辉区","community":"花园街道金兰社区路桥小区及附属门市车库（不含路桥楼及附属车库）","full_address":"黑龙江省黑河市爱辉区花园街道金兰社区路桥小区及附属门市车库（不含路桥楼及附属车库）","info":""}},{"type":"Feature","geometry":{"type":"Point","coordinates":[127.515312,50.244316]},"properties":{"province":"黑龙江省","city":"黑河市","county":"爱辉区","community":"海兰街道鹿源春社区保健佳苑小区（不含妇幼保健院家属楼及附属门市）","full_address":"黑龙江省黑河市爱辉区海兰街道鹿源春社区保健佳苑小区（不含妇幼保健院家属楼及附属门市）","info":""}},{"type":"Feature","geometry":{"type":"Point","coordinates":[127.493629,50.2458]},"properties":{"province":"黑龙江省","city":"黑河市","county":"爱辉区","community":"兴安街道金融社区兴都家园小区（不含广播局家属楼）","full_address":"黑龙江省黑河市爱辉区兴安街道金融社区兴都家园小区（不含广播局家属楼）","info":""}},{"type":"Feature","geometry":{"type":"Point","coordinates":[127.583914,50.217807]},"properties":{"province":"黑龙江省","city":"黑河市","county":"爱辉区","community":"幸福乡长发村西6道街230号","full_address":"黑龙江省黑河市爱辉区幸福乡长发村西6道街230号","info":""}},{"type":"Feature","geometry":{"type":"Point","coordinates":[127.521516,50.237484]},"properties":{"province":"黑龙江省","city":"黑河市","county":"爱辉区","community":"花园街道博文社区昌辉雅典城小区及附属门市车库（不含1号楼及附属车库）","full_address":"黑龙江省黑河市爱辉区花园街道博文社区昌辉雅典城小区及附属门市车库（不含1号楼及附属车库）","info":""}},{"type":"Feature","geometry":{"type":"Point","coordinates":[127.489571,50.251398]},"properties":{"province":"黑龙江省","city":"黑河市","county":"爱辉区","community":"海兰街道鹿源春社区教委2号楼及附属门市、二院烧火楼","full_address":"黑龙江省黑河市爱辉区海兰街道鹿源春社区教委2号楼及附属门市、二院烧火楼","info":""}},{"type":"Feature","geometry":{"type":"Point","coordinates":[127.497957,50.252053]},"properties":{"province":"黑龙江省","city":"黑河市","county":"爱辉区","community":"海兰街道鹿源春社区西城老居小区及附属门市（不含药厂楼1单元及1单元附属门市、2单元及2单元附属门市、3单元及3单元附属门市）","full_address":"黑龙江省黑河市爱辉区海兰街道鹿源春社区西城老居小区及附属门市（不含药厂楼1单元及1单元附属门市、2单元及2单元附属门市、3单元及3单元附属门市）","info":""}},{"type":"Feature","geometry":{"type":"Point","coordinates":[127.497957,50.252053]},"properties":{"province":"黑龙江省","city":"黑河市","county":"爱辉区","community":"海兰街道鹿源春社区热电商助小区及附属门市（不含2号楼及附属门市）","full_address":"黑龙江省黑河市爱辉区海兰街道鹿源春社区热电商助小区及附属门市（不含2号楼及附属门市）","info":""}},{"type":"Feature","geometry":{"type":"Point","coordinates":[127.486965,50.255329]},"properties":{"province":"黑龙江省","city":"黑河市","county":"爱辉区","community":"西兴街道人保财险社区建信B区6号楼及附属门市","full_address":"黑龙江省黑河市爱辉区西兴街道人保财险社区建信B区6号楼及附属门市","info":""}},{"type":"Feature","geometry":{"type":"Point","coordinates":[127.482375,50.256592]},"properties":{"province":"黑龙江省","city":"黑河市","county":"爱辉区","community":"西兴街道人保财险社区水岸华府小区1号楼及附属门市、2号楼及附属门市（不含1单元及1单元附属门市）、3号楼及附属门市、4号楼及附属门市车库、5号楼及附属门市车库","full_address":"黑龙江省黑河市爱辉区西兴街道人保财险社区水岸华府小区1号楼及附属门市、2号楼及附属门市（不含1单元及1单元附属门市）、3号楼及附属门市、4号楼及附属门市车库、5号楼及附属门市车库","info":""}},{"type":"Feature","geometry":{"type":"Point","coordinates":[127.488624,50.248131]},"properties":{"province":"黑龙江省","city":"黑河市","county":"爱辉区","community":"西兴街道向阳社区在水一方小区及附属门市车库（不含15号楼及附属门市车库）","full_address":"黑龙江省黑河市爱辉区西兴街道向阳社区在水一方小区及附属门市车库（不含15号楼及附属门市车库）","info":""}},{"type":"Feature","geometry":{"type":"Point","coordinates":[127.47686,50.25269]},"properties":{"province":"黑龙江省","city":"黑河市","county":"爱辉区","community":"西兴街道向阳社区水岸阳光小区及附属门市车库（不含3号楼及附属门市）","full_address":"黑龙江省黑河市爱辉区西兴街道向阳社区水岸阳光小区及附属门市车库（不含3号楼及附属门市）","info":""}},{"type":"Feature","geometry":{"type":"Point","coordinates":[127.499116,50.238844]},"properties":{"province":"黑龙江省","city":"黑河市","county":"爱辉区","community":"花园街道长海社区黑龙小区6号楼及附属门市、黑龙大市场","full_address":"黑龙江省黑河市爱辉区花园街道长海社区黑龙小区6号楼及附属门市、黑龙大市场","info":""}},{"type":"Feature","geometry":{"type":"Point","coordinates":[127.498237,50.239974]},"properties":{"province":"黑龙江省","city":"黑河市","county":"爱辉区","community":"花园街道长海社区天丝小区及附属门市（不含D座8号楼及附属门市）","full_address":"黑龙江省黑河市爱辉区花园街道长海社区天丝小区及附属门市（不含D座8号楼及附属门市）","info":""}},{"type":"Feature","geometry":{"type":"Point","coordinates":[127.518173,50.240237]},"properties":{"province":"黑龙江省","city":"黑河市","county":"爱辉区","community":"花园街道长海社区土地水利小区及附属门市（不含土地局集资楼及附属门市）","full_address":"黑龙江省黑河市爱辉区花园街道长海社区土地水利小区及附属门市（不含土地局集资楼及附属门市）","info":""}},{"type":"Feature","geometry":{"type":"Point","coordinates":[127.515266,50.234344]},"properties":{"province":"黑龙江省","city":"黑河市","county":"爱辉区","community":"花园街道博文社区闽江佳苑小区及附属门市（不含4号楼及附属门市）","full_address":"黑龙江省黑河市爱辉区花园街道博文社区闽江佳苑小区及附属门市（不含4号楼及附属门市）","info":""}},{"type":"Feature","geometry":{"type":"Point","coordinates":[127.530011,50.239083]},"properties":{"province":"黑龙江省","city":"黑河市","county":"爱辉区","community":"花园街道武庙屯社区大公馆小区7号楼及附属门市（不含2单元及2单元附属门市）","full_address":"黑龙江省黑河市爱辉区花园街道武庙屯社区大公馆小区7号楼及附属门市（不含2单元及2单元附属门市）","info":""}},{"type":"Feature","geometry":{"type":"Point","coordinates":[127.52282,50.238765]},"properties":{"province":"黑龙江省","city":"黑河市","county":"爱辉区","community":"花园街道网通社区贝贝龙小区及附属门市车库（不含市房开59号楼及附属门市）","full_address":"黑龙江省黑河市爱辉区花园街道网通社区贝贝龙小区及附属门市车库（不含市房开59号楼及附属门市）","info":""}},{"type":"Feature","geometry":{"type":"Point","coordinates":[127.501738,50.247087]},"properties":{"province":"黑龙江省","city":"黑河市","county":"爱辉区","community":"兴安街道邮政社区富绅小区及附属门市（不含区房产4号楼及附属门市、区房产21号楼及附属门市）","full_address":"黑龙江省黑河市爱辉区兴安街道邮政社区富绅小区及附属门市（不含区房产4号楼及附属门市、区房产21号楼及附属门市）","info":""}},{"type":"Feature","geometry":{"type":"Point","coordinates":[127.497957,50.252053]},"properties":{"province":"黑龙江省","city":"黑河市","county":"爱辉区","community":"海兰街道鹿源春社区兴成生活小区及附属门市（不含经贸委集资楼及附属门市）","full_address":"黑龙江省黑河市爱辉区海兰街道鹿源春社区兴成生活小区及附属门市（不含经贸委集资楼及附属门市）","info":""}},{"type":"Feature","geometry":{"type":"Point","coordinates":[127.489956,50.249542]},"properties":{"province":"黑龙江省","city":"黑河市","county":"爱辉区","community":"西兴街道福龙社区益民二区18区15号楼、18号楼及附属门市（不含9单元及9单元附属门市）、21号楼","full_address":"黑龙江省黑河市爱辉区西兴街道福龙社区益民二区18区15号楼、18号楼及附属门市（不含9单元及9单元附属门市）、21号楼","info":""}},{"type":"Feature","geometry":{"type":"Point","coordinates":[127.507217,50.246904]},"properties":{"province":"黑龙江省","city":"黑河市","county":"爱辉区","community":"花园街道网通社区楼中楼小区地开发30号楼（不含3单元及3单元附属门市）、31号楼、32号楼、33号楼及附属门市","full_address":"黑龙江省黑河市爱辉区花园街道网通社区楼中楼小区地开发30号楼（不含3单元及3单元附属门市）、31号楼、32号楼、33号楼及附属门市","info":""}},{"type":"Feature","geometry":{"type":"Point","coordinates":[127.470269,50.253504]},"properties":{"province":"黑龙江省","city":"黑河市","county":"爱辉区","community":"西兴街道向阳社区福临家园及附属门市（不含3号楼及附属门市）","full_address":"黑龙江省黑河市爱辉区西兴街道向阳社区福临家园及附属门市（不含3号楼及附属门市）","info":""}},{"type":"Feature","geometry":{"type":"Point","coordinates":[127.520241,50.242368]},"properties":{"province":"黑龙江省","city":"黑河市","county":"爱辉区","community":"花园街道金兰社区工行家属楼小区（不含2号楼及附属门市）","full_address":"黑龙江省黑河市爱辉区花园街道金兰社区工行家属楼小区（不含2号楼及附属门市）","info":""}},{"type":"Feature","geometry":{"type":"Point","coordinates":[127.520125,50.233375]},"properties":{"province":"黑龙江省","city":"黑河市","county":"爱辉区","community":"花园街道博文社区中超三期小区6号楼及6号楼附属门市车库、7号楼及7号楼附属门市车库","full_address":"黑龙江省黑河市爱辉区花园街道博文社区中超三期小区6号楼及6号楼附属门市车库、7号楼及7号楼附属门市车库","info":""}},{"type":"Feature","geometry":{"type":"Point","coordinates":[127.493629,50.2458]},"properties":{"province":"黑龙江省","city":"黑河市","county":"爱辉区","community":"兴安街道金融社区华和小区及附属门市（不含闽龙3号楼及附属门市）","full_address":"黑龙江省黑河市爱辉区兴安街道金融社区华和小区及附属门市（不含闽龙3号楼及附属门市）","info":""}},{"type":"Feature","geometry":{"type":"Point","coordinates":[127.518714,50.245669]},"properties":{"province":"黑龙江省","city":"黑河市","county":"爱辉区","community":"花园街道金兰社区世纪花园小区及附属门市车库（不含12号楼及附属车库、14号楼及附属车库）","full_address":"黑龙江省黑河市爱辉区花园街道金兰社区世纪花园小区及附属门市车库（不含12号楼及附属车库、14号楼及附属车库）","info":""}},{"type":"Feature","geometry":{"type":"Point","coordinates":[127.520241,50.242368]},"properties":{"province":"黑龙江省","city":"黑河市","county":"爱辉区","community":"花园街道金兰社区公用局小区及附属门市车库（不含公用事业局2号楼及附属门市）、海关小区及附属门市车库","full_address":"黑龙江省黑河市爱辉区花园街道金兰社区公用局小区及附属门市车库（不含公用事业局2号楼及附属门市）、海关小区及附属门市车库","info":""}},{"type":"Feature","geometry":{"type":"Point","coordinates":[127.530701,50.237656]},"properties":{"province":"黑龙江省","city":"黑河市","county":"爱辉区","community":"花园街道武庙屯社区之路佳苑小区及附属门市车库（不含5号楼及附属车库）","full_address":"黑龙江省黑河市爱辉区花园街道武庙屯社区之路佳苑小区及附属门市车库（不含5号楼及附属车库）","info":""}},{"type":"Feature","geometry":{"type":"Point","coordinates":[127.499882,50.236724]},"properties":{"province":"黑龙江省","city":"黑河市","county":"爱辉区","community":"兴安街道热电社区惠民11号地小区及附属门市车库（不含6号楼及附属门市车库、1号楼及附属门市）","full_address":"黑龙江省黑河市爱辉区兴安街道热电社区惠民11号地小区及附属门市车库（不含6号楼及附属门市车库、1号楼及附属门市）","info":""}},{"type":"Feature","geometry":{"type":"Point","coordinates":[127.491774,50.252528]},"properties":{"province":"黑龙江省","city":"黑河市","county":"爱辉区","community":"海兰街道鹿源春社区宏运小区及附属门市车库（不含2号楼及附属门市）","full_address":"黑龙江省黑河市爱辉区海兰街道鹿源春社区宏运小区及附属门市车库（不含2号楼及附属门市）","info":""}},{"type":"Feature","geometry":{"type":"Point","coordinates":[127.523979,50.239513]},"properties":{"province":"黑龙江省","city":"黑河市","county":"爱辉区","community":"兴安街道邮政社区松辽委小区（不含中房94号楼4单元及4单元附属门市）","full_address":"黑龙江省黑河市爱辉区兴安街道邮政社区松辽委小区（不含中房94号楼4单元及4单元附属门市）","info":""}},{"type":"Feature","geometry":{"type":"Point","coordinates":[127.432203,50.003468]},"properties":{"province":"黑龙江省","city":"黑河市","county":"爱辉区","community":"瑷珲镇北三家子村一组92号—99号","full_address":"黑龙江省黑河市爱辉区瑷珲镇北三家子村一组92号—99号","info":""}},{"type":"Feature","geometry":{"type":"Point","coordinates":[127.493618,50.253114]},"properties":{"province":"黑龙江省","city":"黑河市","county":"爱辉区","community":"海兰街道鹿源春社区北港嘉园小区2单元及2单元附属门市","full_address":"黑龙江省黑河市爱辉区海兰街道鹿源春社区北港嘉园小区2单元及2单元附属门市","info":""}},{"type":"Feature","geometry":{"type":"Point","coordinates":[127.494526,50.253789]},"properties":{"province":"黑龙江省","city":"黑河市","county":"爱辉区","community":"海兰街道鹿源春社区恒基高层3单元及附属门市","full_address":"黑龙江省黑河市爱辉区海兰街道鹿源春社区恒基高层3单元及附属门市","info":""}},{"type":"Feature","geometry":{"type":"Point","coordinates":[127.478792,50.244845]},"properties":{"province":"黑龙江省","city":"黑河市","county":"爱辉区","community":"海兰街道温馨社区北国明珠小区11号楼1单元及1单元附属车库","full_address":"黑龙江省黑河市爱辉区海兰街道温馨社区北国明珠小区11号楼1单元及1单元附属车库","info":""}},{"type":"Feature","geometry":{"type":"Point","coordinates":[127.491933,50.245233]},"properties":{"province":"黑龙江省","city":"黑河市","county":"爱辉区","community":"海兰街道温馨社区建行小区建行15号楼及附属门市","full_address":"黑龙江省黑河市爱辉区海兰街道温馨社区建行小区建行15号楼及附属门市","info":""}},{"type":"Feature","geometry":{"type":"Point","coordinates":[127.481946,50.240165]},"properties":{"province":"黑龙江省","city":"黑河市","county":"爱辉区","community":"海兰街道温馨社区阳光嘉园小区3号楼及附属车库","full_address":"黑龙江省黑河市爱辉区海兰街道温馨社区阳光嘉园小区3号楼及附属车库","info":""}},{"type":"Feature","geometry":{"type":"Point","coordinates":[127.545117,49.785786]},"properties":{"province":"黑龙江省","city":"黑河市","county":"爱辉区","community":"红色边疆农场福苑小区3号楼","full_address":"黑龙江省黑河市爱辉区红色边疆农场福苑小区3号楼","info":""}},{"type":"Feature","geometry":{"type":"Point","coordinates":[127.521653,50.235038]},"properties":{"province":"黑龙江省","city":"黑河市","county":"爱辉区","community":"花园街道博文社区安发小区3号楼1单元","full_address":"黑龙江省黑河市爱辉区花园街道博文社区安发小区3号楼1单元","info":""}},{"type":"Feature","geometry":{"type":"Point","coordinates":[127.521516,50.237484]},"properties":{"province":"黑龙江省","city":"黑河市","county":"爱辉区","community":"花园街道博文社区昌辉雅典城小区3号楼1单元及1单元附属门市","full_address":"黑龙江省黑河市爱辉区花园街道博文社区昌辉雅典城小区3号楼1单元及1单元附属门市","info":""}},{"type":"Feature","geometry":{"type":"Point","coordinates":[127.510382,50.230265]},"properties":{"province":"黑龙江省","city":"黑河市","county":"爱辉区","community":"花园街道博文社区尚品观景国际小区8号楼及附属车库","full_address":"黑龙江省黑河市爱辉区花园街道博文社区尚品观景国际小区8号楼及附属车库","info":""}},{"type":"Feature","geometry":{"type":"Point","coordinates":[127.52787,50.238199]},"properties":{"province":"黑龙江省","city":"黑河市","county":"爱辉区","community":"花园街道博文社区中超一期小区2号楼2单元及2单元附属门市、3单元及3单元附属门市、4单元及4单元附属门市","full_address":"黑龙江省黑河市爱辉区花园街道博文社区中超一期小区2号楼2单元及2单元附属门市、3单元及3单元附属门市、4单元及4单元附属门市","info":""}},{"type":"Feature","geometry":{"type":"Point","coordinates":[127.506147,50.2332]},"properties":{"province":"黑龙江省","city":"黑河市","county":"爱辉区","community":"花园街道长海社区国税小区2号楼1单元","full_address":"黑龙江省黑河市爱辉区花园街道长海社区国税小区2号楼1单元","info":""}},{"type":"Feature","geometry":{"type":"Point","coordinates":[127.497179,50.249071]},"properties":{"province":"黑龙江省","city":"黑河市","county":"爱辉区","community":"花园街道长海社区宏远小区宏鹏1号楼及附属门市车库","full_address":"黑龙江省黑河市爱辉区花园街道长海社区宏远小区宏鹏1号楼及附属门市车库","info":""}},{"type":"Feature","geometry":{"type":"Point","coordinates":[127.503329,50.236132]},"properties":{"province":"黑龙江省","city":"黑河市","county":"爱辉区","community":"花园街道长海社区华寓小区5号楼及附属车库、2号楼4单元及4单元附属门市","full_address":"黑龙江省黑河市爱辉区花园街道长海社区华寓小区5号楼及附属车库、2号楼4单元及4单元附属门市","info":""}},{"type":"Feature","geometry":{"type":"Point","coordinates":[127.52001,50.242435]},"properties":{"province":"黑龙江省","city":"黑河市","county":"爱辉区","community":"花园街道金兰社区海兰行小区1号楼及附属门市","full_address":"黑龙江省黑河市爱辉区花园街道金兰社区海兰行小区1号楼及附属门市","info":""}},{"type":"Feature","geometry":{"type":"Point","coordinates":[127.528114,50.245159]},"properties":{"province":"黑龙江省","city":"黑河市","county":"爱辉区","community":"花园街道金兰社区华泰滨江锦苑小区3号楼1单元及1单元附属车库、2单元及2单元附属车库","full_address":"黑龙江省黑河市爱辉区花园街道金兰社区华泰滨江锦苑小区3号楼1单元及1单元附属车库、2单元及2单元附属车库","info":""}},{"type":"Feature","geometry":{"type":"Point","coordinates":[126.72052,48.683955]},"properties":{"province":"黑龙江省","city":"黑河市","county":"爱辉区","community":"花园街道喇嘛台社区鸿城名苑小区3号楼4单元及4单元附属车库","full_address":"黑龙江省黑河市爱辉区花园街道喇嘛台社区鸿城名苑小区3号楼4单元及4单元附属车库","info":""}},{"type":"Feature","geometry":{"type":"Point","coordinates":[127.527376,50.232746]},"properties":{"province":"黑龙江省","city":"黑河市","county":"爱辉区","community":"花园街道喇嘛台社区荣耀世纪小区11号楼5单元及5单元附属车库","full_address":"黑龙江省黑河市爱辉区花园街道喇嘛台社区荣耀世纪小区11号楼5单元及5单元附属车库","info":""}},{"type":"Feature","geometry":{"type":"Point","coordinates":[127.50132,50.250397]},"properties":{"province":"黑龙江省","city":"黑河市","county":"爱辉区","community":"花园街道喇嘛台社区学府佳苑小区8号楼及附属车库","full_address":"黑龙江省黑河市爱辉区花园街道喇嘛台社区学府佳苑小区8号楼及附属车库","info":""}},{"type":"Feature","geometry":{"type":"Point","coordinates":[127.512145,50.241397]},"properties":{"province":"黑龙江省","city":"黑河市","county":"爱辉区","community":"花园街道联通社区建行小区农业小楼（独立单元楼）、荣升久食杂店","full_address":"黑龙江省黑河市爱辉区花园街道联通社区建行小区农业小楼（独立单元楼）、荣升久食杂店","info":""}},{"type":"Feature","geometry":{"type":"Point","coordinates":[127.52282,50.238765]},"properties":{"province":"黑龙江省","city":"黑河市","county":"爱辉区","community":"花园街道网通社区楼中楼小区房产34号楼及附属门市","full_address":"黑龙江省黑河市爱辉区花园街道网通社区楼中楼小区房产34号楼及附属门市","info":""}},{"type":"Feature","geometry":{"type":"Point","coordinates":[127.530011,50.239083]},"properties":{"province":"黑龙江省","city":"黑河市","county":"爱辉区","community":"花园街道武庙屯社区大公馆小区11号楼1单元","full_address":"黑龙江省黑河市爱辉区花园街道武庙屯社区大公馆小区11号楼1单元","info":""}},{"type":"Feature","geometry":{"type":"Point","coordinates":[127.533424,50.238059]},"properties":{"province":"黑龙江省","city":"黑河市","county":"爱辉区","community":"花园街道武庙屯社区华泰颐和国际小区9号楼1单元及1单元附属门市","full_address":"黑龙江省黑河市爱辉区花园街道武庙屯社区华泰颐和国际小区9号楼1单元及1单元附属门市","info":""}},{"type":"Feature","geometry":{"type":"Point","coordinates":[127.528206,50.2399]},"properties":{"province":"黑龙江省","city":"黑河市","county":"爱辉区","community":"花园街道武庙屯社区隆福家园小区2号楼","full_address":"黑龙江省黑河市爱辉区花园街道武庙屯社区隆福家园小区2号楼","info":""}},{"type":"Feature","geometry":{"type":"Point","coordinates":[127.530701,50.237656]},"properties":{"province":"黑龙江省","city":"黑河市","county":"爱辉区","community":"花园街道武庙屯社区之路佳苑小区11号楼1单元","full_address":"黑龙江省黑河市爱辉区花园街道武庙屯社区之路佳苑小区11号楼1单元","info":""}},{"type":"Feature","geometry":{"type":"Point","coordinates":[127.517396,50.237886]},"properties":{"province":"黑龙江省","city":"黑河市","county":"爱辉区","community":"西兴街道福龙社区粮保小区保险家属楼1单元及1单元附属车库门市","full_address":"黑龙江省黑河市爱辉区西兴街道福龙社区粮保小区保险家属楼1单元及1单元附属车库门市","info":""}},{"type":"Feature","geometry":{"type":"Point","coordinates":[127.486772,50.251868]},"properties":{"province":"黑龙江省","city":"黑河市","county":"爱辉区","community":"西兴街道人保财险社区林业11区2号楼2单元及2单元附属门市","full_address":"黑龙江省黑河市爱辉区西兴街道人保财险社区林业11区2号楼2单元及2单元附属门市","info":""}},{"type":"Feature","geometry":{"type":"Point","coordinates":[127.474117,50.255179]},"properties":{"province":"黑龙江省","city":"黑河市","county":"爱辉区","community":"西兴街道向阳社区在水一方小区4号楼2单元及2单元附属门市、3单元及3单元附属门市","full_address":"黑龙江省黑河市爱辉区西兴街道向阳社区在水一方小区4号楼2单元及2单元附属门市、3单元及3单元附属门市","info":""}},{"type":"Feature","geometry":{"type":"Point","coordinates":[127.49442,50.246545]},"properties":{"province":"黑龙江省","city":"黑河市","county":"爱辉区","community":"兴安街道金融社区建材小区地开发8号楼2单元及2单元附属门市、3单元及3单元附属门市、4单元及4单元附属门市、建材2号楼9单元及9单元附属门市","full_address":"黑龙江省黑河市爱辉区兴安街道金融社区建材小区地开发8号楼2单元及2单元附属门市、3单元及3单元附属门市、4单元及4单元附属门市、建材2号楼9单元及9单元附属门市","info":""}},{"type":"Feature","geometry":{"type":"Point","coordinates":[127.509261,50.240156]},"properties":{"province":"黑龙江省","city":"黑河市","county":"爱辉区","community":"兴安街道金融社区锦江佳苑小区保险公司家属楼2单元及2单元附属门市","full_address":"黑龙江省黑河市爱辉区兴安街道金融社区锦江佳苑小区保险公司家属楼2单元及2单元附属门市","info":""}},{"type":"Feature","geometry":{"type":"Point","coordinates":[127.499882,50.236724]},"properties":{"province":"黑龙江省","city":"黑河市","county":"爱辉区","community":"兴安街道热电社区惠民12号地小区10号楼及附属车库","full_address":"黑龙江省黑河市爱辉区兴安街道热电社区惠民12号地小区10号楼及附属车库","info":""}},{"type":"Feature","geometry":{"type":"Point","coordinates":[127.488731,50.241997]},"properties":{"province":"黑龙江省","city":"黑河市","county":"爱辉区","community":"兴安街道热电社区南湖雅苑小区新8号楼1单元及1单元附属车库、新6号楼3单元及3单元附属车库","full_address":"黑龙江省黑河市爱辉区兴安街道热电社区南湖雅苑小区新8号楼1单元及1单元附属车库、新6号楼3单元及3单元附属车库","info":""}},{"type":"Feature","geometry":{"type":"Point","coordinates":[127.497101,50.24162]},"properties":{"province":"黑龙江省","city":"黑河市","county":"爱辉区","community":"兴安街道热电社区艺苑小区1号楼1单元及1单元附属门市、1号楼二楼半及附属门市","full_address":"黑龙江省黑河市爱辉区兴安街道热电社区艺苑小区1号楼1单元及1单元附属门市、1号楼二楼半及附属门市","info":""}},{"type":"Feature","geometry":{"type":"Point","coordinates":[127.501442,50.245003]},"properties":{"province":"黑龙江省","city":"黑河市","county":"爱辉区","community":"兴安街道邮政社区西沟圣欣小区东兴路96号楼及附属门市","full_address":"黑龙江省黑河市爱辉区兴安街道邮政社区西沟圣欣小区东兴路96号楼及附属门市","info":""}},{"type":"Feature","geometry":{"type":"Point","coordinates":[127.506065,50.249198]},"properties":{"province":"黑龙江省","city":"黑河市","county":"爱辉区","community":"花园街道联通社区建行小区建行3号楼及附属门市、建行4号楼及附属门市（不含荣升久食杂店）","full_address":"黑龙江省黑河市爱辉区花园街道联通社区建行小区建行3号楼及附属门市、建行4号楼及附属门市（不含荣升久食杂店）","info":""}},{"type":"Feature","geometry":{"type":"Point","coordinates":[127.526622,50.233326]},"properties":{"province":"黑龙江省","city":"黑河市","county":"爱辉区","community":"花园街道喇嘛台社区荣耀世纪小区6号楼及附属车库门市、10号楼及附属车库门市、11号楼及附属车库门市（不含5单元及5单元附属车库）、12号楼及附属车库门市","full_address":"黑龙江省黑河市爱辉区花园街道喇嘛台社区荣耀世纪小区6号楼及附属车库门市、10号楼及附属车库门市、11号楼及附属车库门市（不含5单元及5单元附属车库）、12号楼及附属车库门市","info":""}},{"type":"Feature","geometry":{"type":"Point","coordinates":[127.506147,50.2332]},"properties":{"province":"黑龙江省","city":"黑河市","county":"爱辉区","community":"花园街道长海社区国税小区2号楼（不含1单元）","full_address":"黑龙江省黑河市爱辉区花园街道长海社区国税小区2号楼（不含1单元）","info":""}},{"type":"Feature","geometry":{"type":"Point","coordinates":[127.477338,50.24906]},"properties":{"province":"黑龙江省","city":"黑河市","county":"爱辉区","community":"西兴街道福龙社区翰林雅居小区（不含5号楼及附属门市、6号楼及附属门市）","full_address":"黑龙江省黑河市爱辉区西兴街道福龙社区翰林雅居小区（不含5号楼及附属门市、6号楼及附属门市）","info":""}},{"type":"Feature","geometry":{"type":"Point","coordinates":[127.478034,50.252369]},"properties":{"province":"黑龙江省","city":"黑河市","county":"爱辉区","community":"西兴街道福龙社区御景湾小区4号楼、5号楼（不含2单元）、6号楼（不含1单元）、9号楼","full_address":"黑龙江省黑河市爱辉区西兴街道福龙社区御景湾小区4号楼、5号楼（不含2单元）、6号楼（不含1单元）、9号楼","info":""}},{"type":"Feature","geometry":{"type":"Point","coordinates":[127.510382,50.230265]},"properties":{"province":"黑龙江省","city":"黑河市","county":"爱辉区","community":"花园街道博文社区尚品观景国际小区7号楼及附属车库","full_address":"黑龙江省黑河市爱辉区花园街道博文社区尚品观景国际小区7号楼及附属车库","info":""}},{"type":"Feature","geometry":{"type":"Point","coordinates":[127.488731,50.241997]},"properties":{"province":"黑龙江省","city":"黑河市","county":"爱辉区","community":"兴安街道热电社区南湖雅苑小区新8号楼及附属车库（不含1单元及1单元附属车库）、新6号楼及附属车库门市（除3单元及3单元附属车库）","full_address":"黑龙江省黑河市爱辉区兴安街道热电社区南湖雅苑小区新8号楼及附属车库（不含1单元及1单元附属车库）、新6号楼及附属车库门市（除3单元及3单元附属车库）","info":""}},{"type":"Feature","geometry":{"type":"Point","coordinates":[127.502188,50.236542]},"properties":{"province":"黑龙江省","city":"黑河市","county":"爱辉区","community":"花园街道长海社区华寓小区1号楼及附属门市、2号楼及附属门市（不含4单元及4单元附属门市）、3号楼及附属门市、4号楼及附属门市、6号楼及附属车库","full_address":"黑龙江省黑河市爱辉区花园街道长海社区华寓小区1号楼及附属门市、2号楼及附属门市（不含4单元及4单元附属门市）、3号楼及附属门市、4号楼及附属门市、6号楼及附属车库","info":""}},{"type":"Feature","geometry":{"type":"Point","coordinates":[127.533424,50.238059]},"properties":{"province":"黑龙江省","city":"黑河市","county":"爱辉区","community":"花园街道武庙屯社区华泰颐和国际小区9号楼及附属门市（不含1单元及1单元附属门市）","full_address":"黑龙江省黑河市爱辉区花园街道武庙屯社区华泰颐和国际小区9号楼及附属门市（不含1单元及1单元附属门市）","info":""}},{"type":"Feature","geometry":{"type":"Point","coordinates":[127.489956,50.249542]},"properties":{"province":"黑龙江省","city":"黑河市","county":"爱辉区","community":"西兴街道福龙社区益民二区18区22号楼及附属门市车库","full_address":"黑龙江省黑河市爱辉区西兴街道福龙社区益民二区18区22号楼及附属门市车库","info":""}},{"type":"Feature","geometry":{"type":"Point","coordinates":[127.518173,50.240237]},"properties":{"province":"黑龙江省","city":"黑河市","county":"爱辉区","community":"花园街道长海社区社保集资楼小区及附属门市车库（不含3号楼及附属门市）","full_address":"黑龙江省黑河市爱辉区花园街道长海社区社保集资楼小区及附属门市车库（不含3号楼及附属门市）","info":""}},{"type":"Feature","geometry":{"type":"Point","coordinates":[127.477974,50.244343]},"properties":{"province":"黑龙江省","city":"黑河市","county":"爱辉区","community":"海兰街道温馨社区北国明珠二期小区3号楼及附属车库（不含3单元及3单元附属车库）","full_address":"黑龙江省黑河市爱辉区海兰街道温馨社区北国明珠二期小区3号楼及附属车库（不含3单元及3单元附属车库）","info":""}},{"type":"Feature","geometry":{"type":"Point","coordinates":[127.512691,50.243996]},"properties":{"province":"黑龙江省","city":"黑河市","county":"爱辉区","community":"花园街道长海社区鹏瑞新起点小区及附属门市（不含1单元及1单元附属门市）","full_address":"黑龙江省黑河市爱辉区花园街道长海社区鹏瑞新起点小区及附属门市（不含1单元及1单元附属门市）","info":""}},{"type":"Feature","geometry":{"type":"Point","coordinates":[127.514709,50.239951]},"properties":{"province":"黑龙江省","city":"黑河市","county":"爱辉区","community":"花园街道长海社区龙滨花园小区及附属门市车库（不含3号楼及附属门市车库）","full_address":"黑龙江省黑河市爱辉区花园街道长海社区龙滨花园小区及附属门市车库（不含3号楼及附属门市车库）","info":""}},{"type":"Feature","geometry":{"type":"Point","coordinates":[127.516533,50.240419]},"properties":{"province":"黑龙江省","city":"黑河市","county":"爱辉区","community":"花园街道长海社区金盾小区及附属门市（不含1号楼及附属门市）","full_address":"黑龙江省黑河市爱辉区花园街道长海社区金盾小区及附属门市（不含1号楼及附属门市）","info":""}},{"type":"Feature","geometry":{"type":"Point","coordinates":[127.505803,50.236145]},"properties":{"province":"黑龙江省","city":"黑河市","county":"爱辉区","community":"花园街道长海社区金通花园小区及附属门市（不含2号楼及附属门市）","full_address":"黑龙江省黑河市爱辉区花园街道长海社区金通花园小区及附属门市（不含2号楼及附属门市）","info":""}},{"type":"Feature","geometry":{"type":"Point","coordinates":[127.514997,50.247766]},"properties":{"province":"黑龙江省","city":"黑河市","county":"爱辉区","community":"花园街道联通社区教委集资楼及附属门市（不含2号楼及附属门市）","full_address":"黑龙江省黑河市爱辉区花园街道联通社区教委集资楼及附属门市（不含2号楼及附属门市）","info":""}},{"type":"Feature","geometry":{"type":"Point","coordinates":[127.497957,50.252053]},"properties":{"province":"黑龙江省","city":"黑河市","county":"爱辉区","community":"海兰街道鹿源春社区中房家园小区（大众浴池卡口通行楼宇）及附属门市（不含中房42号楼及附属门市）","full_address":"黑龙江省黑河市爱辉区海兰街道鹿源春社区中房家园小区（大众浴池卡口通行楼宇）及附属门市（不含中房42号楼及附属门市）","info":""}},{"type":"Feature","geometry":{"type":"Point","coordinates":[127.509689,50.241528]},"properties":{"province":"黑龙江省","city":"黑河市","county":"爱辉区","community":"花园街道长海社区学苑小区及附属门市车库（不含学苑1号楼及附属门市、学苑2号楼及附属门市车库）","full_address":"黑龙江省黑河市爱辉区花园街道长海社区学苑小区及附属门市车库（不含学苑1号楼及附属门市、学苑2号楼及附属门市车库）","info":""}},{"type":"Feature","geometry":{"type":"Point","coordinates":[127.483444,50.246046]},"properties":{"province":"黑龙江省","city":"黑河市","county":"爱辉区","community":"海兰街道温馨社区金地花园小区及附属门市车库（不含11号楼及附属门市车库）","full_address":"黑龙江省黑河市爱辉区海兰街道温馨社区金地花园小区及附属门市车库（不含11号楼及附属门市车库）","info":""}},{"type":"Feature","geometry":{"type":"Point","coordinates":[127.477974,50.244343]},"properties":{"province":"黑龙江省","city":"黑河市","county":"爱辉区","community":"海兰街道温馨社区北国明珠二期小区及附属门市（不含1A东楼及附属门市）","full_address":"黑龙江省黑河市爱辉区海兰街道温馨社区北国明珠二期小区及附属门市（不含1A东楼及附属门市）","info":""}},{"type":"Feature","geometry":{"type":"Point","coordinates":[127.4162,50.141007]},"properties":{"province":"黑龙江省","city":"黑河市","county":"爱辉区","community":"锦河农场振兴街以东、富强街以西、安康路以北、安发路以南区域（不含锦河农场16号楼）","full_address":"黑龙江省黑河市爱辉区锦河农场振兴街以东、富强街以西、安康路以北、安发路以南区域（不含锦河农场16号楼）","info":""}},{"type":"Feature","geometry":{"type":"Point","coordinates":[127.521391,50.236428]},"properties":{"province":"黑龙江省","city":"黑河市","county":"爱辉区","community":"花园街道博文社区星辉小区及附属门市车库（不含2号楼及附属门市车库、6号楼高层区及附属门市车库）","full_address":"黑龙江省黑河市爱辉区花园街道博文社区星辉小区及附属门市车库（不含2号楼及附属门市车库、6号楼高层区及附属门市车库）","info":""}},{"type":"Feature","geometry":{"type":"Point","coordinates":[127.488683,50.241086]},"properties":{"province":"黑龙江省","city":"黑河市","county":"爱辉区","community":"兴安街道热电社区南湖雅苑小区15号楼及附属车库","full_address":"黑龙江省黑河市爱辉区兴安街道热电社区南湖雅苑小区15号楼及附属车库","info":""}},{"type":"Feature","geometry":{"type":"Point","coordinates":[127.479416,50.247849]},"properties":{"province":"黑龙江省","city":"黑河市","county":"爱辉区","community":"西兴街道福龙社区力波家园小区3号楼、4号楼、9号楼、13号楼","full_address":"黑龙江省黑河市爱辉区西兴街道福龙社区力波家园小区3号楼、4号楼、9号楼、13号楼","info":""}},{"type":"Feature","geometry":{"type":"Point","coordinates":[127.499882,50.236724]},"properties":{"province":"黑龙江省","city":"黑河市","county":"爱辉区","community":"兴安街道热电社区铁路家属楼小区及附属门市（不含1号楼及附属门市）","full_address":"黑龙江省黑河市爱辉区兴安街道热电社区铁路家属楼小区及附属门市（不含1号楼及附属门市）","info":""}},{"type":"Feature","geometry":{"type":"Point","coordinates":[127.491541,50.244766]},"properties":{"province":"黑龙江省","city":"黑河市","county":"爱辉区","community":"兴安街道热电社区和谐家园小区及附属门市（不含1号楼及附属门市）","full_address":"黑龙江省黑河市爱辉区兴安街道热电社区和谐家园小区及附属门市（不含1号楼及附属门市）","info":""}},{"type":"Feature","geometry":{"type":"Point","coordinates":[127.481801,50.238572]},"properties":{"province":"黑龙江省","city":"黑河市","county":"爱辉区","community":"兴安街道热电社区阳光家园小区及附属门市（不含8号楼及附属门市）","full_address":"黑龙江省黑河市爱辉区兴安街道热电社区阳光家园小区及附属门市（不含8号楼及附属门市）","info":""}},{"type":"Feature","geometry":{"type":"Point","coordinates":[127.501968,50.248272]},"properties":{"province":"黑龙江省","city":"黑河市","county":"爱辉区","community":"兴安街道邮政社区无委会小区及附属门市车库（不含鹏瑞二期及附属门市）","full_address":"黑龙江省黑河市爱辉区兴安街道邮政社区无委会小区及附属门市车库（不含鹏瑞二期及附属门市）","info":""}},{"type":"Feature","geometry":{"type":"Point","coordinates":[127.514997,50.247766]},"properties":{"province":"黑龙江省","city":"黑河市","county":"爱辉区","community":"花园街道联通社区体育场小区及附属门市（不含计委家属楼及附属门市）","full_address":"黑龙江省黑河市爱辉区花园街道联通社区体育场小区及附属门市（不含计委家属楼及附属门市）","info":""}},{"type":"Feature","geometry":{"type":"Point","coordinates":[127.473538,50.25155]},"properties":{"province":"黑龙江省","city":"黑河市","county":"爱辉区","community":"西兴街道向阳社区幸福佳苑小区及附属门市车库（不含4号楼及附属车库）","full_address":"黑龙江省黑河市爱辉区西兴街道向阳社区幸福佳苑小区及附属门市车库（不含4号楼及附属车库）","info":""}},{"type":"Feature","geometry":{"type":"Point","coordinates":[125.215513,49.184133]},"properties":{"province":"黑龙江省","city":"黑河市","county":"嫩江市","community":"颐江园高层1号楼、高层2号楼、多层1号楼、多层2号楼","full_address":"黑龙江省黑河市嫩江市颐江园高层1号楼、高层2号楼、多层1号楼、多层2号楼","info":""}},{"type":"Feature","geometry":{"type":"Point","coordinates":[125.221192,49.185766]},"properties":{"province":"黑龙江省","city":"黑河市","county":"嫩江市","community":"农行招待所","full_address":"黑龙江省黑河市嫩江市农行招待所","info":""}},{"type":"Feature","geometry":{"type":"Point","coordinates":[126.664245,51.727902]},"properties":{"province":"黑龙江省","city":"大兴安岭地区","county":"呼玛县","community":"三卡乡中心小区3号楼","full_address":"黑龙江省大兴安岭地区呼玛县三卡乡中心小区3号楼","info":""}},{"type":"Feature","geometry":{"type":"Point","coordinates":[126.66078,51.725664]},"properties":{"province":"黑龙江省","city":"大兴安岭地区","county":"呼玛县","community":"气象小区、合顺家园1号、2号、3号楼、教育局办公楼合围区域（除高风险区外）","full_address":"黑龙江省大兴安岭地区呼玛县气象小区、合顺家园1号、2号、3号楼、教育局办公楼合围区域（除高风险区外）","info":""}},{"type":"Feature","geometry":{"type":"Point","coordinates":[121.49936,31.25216]},"properties":{"province":"上海市","city":"上海市","county":"虹口区","community":"北外滩街道旅顺路66号","full_address":"上海市上海市虹口区北外滩街道旅顺路66号","info":""}},{"type":"Feature","geometry":{"type":"Point","coordinates":[121.349088,31.178441]},"properties":{"province":"上海市","city":"上海市","county":"闵行区","community":"新虹街道沪青平公路249弄晟虹新景苑小区（包括沿街商铺）","full_address":"上海市上海市闵行区新虹街道沪青平公路249弄晟虹新景苑小区（包括沿街商铺）","info":""}},{"type":"Feature","geometry":{"type":"Point","coordinates":[121.348049,31.1685]},"properties":{"province":"上海市","city":"上海市","county":"闵行区","community":"七宝镇航华二村三街坊183-211号景丽苑小区（包括沿街商铺）","full_address":"上海市上海市闵行区七宝镇航华二村三街坊183-211号景丽苑小区（包括沿街商铺）","info":""}},{"type":"Feature","geometry":{"type":"Point","coordinates":[121.355709,31.174718]},"properties":{"province":"上海市","city":"上海市","county":"闵行区","community":"七宝镇航北路180弄新明星花园二期（包括沿街商铺）","full_address":"上海市上海市闵行区七宝镇航北路180弄新明星花园二期（包括沿街商铺）","info":""}},{"type":"Feature","geometry":{"type":"Point","coordinates":[121.388482,31.320961]},"properties":{"province":"上海市","city":"上海市","county":"宝山区","community":"大场镇锦秋路743号智尚酒店","full_address":"上海市上海市宝山区大场镇锦秋路743号智尚酒店","info":""}},{"type":"Feature","geometry":{"type":"Point","coordinates":[121.56316,31.195396]},"properties":{"province":"上海市","city":"上海市","county":"浦东新区","community":"陆家嘴街道上海浦东丽思卡尔顿酒店","full_address":"上海市上海市浦东新区陆家嘴街道上海浦东丽思卡尔顿酒店","info":""}},{"type":"Feature","geometry":{"type":"Point","coordinates":[121.656363,31.219462]},"properties":{"province":"上海市","city":"上海市","county":"浦东新区","community":"唐镇齐爱路99弄绿城玉兰花园-御园","full_address":"上海市上海市浦东新区唐镇齐爱路99弄绿城玉兰花园-御园","info":""}},{"type":"Feature","geometry":{"type":"Point","coordinates":[118.789484,32.0242]},"properties":{"province":"江苏省","city":"南京市","county":"秦淮区","community":"布丁严选酒店（秦淮区洪武路街道太平南路585号）","full_address":"江苏省南京市秦淮区布丁严选酒店（秦淮区洪武路街道太平南路585号）","info":""}},{"type":"Feature","geometry":{"type":"Point","coordinates":[118.803186,32.027237]},"properties":{"province":"江苏省","city":"南京市","county":"秦淮区","community":"网鱼网咖（秦淮区洪武路街道长白街88号）","full_address":"江苏省南京市秦淮区网鱼网咖（秦淮区洪武路街道长白街88号）","info":""}},{"type":"Feature","geometry":{"type":"Point","coordinates":[117.967813,34.30139]},"properties":{"province":"江苏省","city":"徐州市","county":"邳州市","community":"运河街道向阳社区月亮湾小区（三岔河路211号）","full_address":"江苏省徐州市邳州市运河街道向阳社区月亮湾小区（三岔河路211号）","info":""}},{"type":"Feature","geometry":{"type":"Point","coordinates":[117.964966,34.307569]},"properties":{"province":"江苏省","city":"徐州市","county":"邳州市","community":"“在水一方”浴室（青年东路25号）","full_address":"江苏省徐州市邳州市“在水一方”浴室（青年东路25号）","info":""}},{"type":"Feature","geometry":{"type":"Point","coordinates":[117.967531,34.330278]},"properties":{"province":"江苏省","city":"徐州市","county":"邳州市","community":"天鸿金陵大酒店（世纪大道888号）","full_address":"江苏省徐州市邳州市天鸿金陵大酒店（世纪大道888号）","info":""}},{"type":"Feature","geometry":{"type":"Point","coordinates":[120.522705,31.281997]},"properties":{"province":"江苏省","city":"苏州市","county":"吴中区","community":"木渎镇尼盛青年城小区（吴中区玉山路699号）","full_address":"江苏省苏州市吴中区木渎镇尼盛青年城小区（吴中区玉山路699号）","info":""}},{"type":"Feature","geometry":{"type":"Point","coordinates":[119.51938,32.193046]},"properties":{"province":"江苏省","city":"镇江市","county":"京口区","community":"水木阳光小区","full_address":"江苏省镇江市京口区水木阳光小区","info":""}},{"type":"Feature","geometry":{"type":"Point","coordinates":[119.474713,32.211419]},"properties":{"province":"江苏省","city":"镇江市","county":"京口区","community":"吉麦隆超市（江大店）","full_address":"江苏省镇江市京口区吉麦隆超市（江大店）","info":""}},{"type":"Feature","geometry":{"type":"Point","coordinates":[119.461886,32.201951]},"properties":{"province":"江苏省","city":"镇江市","county":"京口区","community":"牛得多牛肉面馆（香江店）","full_address":"江苏省镇江市京口区牛得多牛肉面馆（香江店）","info":""}},{"type":"Feature","geometry":{"type":"Point","coordinates":[119.48906,32.212196]},"properties":{"province":"江苏省","city":"镇江市","county":"京口区","community":"夏文龙面馆（学府路、宗泽路交叉口附近）","full_address":"江苏省镇江市京口区夏文龙面馆（学府路、宗泽路交叉口附近）","info":""}},{"type":"Feature","geometry":{"type":"Point","coordinates":[119.47016,32.19828]},"properties":{"province":"江苏省","city":"镇江市","county":"京口区","community":"江大后街（XY欧韩女装店、秀依阁服装店）","full_address":"江苏省镇江市京口区江大后街（XY欧韩女装店、秀依阁服装店）","info":""}},{"type":"Feature","geometry":{"type":"Point","coordinates":[115.786726,32.870261]},"properties":{"province":"安徽省","city":"阜阳市","county":"颍州区","community":"碧水雅苑小区B2区及其附属商铺门店","full_address":"安徽省阜阳市颍州区碧水雅苑小区B2区及其附属商铺门店","info":""}},{"type":"Feature","geometry":{"type":"Point","coordinates":[118.094574,24.466573]},"properties":{"province":"福建省","city":"厦门市","county":"思明区","community":"禾祥西路234-246（万禾花园）","full_address":"福建省厦门市思明区禾祥西路234-246（万禾花园）","info":""}},{"type":"Feature","geometry":{"type":"Point","coordinates":[118.085526,24.445085]},"properties":{"province":"福建省","city":"厦门市","county":"思明区","community":"碧山路1、3、3-1、3-2、5-1、5-3、7、7-1、7-2、7-3、9-1、9-2、11-1、11-2、13-1、13-2、15-1、17、19-1、21、21-1、21-2、21-3、23、25、27、27-1、27-2、29-1、29-2、29-3、29-9、29-10号","full_address":"福建省厦门市思明区碧山路1、3、3-1、3-2、5-1、5-3、7、7-1、7-2、7-3、9-1、9-2、11-1、11-2、13-1、13-2、15-1、17、19-1、21、21-1、21-2、21-3、23、25、27、27-1、27-2、29-1、29-2、29-3、29-9、29-10号","info":""}},{"type":"Feature","geometry":{"type":"Point","coordinates":[118.094599,24.469394]},