{"type":"FeatureCollection","features":[{"type":"Feature","geometry":{"type":"Point","coordinates":[116.315636,39.850109]},"properties":{"full_address":"北京市丰台区新村街道金丰园小区除2号楼以外的其他区域"}},{"type":"Feature","geometry":{"type":"Point","coordinates":[116.36262,39.81026]},"properties":{"full_address":"北京市丰台区南苑街道新宫家园南区1号楼5单元以外的其他区域"}},{"type":"Feature","geometry":{"type":"Point","coordinates":[116.40661,39.85972]},"properties":{"full_address":"北京市丰台区东铁匠营街道东木樨园小区除15号楼的其他区域"}},{"type":"Feature","geometry":{"type":"Point","coordinates":[116.42059,39.85637]},"properties":{"full_address":"北京市丰台区东铁匠营街道小铁匠营36号2号楼除2单元以外的其他区域"}},{"type":"Feature","geometry":{"type":"Point","coordinates":[116.40515,39.81422]},"properties":{"full_address":"北京市丰台区和义街道和义东里社区除和义东里五区3号楼以外区域"}},{"type":"Feature","geometry":{"type":"Point","coordinates":[116.3985,39.81288]},"properties":{"full_address":"北京市丰台区和义街道和义西里社区二、三、四区除四区5号楼以外区域"}},{"type":"Feature","geometry":{"type":"Point","coordinates":[116.296349,39.86697]},"properties":{"full_address":"北京市丰台区看丹街道看丹村平房区除明晓中安保安公司宿舍以外区域"}},{"type":"Feature","geometry":{"type":"Point","coordinates":[116.23632,39.901581]},"properties":{"full_address":"北京市石景山区八宝山街道74号院24、27、28号楼、26号楼1-4单元以及电子科技情报研究所社区居委会"}},{"type":"Feature","geometry":{"type":"Point","coordinates":[116.32713,39.94916]},"properties":{"full_address":"北京市海淀区北下关街道中关村南大街46号南区7、9 、10 、18、22号楼"}},{"type":"Feature","geometry":{"type":"Point","coordinates":[116.222423,39.735047]},"properties":{"full_address":"北京市房山区长阳镇朱岗子村五区16号、2号区域"}},{"type":"Feature","geometry":{"type":"Point","coordinates":[116.555514,39.764145]},"properties":{"full_address":"北京市通州区马驹桥镇二街村"}},{"type":"Feature","geometry":{"type":"Point","coordinates":[116.454781,39.798706]},"properties":{"full_address":"北京市大兴区旧宫（地区）镇新苑南区除12号楼、7号楼以外其他楼栋"}},{"type":"Feature","geometry":{"type":"Point","coordinates":[116.451752,39.76152]},"properties":{"full_address":"北京市大兴区旧宫（地区）镇熙悦林语18号院1 -5、7-10号楼"}},{"type":"Feature","geometry":{"type":"Point","coordinates":[117.23298,39.1248]},"properties":{"full_address":"天津市天津市河东区大王庄街道怡祥园（7号楼除外）"}},{"type":"Feature","geometry":{"type":"Point","coordinates":[117.298538,39.095581]},"properties":{"full_address":"天津市天津市河东区二号桥街道龙峰嘉园（7号楼除外）"}},{"type":"Feature","geometry":{"type":"Point","coordinates":[117.220367,39.121799]},"properties":{"full_address":"天津市天津市河东区大王庄街道信合苑9号楼、10号楼、11号楼"}},{"type":"Feature","geometry":{"type":"Point","coordinates":[117.202042,39.101292]},"properties":{"full_address":"天津市天津市河西区马场街天达里小区全域"}},{"type":"Feature","geometry":{"type":"Point","coordinates":[117.175041,39.080009]},"properties":{"full_address":"天津市天津市南开区体育中心街新城市花园3-8号楼"}},{"type":"Feature","geometry":{"type":"Point","coordinates":[117.244278,39.169418]},"properties":{"full_address":"天津市天津市河北区月牙河街道靖辰公寓（除3号楼）"}},{"type":"Feature","geometry":{"type":"Point","coordinates":[117.146423,39.172501]},"properties":{"full_address":"天津市天津市红桥区西于庄街秀水苑小区除高风险区外其他区域"}},{"type":"Feature","geometry":{"type":"Point","coordinates":[117.370579,38.984736]},"properties":{"full_address":"天津市天津市津南区咸水沽镇金才园24号楼、25号楼、27号楼、28号楼、29号楼、30号楼"}},{"type":"Feature","geometry":{"type":"Point","coordinates":[117.361893,38.917706]},"properties":{"full_address":"天津市天津市津南区八里台镇观雅庭院3号楼"}},{"type":"Feature","geometry":{"type":"Point","coordinates":[117.164044,38.903031]},"properties":{"full_address":"天津市天津市静海区团泊镇泊雅苑小区3号楼"}},{"type":"Feature","geometry":{"type":"Point","coordinates":[117.133003,38.872623]},"properties":{"full_address":"天津市天津市静海区团泊镇碧桂园丽泽府小区全域内除高风险区以外区域"}},{"type":"Feature","geometry":{"type":"Point","coordinates":[116.959308,38.934491]},"properties":{"full_address":"天津市天津市静海区朝阳街道喆啡酒店（海馨园店），花房子音乐酒吧（海馨园店），海馨园小区6号楼、18号楼4门"}},{"type":"Feature","geometry":{"type":"Point","coordinates":[119.581,39.973472]},"properties":{"full_address":"河北省秦皇岛市海港区和美二期小区"}},{"type":"Feature","geometry":{"type":"Point","coordinates":[119.513408,39.896654]},"properties":{"full_address":"河北省秦皇岛市海港区森林家园二区"}},{"type":"Feature","geometry":{"type":"Point","coordinates":[119.567711,39.953917]},"properties":{"full_address":"河北省秦皇岛市海港区广顺厚现代城小区"}},{"type":"Feature","geometry":{"type":"Point","coordinates":[119.64006,39.948479]},"properties":{"full_address":"河北省秦皇岛市海港区东方明珠城小区A区以外区域"}},{"type":"Feature","geometry":{"type":"Point","coordinates":[119.575516,39.942383]},"properties":{"full_address":"河北省秦皇岛市海港区铁新里小区二区以外区域"}},{"type":"Feature","geometry":{"type":"Point","coordinates":[119.69326,39.9505]},"properties":{"full_address":"河北省秦皇岛市海港区西向河寨村"}},{"type":"Feature","geometry":{"type":"Point","coordinates":[119.639023,39.942207]},"properties":{"full_address":"河北省秦皇岛市海港区大秦铁路秦东运用车间"}},{"type":"Feature","geometry":{"type":"Point","coordinates":[119.50914,39.987831]},"properties":{"full_address":"河北省秦皇岛市海港区秦东公寓"}},{"type":"Feature","geometry":{"type":"Point","coordinates":[114.37266,36.37739]},"properties":{"full_address":"河北省邯郸市磁县友谊北大街以东、平安路以南、朝阳北大街以西、仁和路以北的区域"}},{"type":"Feature","geometry":{"type":"Point","coordinates":[114.379598,36.365012]},"properties":{"full_address":"河北省邯郸市磁县朝阳北大街以东、振兴路以南、古御街以西、安康西路以北的区域"}},{"type":"Feature","geometry":{"type":"Point","coordinates":[114.373971,36.357158]},"properties":{"full_address":"河北省邯郸市磁县友谊南大街以东、建设西路以南、邮政南街以西、贸易路以北的区域"}},{"type":"Feature","geometry":{"type":"Point","coordinates":[115.346024,38.380753]},"properties":{"full_address":"河北省保定市安国市祁州路街道南仕庄村"}},{"type":"Feature","geometry":{"type":"Point","coordinates":[115.287773,38.378021]},"properties":{"full_address":"河北省保定市安国市祁州路街道伏村"}},{"type":"Feature","geometry":{"type":"Point","coordinates":[115.315071,38.377422]},"properties":{"full_address":"河北省保定市安国市祁州路街道东长仕村"}},{"type":"Feature","geometry":{"type":"Point","coordinates":[116.037811,39.139771]},"properties":{"full_address":"河北省保定市白沟新城爱上城小区"}},{"type":"Feature","geometry":{"type":"Point","coordinates":[116.057602,39.135811]},"properties":{"full_address":"河北省保定市白沟新城商贸城小区"}},{"type":"Feature","geometry":{"type":"Point","coordinates":[116.039513,39.149338]},"properties":{"full_address":"河北省保定市白沟新城双泰城小区"}},{"type":"Feature","geometry":{"type":"Point","coordinates":[116.038193,39.142593]},"properties":{"full_address":"河北省保定市白沟新城尚豪国际城小区"}},{"type":"Feature","geometry":{"type":"Point","coordinates":[116.039917,39.144814]},"properties":{"full_address":"河北省保定市白沟新城万兴达广场"}},{"type":"Feature","geometry":{"type":"Point","coordinates":[114.919853,40.810539]},"properties":{"full_address":"河北省张家口市桥东区佳境天城小区"}},{"type":"Feature","geometry":{"type":"Point","coordinates":[114.89436,40.78847]},"properties":{"full_address":"河北省张家口市桥东区博锐枫景小区"}},{"type":"Feature","geometry":{"type":"Point","coordinates":[114.887173,40.827186]},"properties":{"full_address":"河北省张家口市桥西区公园路综合市场（下东营路店）"}},{"type":"Feature","geometry":{"type":"Point","coordinates":[114.880597,40.815764]},"properties":{"full_address":"河北省张家口市桥西区南城壕社区"}},{"type":"Feature","geometry":{"type":"Point","coordinates":[114.872296,40.823666]},"properties":{"full_address":"河北省张家口市桥西区新华街社区"}},{"type":"Feature","geometry":{"type":"Point","coordinates":[114.87265,40.811096]},"properties":{"full_address":"河北省张家口市桥西区西坝岗社区"}},{"type":"Feature","geometry":{"type":"Point","coordinates":[114.888035,40.830465]},"properties":{"full_address":"河北省张家口市桥西区中学街社区"}},{"type":"Feature","geometry":{"type":"Point","coordinates":[114.894997,40.833447]},"properties":{"full_address":"河北省张家口市桥西区清河园社区"}},{"type":"Feature","geometry":{"type":"Point","coordinates":[114.890548,40.829041]},"properties":{"full_address":"河北省张家口市桥西区附属医院社区"}},{"type":"Feature","geometry":{"type":"Point","coordinates":[114.869347,40.825947]},"properties":{"full_address":"河北省张家口市桥西区南瓦一社区"}},{"type":"Feature","geometry":{"type":"Point","coordinates":[114.86676,40.82478]},"properties":{"full_address":"河北省张家口市桥西区金鼎社区"}},{"type":"Feature","geometry":{"type":"Point","coordinates":[114.893902,40.841986]},"properties":{"full_address":"河北省张家口市桥西区西岔社区"}},{"type":"Feature","geometry":{"type":"Point","coordinates":[114.882774,40.82777]},"properties":{"full_address":"河北省张家口市桥西区元台子社区"}},{"type":"Feature","geometry":{"type":"Point","coordinates":[114.883759,40.825745]},"properties":{"full_address":"河北省张家口市桥西区明德南社区"}},{"type":"Feature","geometry":{"type":"Point","coordinates":[114.816742,40.852112]},"properties":{"full_address":"河北省张家口市桥西区永丰街社区"}},{"type":"Feature","geometry":{"type":"Point","coordinates":[114.881256,40.823761]},"properties":{"full_address":"河北省张家口市桥西区新华苑社区"}},{"type":"Feature","geometry":{"type":"Point","coordinates":[114.86541,40.803711]},"properties":{"full_address":"河北省张家口市桥西区西泽园社区除西泽园小区以外的区域"}},{"type":"Feature","geometry":{"type":"Point","coordinates":[115.09951,40.608726]},"properties":{"full_address":"河北省张家口市宣化区义圣宫青云美术班所在楼栋"}},{"type":"Feature","geometry":{"type":"Point","coordinates":[115.064389,40.606121]},"properties":{"full_address":"河北省张家口市宣化区万字会南路"}},{"type":"Feature","geometry":{"type":"Point","coordinates":[115.09951,40.608726]},"properties":{"full_address":"河北省张家口市宣化区宣钢设备能源部气化作业区"}},{"type":"Feature","geometry":{"type":"Point","coordinates":[115.061134,40.604462]},"properties":{"full_address":"河北省张家口市宣化区东草市街"}},{"type":"Feature","geometry":{"type":"Point","coordinates":[115.063843,40.605628]},"properties":{"full_address":"河北省张家口市宣化区东二道巷"}},{"type":"Feature","geometry":{"type":"Point","coordinates":[115.066071,40.609918]},"properties":{"full_address":"河北省张家口市宣化区武庙街"}},{"type":"Feature","geometry":{"type":"Point","coordinates":[115.063766,40.616113]},"properties":{"full_address":"河北省张家口市宣化区钟楼大街（钟楼至花巷段）"}},{"type":"Feature","geometry":{"type":"Point","coordinates":[115.09951,40.608726]},"properties":{"full_address":"河北省张家口市宣化区双盛批发大市场"}},{"type":"Feature","geometry":{"type":"Point","coordinates":[115.063774,40.61261]},"properties":{"full_address":"河北省张家口市宣化区灵官庙街精英口语培训班所在楼栋"}},{"type":"Feature","geometry":{"type":"Point","coordinates":[115.067296,40.61291]},"properties":{"full_address":"河北省张家口市宣化区天泰寺街道（牌楼西街社区、大东街社区、西城社区、按院街社区）区域"}},{"type":"Feature","geometry":{"type":"Point","coordinates":[115.054466,40.60421]},"properties":{"full_address":"河北省张家口市宣化区南大街街道（吕祖庙社区、万字会社区、西草市社区）区域"}},{"type":"Feature","geometry":{"type":"Point","coordinates":[115.096573,40.608192]},"properties":{"full_address":"河北省张家口市宣化区建国街街道（环保社区、南路社区、建北社区、建宣路社区）区域"}},{"type":"Feature","geometry":{"type":"Point","coordinates":[115.039078,40.617065]},"properties":{"full_address":"河北省张家口市宣化区皇城街道（皇城桥北社区、后府社区、大西街社区、万柳社区）区域"}},{"type":"Feature","geometry":{"type":"Point","coordinates":[115.068627,40.601218]},"properties":{"full_address":"河北省张家口市宣化区南关街道（顺城街社区、南关桥北社区）区域"}},{"type":"Feature","geometry":{"type":"Point","coordinates":[115.369682,40.676083]},"properties":{"full_address":"河北省张家口市宣化区赵川镇义合庄村"}},{"type":"Feature","geometry":{"type":"Point","coordinates":[113.986087,41.080042]},"properties":{"full_address":"河北省张家口市尚义县滨河新城住宅小区南区"}},{"type":"Feature","geometry":{"type":"Point","coordinates":[113.980144,41.075618]},"properties":{"full_address":"河北省张家口市尚义县太平南路新县医院对面华佗药房"}},{"type":"Feature","geometry":{"type":"Point","coordinates":[113.986087,41.080042]},"properties":{"full_address":"河北省张家口市尚义县滨河新城住宅小区底商万德福超市"}},{"type":"Feature","geometry":{"type":"Point","coordinates":[114.702934,40.680592]},"properties":{"full_address":"河北省张家口市怀安县左卫镇"}},{"type":"Feature","geometry":{"type":"Point","coordinates":[115.575554,40.78812]},"properties":{"full_address":"河北省张家口市赤城县龙关镇福宴楼饭店"}},{"type":"Feature","geometry":{"type":"Point","coordinates":[115.578598,40.785831]},"properties":{"full_address":"河北省张家口市赤城县龙关镇益盛缘食府"}},{"type":"Feature","geometry":{"type":"Point","coordinates":[115.578598,40.785831]},"properties":{"full_address":"河北省张家口市赤城县龙关镇商业街"}},{"type":"Feature","geometry":{"type":"Point","coordinates":[114.891304,40.772765]},"properties":{"full_address":"河北省张家口市经开区南站街道富强路社区河北北方学院东校区"}},{"type":"Feature","geometry":{"type":"Point","coordinates":[114.929788,40.690771]},"properties":{"full_address":"河北省张家口市经开区沙岭子镇屈家庄村"}},{"type":"Feature","geometry":{"type":"Point","coordinates":[115.630386,37.731007]},"properties":{"full_address":"河北省衡水市高新区奥体花园小区周边的人民路以南、前进街以西、西外环以东、滏阳路以北区域"}},{"type":"Feature","geometry":{"type":"Point","coordinates":[115.141403,38.302505]},"properties":{"full_address":"河北省定州市定州市李亲顾镇韩家庄村"}},{"type":"Feature","geometry":{"type":"Point","coordinates":[115.134521,38.300392]},"properties":{"full_address":"河北省定州市定州市李亲顾镇彭家庄村"}},{"type":"Feature","geometry":{"type":"Point","coordinates":[115.145912,38.297752]},"properties":{"full_address":"河北省定州市定州市李亲顾镇楼底村"}},{"type":"Feature","geometry":{"type":"Point","coordinates":[112.596875,37.826969]},"properties":{"full_address":"山西省太原市小店区白云小区5号楼"}},{"type":"Feature","geometry":{"type":"Point","coordinates":[112.496889,37.818352]},"properties":{"full_address":"山西省太原市晋源区琳龙苑5号楼"}},{"type":"Feature","geometry":{"type":"Point","coordinates":[112.495092,37.712788]},"properties":{"full_address":"山西省太原市晋源区翡翠山庄小区"}},{"type":"Feature","geometry":{"type":"Point","coordinates":[112.496071,37.71022]},"properties":{"full_address":"山西省太原市晋源区北河下村"}},{"type":"Feature","geometry":{"type":"Point","coordinates":[113.276489,40.054096]},"properties":{"full_address":"山西省大同市平城区都挺好火盆烧烤店"}},{"type":"Feature","geometry":{"type":"Point","coordinates":[113.140221,40.006599]},"properties":{"full_address":"山西省大同市平城区东海浴园"}},{"type":"Feature","geometry":{"type":"Point","coordinates":[113.28746,40.109283]},"properties":{"full_address":"山西省大同市平城区锦华家园小区"}},{"type":"Feature","geometry":{"type":"Point","coordinates":[113.367859,40.106453]},"properties":{"full_address":"山西省大同市平城区平城区镜湖园小区"}},{"type":"Feature","geometry":{"type":"Point","coordinates":[113.273727,40.053822]},"properties":{"full_address":"山西省大同市平城区平城区魏都新城D区"}},{"type":"Feature","geometry":{"type":"Point","coordinates":[113.293442,40.126961]},"properties":{"full_address":"山西省大同市平城区南至操场城街、东至北苑路和站东大街、西至西苑路和北环路、北面和东北面至铁路线的合围区域（不包括其中已划定的高风险区、大同火车站及站前广场）"}},{"type":"Feature","geometry":{"type":"Point","coordinates":[113.290413,40.109058]},"properties":{"full_address":"山西省大同市平城区西至魏都大道、北至安益前街、东至武定北路、南至操场城街所围区域（不包括云顶雅园、建馨园"}},{"type":"Feature","geometry":{"type":"Point","coordinates":[112.43226,39.298977]},"properties":{"full_address":"山西省朔州市朔城区清华园小区全域"}},{"type":"Feature","geometry":{"type":"Point","coordinates":[112.409103,39.312408]},"properties":{"full_address":"山西省朔州市朔城区家和苑中心社区所辖区域"}},{"type":"Feature","geometry":{"type":"Point","coordinates":[112.451563,39.306265]},"properties":{"full_address":"山西省朔州市朔城区宏兴2区"}},{"type":"Feature","geometry":{"type":"Point","coordinates":[112.413066,39.299483]},"properties":{"full_address":"山西省朔州市朔城区泥河村"}},{"type":"Feature","geometry":{"type":"Point","coordinates":[112.433968,39.3186]},"properties":{"full_address":"山西省朔州市朔城区南城街道办事处鄯阳街以南辖区"}},{"type":"Feature","geometry":{"type":"Point","coordinates":[112.43531,39.289951]},"properties":{"full_address":"山西省朔州市朔城区北旺庄街道办事处所辖南泉村"}},{"type":"Feature","geometry":{"type":"Point","coordinates":[112.428619,39.286392]},"properties":{"full_address":"山西省朔州市朔城区雒儿庄村"}},{"type":"Feature","geometry":{"type":"Point","coordinates":[112.423859,39.292473]},"properties":{"full_address":"山西省朔州市朔城区京城港中心社区"}},{"type":"Feature","geometry":{"type":"Point","coordinates":[112.413254,39.279312]},"properties":{"full_address":"山西省朔州市朔城区油房头村"}},{"type":"Feature","geometry":{"type":"Point","coordinates":[112.385384,39.287422]},"properties":{"full_address":"山西省朔州市朔城区厦阁村"}},{"type":"Feature","geometry":{"type":"Point","coordinates":[112.394722,39.287621]},"properties":{"full_address":"山西省朔州市朔城区野狐涧村"}},{"type":"Feature","geometry":{"type":"Point","coordinates":[112.400101,39.290092]},"properties":{"full_address":"山西省朔州市朔城区南磨村"}},{"type":"Feature","geometry":{"type":"Point","coordinates":[112.395729,37.315419]},"properties":{"full_address":"山西省晋中市祁县古县镇下古县村"}},{"type":"Feature","geometry":{"type":"Point","coordinates":[111.034621,35.103434]},"properties":{"full_address":"山西省运城市盐湖区学府名都小区"}},{"type":"Feature","geometry":{"type":"Point","coordinates":[110.963202,35.094384]},"properties":{"full_address":"山西省运城市盐湖区高速小区"}},{"type":"Feature","geometry":{"type":"Point","coordinates":[110.981047,35.047247]},"properties":{"full_address":"山西省运城市盐湖区北城印象小区"}},{"type":"Feature","geometry":{"type":"Point","coordinates":[110.975293,35.050836]},"properties":{"full_address":"山西省运城市盐湖区时代嘉园小区"}},{"type":"Feature","geometry":{"type":"Point","coordinates":[110.999996,35.055899]},"properties":{"full_address":"山西省运城市盐湖区幸福里·铂郡小区"}},{"type":"Feature","geometry":{"type":"Point","coordinates":[111.014596,35.056925]},"properties":{"full_address":"山西省运城市盐湖区泰森华林逸墅小区"}},{"type":"Feature","geometry":{"type":"Point","coordinates":[110.998192,35.011582]},"properties":{"full_address":"山西省运城市盐湖区盐化社区日化小区"}},{"type":"Feature","geometry":{"type":"Point","coordinates":[111.013356,35.065137]},"properties":{"full_address":"山西省运城市盐湖区港府名都小区"}},{"type":"Feature","geometry":{"type":"Point","coordinates":[111.01664,35.044284]},"properties":{"full_address":"山西省运城市盐湖区东星向上广场B座"}},{"type":"Feature","geometry":{"type":"Point","coordinates":[110.975016,35.074]},"properties":{"full_address":"山西省运城市盐湖区安得公寓"}},{"type":"Feature","geometry":{"type":"Point","coordinates":[110.984009,35.099079]},"properties":{"full_address":"山西省运城市盐湖区太原铁路公安局临汾公安处运城北车站派出所"}},{"type":"Feature","geometry":{"type":"Point","coordinates":[111.0202,35.023394]},"properties":{"full_address":"山西省运城市盐湖区金鑫金悦华府小区"}},{"type":"Feature","geometry":{"type":"Point","coordinates":[110.99817,35.01505]},"properties":{"full_address":"山西省运城市盐湖区中贸佳苑小区"}},{"type":"Feature","geometry":{"type":"Point","coordinates":[111.037498,35.098534]},"properties":{"full_address":"山西省运城市盐湖区凤鸣苑小区"}},{"type":"Feature","geometry":{"type":"Point","coordinates":[110.998839,35.013228]},"properties":{"full_address":"山西省运城市盐湖区钟楼小区"}},{"type":"Feature","geometry":{"type":"Point","coordinates":[110.989656,35.055689]},"properties":{"full_address":"山西省运城市盐湖区理想城小区"}},{"type":"Feature","geometry":{"type":"Point","coordinates":[111.026337,35.072338]},"properties":{"full_address":"山西省运城市盐湖区尚东城小区"}},{"type":"Feature","geometry":{"type":"Point","coordinates":[111.023885,35.074824]},"properties":{"full_address":"山西省运城市盐湖区恺鑫·橄榄城小区"}},{"type":"Feature","geometry":{"type":"Point","coordinates":[110.996986,35.016998]},"properties":{"full_address":"山西省运城市盐湖区建国饭店"}},{"type":"Feature","geometry":{"type":"Point","coordinates":[111.001037,35.030251]},"properties":{"full_address":"山西省运城市盐湖区测绘队家属院2号楼"}},{"type":"Feature","geometry":{"type":"Point","coordinates":[111.008804,35.058723]},"properties":{"full_address":"山西省运城市盐湖区留驾庄村"}},{"type":"Feature","geometry":{"type":"Point","coordinates":[111.0307,35.07981]},"properties":{"full_address":"山西省运城市盐湖区大市北村"}},{"type":"Feature","geometry":{"type":"Point","coordinates":[110.953343,34.985025]},"properties":{"full_address":"山西省运城市盐湖区下堡头村"}},{"type":"Feature","geometry":{"type":"Point","coordinates":[110.992729,34.946369]},"properties":{"full_address":"山西省运城市盐湖区银张村"}},{"type":"Feature","geometry":{"type":"Point","coordinates":[111.011497,35.096851]},"properties":{"full_address":"山西省运城市盐湖区下王村"}},{"type":"Feature","geometry":{"type":"Point","coordinates":[110.998272,35.015101]},"properties":{"full_address":"山西省运城市盐湖区新南村"}},{"type":"Feature","geometry":{"type":"Point","coordinates":[110.912842,35.075451]},"properties":{"full_address":"山西省运城市盐湖区南孙坞村"}},{"type":"Feature","geometry":{"type":"Point","coordinates":[111.036659,35.081371]},"properties":{"full_address":"山西省运城市盐湖区山西飞耀汽修有限公司"}},{"type":"Feature","geometry":{"type":"Point","coordinates":[110.99817,35.01505]},"properties":{"full_address":"山西省运城市盐湖区山西利业管材有限公司"}},{"type":"Feature","geometry":{"type":"Point","coordinates":[110.944595,35.118492]},"properties":{"full_address":"山西省运城市盐湖区舜德佳园小区除大D区24号楼外其余区域"}},{"type":"Feature","geometry":{"type":"Point","coordinates":[111.015106,35.089039]},"properties":{"full_address":"山西省运城市盐湖区大禹街鼎鼎项目工地"}},{"type":"Feature","geometry":{"type":"Point","coordinates":[110.9991,35.03907]},"properties":{"full_address":"山西省运城市盐湖区北海雅苑小区除1号楼外其余区域"}},{"type":"Feature","geometry":{"type":"Point","coordinates":[110.99817,35.01505]},"properties":{"full_address":"山西省运城市盐湖区中铁三局黄河金三角(运城)创新生态集聚区科创城项目"}},{"type":"Feature","geometry":{"type":"Point","coordinates":[110.972931,35.042213]},"properties":{"full_address":"山西省运城市盐湖区北城办事处东留村水立方小区"}},{"type":"Feature","geometry":{"type":"Point","coordinates":[111.03878,35.06509]},"properties":{"full_address":"山西省运城市盐湖区安邑办事处西里庄村"}},{"type":"Feature","geometry":{"type":"Point","coordinates":[111.057571,35.09288]},"properties":{"full_address":"山西省运城市盐湖区尚上府邸小区除1号楼外其余区域"}},{"type":"Feature","geometry":{"type":"Point","coordinates":[110.988045,34.999886]},"properties":{"full_address":"山西省运城市盐湖区圣惠嘉园小区除40号楼外其余区域"}},{"type":"Feature","geometry":{"type":"Point","coordinates":[111.021927,35.039188]},"properties":{"full_address":"山西省运城市盐湖区香榭丽舍小区除7号楼外其余区域"}},{"type":"Feature","geometry":{"type":"Point","coordinates":[111.013824,35.045315]},"properties":{"full_address":"山西省运城市盐湖区禹香苑小区除31号楼外其余区域"}},{"type":"Feature","geometry":{"type":"Point","coordinates":[110.970589,35.04026]},"properties":{"full_address":"山西省运城市盐湖区龙凤苑小区除2号楼外其余区域"}},{"type":"Feature","geometry":{"type":"Point","coordinates":[111.017563,35.030361]},"properties":{"full_address":"山西省运城市盐湖区市委党校除宿舍2、5号楼外其余区域"}},{"type":"Feature","geometry":{"type":"Point","coordinates":[111.003052,35.065792]},"properties":{"full_address":"山西省运城市盐湖区华源豪庭北区除17号楼外其余区域"}},{"type":"Feature","geometry":{"type":"Point","coordinates":[110.986893,35.019634]},"properties":{"full_address":"山西省运城市盐湖区市五交化家属院除1号楼外其余区域"}},{"type":"Feature","geometry":{"type":"Point","coordinates":[110.985939,35.01157]},"properties":{"full_address":"山西省运城市盐湖区华都佳苑小区除2号楼外其余区域"}},{"type":"Feature","geometry":{"type":"Point","coordinates":[111.018547,35.083611]},"properties":{"full_address":"山西省运城市盐湖区豪德市场"}},{"type":"Feature","geometry":{"type":"Point","coordinates":[110.97406,34.999992]},"properties":{"full_address":"山西省运城市盐湖区西城办杜家村"}},{"type":"Feature","geometry":{"type":"Point","coordinates":[110.910583,35.222763]},"properties":{"full_address":"山西省运城市盐湖区上郭乡中陈村中西巷之外区域"}},{"type":"Feature","geometry":{"type":"Point","coordinates":[111.016724,35.058319]},"properties":{"full_address":"山西省运城市盐湖区沁水雅居小区5号楼之外区域"}},{"type":"Feature","geometry":{"type":"Point","coordinates":[110.99317,35.04338]},"properties":{"full_address":"山西省运城市盐湖区海天花苑小区2号楼之外区域"}},{"type":"Feature","geometry":{"type":"Point","coordinates":[111.023872,35.025719]},"properties":{"full_address":"山西省运城市盐湖区宏运佳园小区1、2、3号楼之外区域"}},{"type":"Feature","geometry":{"type":"Point","coordinates":[110.935783,35.1432]},"properties":{"full_address":"山西省运城市盐湖区北相镇北相村"}},{"type":"Feature","geometry":{"type":"Point","coordinates":[111.03878,35.06509]},"properties":{"full_address":"山西省运城市盐湖区安邑办事处东杨家卓村"}},{"type":"Feature","geometry":{"type":"Point","coordinates":[111.0631,35.10396]},"properties":{"full_address":"山西省运城市盐湖区哈佛家园小区"}},{"type":"Feature","geometry":{"type":"Point","coordinates":[111.03878,35.06509]},"properties":{"full_address":"山西省运城市盐湖区安邑办事处冯家卓村"}},{"type":"Feature","geometry":{"type":"Point","coordinates":[110.995018,35.085281]},"properties":{"full_address":"山西省运城市盐湖区鑫世纪花园小区"}},{"type":"Feature","geometry":{"type":"Point","coordinates":[110.9604,35.04844]},"properties":{"full_address":"山西省运城市盐湖区华源小区"}},{"type":"Feature","geometry":{"type":"Point","coordinates":[110.9898,35.05265]},"properties":{"full_address":"山西省运城市盐湖区怡景华庭(条山街)"}},{"type":"Feature","geometry":{"type":"Point","coordinates":[110.99817,35.01505]},"properties":{"full_address":"山西省运城市盐湖区大学苑小区"}},{"type":"Feature","geometry":{"type":"Point","coordinates":[110.977386,35.069801]},"properties":{"full_address":"山西省运城市盐湖区花园新居小区"}},{"type":"Feature","geometry":{"type":"Point","coordinates":[110.971298,35.074291]},"properties":{"full_address":"山西省运城市盐湖区姚孟办事处樊村"}},{"type":"Feature","geometry":{"type":"Point","coordinates":[110.912384,35.000183]},"properties":{"full_address":"山西省运城市盐湖区龙居镇羊村"}},{"type":"Feature","geometry":{"type":"Point","coordinates":[110.982323,35.033409]},"properties":{"full_address":"山西省运城市盐湖区运输公司家属院"}},{"type":"Feature","geometry":{"type":"Point","coordinates":[110.9969,35.03959]},"properties":{"full_address":"山西省运城市盐湖区尚德小区"}},{"type":"Feature","geometry":{"type":"Point","coordinates":[110.998131,35.008381]},"properties":{"full_address":"山西省运城市盐湖区泰山巷西5巷"}},{"type":"Feature","geometry":{"type":"Point","coordinates":[111.0646,35.10997]},"properties":{"full_address":"山西省运城市盐湖区幸福小镇小区A区7号楼"}},{"type":"Feature","geometry":{"type":"Point","coordinates":[111.024,35.0871]},"properties":{"full_address":"山西省运城市盐湖区安邑办事处军屯村一组除外其余区域"}},{"type":"Feature","geometry":{"type":"Point","coordinates":[110.99817,35.01505]},"properties":{"full_address":"山西省运城市盐湖区北城办事处状元府小区6号楼除外其余区域"}},{"type":"Feature","geometry":{"type":"Point","coordinates":[110.964844,35.027912]},"properties":{"full_address":"山西省运城市盐湖区北城办事处新丰花园15号楼除外其余区域"}},{"type":"Feature","geometry":{"type":"Point","coordinates":[111.020287,35.034218]},"properties":{"full_address":"山西省运城市盐湖区东城办事处槐东花园18号楼除外其余区域"}},{"type":"Feature","geometry":{"type":"Point","coordinates":[111.029823,35.091228]},"properties":{"full_address":"山西省运城市盐湖区安邑办事处东站嘉园10号楼除外其余区域"}},{"type":"Feature","geometry":{"type":"Point","coordinates":[110.994164,35.02364]},"properties":{"full_address":"山西省运城市盐湖区中城办事处八一市场除二巷之外其余区域"}},{"type":"Feature","geometry":{"type":"Point","coordinates":[110.846302,35.421102]},"properties":{"full_address":"山西省运城市万荣县香江广场好又多超市"}},{"type":"Feature","geometry":{"type":"Point","coordinates":[110.838024,35.415254]},"properties":{"full_address":"山西省运城市万荣县医华小区"}},{"type":"Feature","geometry":{"type":"Point","coordinates":[110.838024,35.415254]},"properties":{"full_address":"山西省运城市万荣县香江公寓整栋楼"}},{"type":"Feature","geometry":{"type":"Point","coordinates":[110.832538,35.420272]},"properties":{"full_address":"山西省运城市万荣县解店镇新城村"}},{"type":"Feature","geometry":{"type":"Point","coordinates":[110.828565,35.40569]},"properties":{"full_address":"山西省运城市万荣县解店镇西解村"}},{"type":"Feature","geometry":{"type":"Point","coordinates":[110.598167,35.400913]},"properties":{"full_address":"山西省运城市万荣县光华乡西光华村"}},{"type":"Feature","geometry":{"type":"Point","coordinates":[110.851112,35.423717]},"properties":{"full_address":"山西省运城市万荣县龙润庭小区除1号楼外其他区域"}},{"type":"Feature","geometry":{"type":"Point","coordinates":[110.846527,35.420029]},"properties":{"full_address":"山西省运城市万荣县8090快捷酒店"}},{"type":"Feature","geometry":{"type":"Point","coordinates":[110.852005,35.415062]},"properties":{"full_address":"山西省运城市万荣县佳馨公寓"}},{"type":"Feature","geometry":{"type":"Point","coordinates":[110.820747,35.408123]},"properties":{"full_address":"山西省运城市万荣县解店镇芦邑村"}},{"type":"Feature","geometry":{"type":"Point","coordinates":[110.843628,35.41811]},"properties":{"full_address":"山西省运城市万荣县锦绣华庭小区除6号楼、10号楼外其他区域"}},{"type":"Feature","geometry":{"type":"Point","coordinates":[110.848385,35.400452]},"properties":{"full_address":"山西省运城市万荣县恒泰花苑小区"}},{"type":"Feature","geometry":{"type":"Point","coordinates":[110.846495,35.419044]},"properties":{"full_address":"山西省运城市万荣县宝鼎新城小区"}},{"type":"Feature","geometry":{"type":"Point","coordinates":[110.829071,35.421425]},"properties":{"full_address":"山西省运城市万荣县飞云小区"}},{"type":"Feature","geometry":{"type":"Point","coordinates":[111.22031,35.14136]},"properties":{"full_address":"山西省运城市夏县苏解村"}},{"type":"Feature","geometry":{"type":"Point","coordinates":[111.200661,35.152943]},"properties":{"full_address":"山西省运城市夏县中留西庄自然村"}},{"type":"Feature","geometry":{"type":"Point","coordinates":[111.13092,35.111866]},"properties":{"full_address":"山西省运城市夏县裴介镇老梁超市"}},{"type":"Feature","geometry":{"type":"Point","coordinates":[110.700851,34.707226]},"properties":{"full_address":"山西省运城市芮城县金茂首府小区2号楼2单元"}},{"type":"Feature","geometry":{"type":"Point","coordinates":[110.511513,34.616344]},"properties":{"full_address":"山西省运城市芮城县永乐镇新村行政村下辖的新村自然村北一东巷"}},{"type":"Feature","geometry":{"type":"Point","coordinates":[110.697487,34.696201]},"properties":{"full_address":"山西省运城市芮城县古魏镇北关村向阳东巷9号"}},{"type":"Feature","geometry":{"type":"Point","coordinates":[111.079982,39.021587]},"properties":{"full_address":"山西省忻州市保德县保德县东关镇前湾社区林涛大道由西向东从安康北巷至工商北巷（140号—185号）沿街楼栋"}},{"type":"Feature","geometry":{"type":"Point","coordinates":[111.088959,39.023301]},"properties":{"full_address":"山西省忻州市保德县保德县东关镇康乐社区府前大街以北，陈家塔商住楼和后沟商住楼以南，汽车站及以西区域，神华中学以东区域"}},{"type":"Feature","geometry":{"type":"Point","coordinates":[111.069816,39.020767]},"properties":{"full_address":"山西省忻州市保德县保德县东关镇马家滩村马家滩农贸市场区域"}},{"type":"Feature","geometry":{"type":"Point","coordinates":[110.628311,36.744743]},"properties":{"full_address":"山西省临汾市永和县芝河镇药家湾村河那边（东至刘五叶住宅（含）；南至段野林住宅（含）；西至河东路（含）；北至刘海泉住宅（含）。）"}},{"type":"Feature","geometry":{"type":"Point","coordinates":[111.902893,37.14687]},"properties":{"full_address":"山西省吕梁市孝义市大孝堡镇南小堡村"}},{"type":"Feature","geometry":{"type":"Point","coordinates":[111.911102,37.14246]},"properties":{"full_address":"山西省吕梁市孝义市南船头村"}},{"type":"Feature","geometry":{"type":"Point","coordinates":[111.90197,37.133781]},"properties":{"full_address":"山西省吕梁市孝义市大堡村"}},{"type":"Feature","geometry":{"type":"Point","coordinates":[111.70113,40.844453]},"properties":{"full_address":"内蒙古自治区呼和浩特市新城区丽苑阳光城小区"}},{"type":"Feature","geometry":{"type":"Point","coordinates":[111.942808,40.912936]},"properties":{"full_address":"内蒙古自治区呼和浩特市新城区保合少镇移民村"}},{"type":"Feature","geometry":{"type":"Point","coordinates":[111.748462,40.856862]},"properties":{"full_address":"内蒙古自治区呼和浩特市新城区南店滨水新村小区"}},{"type":"Feature","geometry":{"type":"Point","coordinates":[111.661205,40.844571]},"properties":{"full_address":"内蒙古自治区呼和浩特市新城区供电局住宅楼"}},{"type":"Feature","geometry":{"type":"Point","coordinates":[111.84718,40.9852]},"properties":{"full_address":"内蒙古自治区呼和浩特市新城区小井沟素质教育基地"}},{"type":"Feature","geometry":{"type":"Point","coordinates":[111.749345,40.861456]},"properties":{"full_address":"内蒙古自治区呼和浩特市新城区衡达丁香河畔"}},{"type":"Feature","geometry":{"type":"Point","coordinates":[111.837072,40.931535]},"properties":{"full_address":"内蒙古自治区呼和浩特市新城区古路板南村"}},{"type":"Feature","geometry":{"type":"Point","coordinates":[111.666354,40.843616]},"properties":{"full_address":"内蒙古自治区呼和浩特市新城区华新小区"}},{"type":"Feature","geometry":{"type":"Point","coordinates":[111.692234,40.856735]},"properties":{"full_address":"内蒙古自治区呼和浩特市新城区5303小区"}},{"type":"Feature","geometry":{"type":"Point","coordinates":[111.70119,40.860199]},"properties":{"full_address":"内蒙古自治区呼和浩特市新城区圣廷小区"}},{"type":"Feature","geometry":{"type":"Point","coordinates":[111.691399,40.842815]},"properties":{"full_address":"内蒙古自治区呼和浩特市新城区公路工程处家属院"}},{"type":"Feature","geometry":{"type":"Point","coordinates":[111.685929,40.830762]},"properties":{"full_address":"内蒙古自治区呼和浩特市新城区煤气小区"}},{"type":"Feature","geometry":{"type":"Point","coordinates":[111.69806,40.837317]},"properties":{"full_address":"内蒙古自治区呼和浩特市新城区鼎盛华世纪广场公寓楼"}},{"type":"Feature","geometry":{"type":"Point","coordinates":[111.742095,40.867685]},"properties":{"full_address":"内蒙古自治区呼和浩特市新城区舜和慢城"}},{"type":"Feature","geometry":{"type":"Point","coordinates":[111.740825,40.877757]},"properties":{"full_address":"内蒙古自治区呼和浩特市新城区华润置地幸福里2号楼"}},{"type":"Feature","geometry":{"type":"Point","coordinates":[111.677702,40.839498]},"properties":{"full_address":"内蒙古自治区呼和浩特市新城区凤凰新城小区(除12号楼)"}},{"type":"Feature","geometry":{"type":"Point","coordinates":[111.653183,40.848202]},"properties":{"full_address":"内蒙古自治区呼和浩特市新城区天府花园(除22号楼)"}},{"type":"Feature","geometry":{"type":"Point","coordinates":[111.717595,40.836826]},"properties":{"full_address":"内蒙古自治区呼和浩特市新城区预制厂小区（除5号楼）"}},{"type":"Feature","geometry":{"type":"Point","coordinates":[111.65358,40.829342]},"properties":{"full_address":"内蒙古自治区呼和浩特市新城区石油小区（除1号楼）"}},{"type":"Feature","geometry":{"type":"Point","coordinates":[111.659561,40.832821]},"properties":{"full_address":"内蒙古自治区呼和浩特市新城区道北5小区（除工程5号楼）"}},{"type":"Feature","geometry":{"type":"Point","coordinates":[111.651294,40.85633]},"properties":{"full_address":"内蒙古自治区呼和浩特市新城区维多利橄榄城（除6号楼、11号楼）"}},{"type":"Feature","geometry":{"type":"Point","coordinates":[111.679985,40.872517]},"properties":{"full_address":"内蒙古自治区呼和浩特市新城区团校巷宿舍楼（除2号楼）"}},{"type":"Feature","geometry":{"type":"Point","coordinates":[111.698868,40.832932]},"properties":{"full_address":"内蒙古自治区呼和浩特市新城区城建小区（除16号楼）"}},{"type":"Feature","geometry":{"type":"Point","coordinates":[111.676659,40.825119]},"properties":{"full_address":"内蒙古自治区呼和浩特市新城区财院西小区（西院）（除2号楼）"}},{"type":"Feature","geometry":{"type":"Point","coordinates":[111.719063,40.836548]},"properties":{"full_address":"内蒙古自治区呼和浩特市新城区电建二公司家属楼"}},{"type":"Feature","geometry":{"type":"Point","coordinates":[111.686104,40.824791]},"properties":{"full_address":"内蒙古自治区呼和浩特市新城区公安厅小区统建楼（除2号楼、3号楼）"}},{"type":"Feature","geometry":{"type":"Point","coordinates":[111.685188,40.830677]},"properties":{"full_address":"内蒙古自治区呼和浩特市新城区曙光街电子研究所家属楼（除2号楼）"}},{"type":"Feature","geometry":{"type":"Point","coordinates":[111.667305,40.854332]},"properties":{"full_address":"内蒙古自治区呼和浩特市新城区琦琳北辰小区（除1号楼）"}},{"type":"Feature","geometry":{"type":"Point","coordinates":[111.683693,40.853432]},"properties":{"full_address":"内蒙古自治区呼和浩特市新城区公园世家小区（除3号楼）"}},{"type":"Feature","geometry":{"type":"Point","coordinates":[111.649048,40.850849]},"properties":{"full_address":"内蒙古自治区呼和浩特市新城区公主花园小区（除13号楼）"}},{"type":"Feature","geometry":{"type":"Point","coordinates":[111.71553,40.837791]},"properties":{"full_address":"内蒙古自治区呼和浩特市新城区芳汀花园（除8号楼）"}},{"type":"Feature","geometry":{"type":"Point","coordinates":[111.675018,40.841503]},"properties":{"full_address":"内蒙古自治区呼和浩特市新城区八一小区（除44号楼）"}},{"type":"Feature","geometry":{"type":"Point","coordinates":[111.709244,40.834064]},"properties":{"full_address":"内蒙古自治区呼和浩特市新城区金都园B座（除2号楼）"}},{"type":"Feature","geometry":{"type":"Point","coordinates":[111.656608,40.815228]},"properties":{"full_address":"内蒙古自治区呼和浩特市回民区三顺店西巷祥和四区"}},{"type":"Feature","geometry":{"type":"Point","coordinates":[111.658964,40.816931]},"properties":{"full_address":"内蒙古自治区呼和浩特市回民区三顺店西巷电影公司家属楼南楼"}},{"type":"Feature","geometry":{"type":"Point","coordinates":[111.659582,40.822896]},"properties":{"full_address":"内蒙古自治区呼和浩特市回民区医学院住宅小区"}},{"type":"Feature","geometry":{"type":"Point","coordinates":[111.635338,40.815807]},"properties":{"full_address":"内蒙古自治区呼和浩特市回民区工行家属院"}},{"type":"Feature","geometry":{"type":"Point","coordinates":[111.671733,40.858129]},"properties":{"full_address":"内蒙古自治区呼和浩特市回民区新华桥铁路小区"}},{"type":"Feature","geometry":{"type":"Point","coordinates":[111.5922,40.791621]},"properties":{"full_address":"内蒙古自治区呼和浩特市回民区西华庭"}},{"type":"Feature","geometry":{"type":"Point","coordinates":[111.651428,40.82917]},"properties":{"full_address":"内蒙古自治区呼和浩特市回民区动力小区"}},{"type":"Feature","geometry":{"type":"Point","coordinates":[111.603177,40.835517]},"properties":{"full_address":"内蒙古自治区呼和浩特市回民区慧谷兰庭"}},{"type":"Feature","geometry":{"type":"Point","coordinates":[111.656133,40.823893]},"properties":{"full_address":"内蒙古自治区呼和浩特市回民区华建小区"}},{"type":"Feature","geometry":{"type":"Point","coordinates":[111.641289,40.8456]},"properties":{"full_address":"内蒙古自治区呼和浩特市回民区塔布板村(除塔布板住宅小区)"}},{"type":"Feature","geometry":{"type":"Point","coordinates":[111.625707,40.802867]},"properties":{"full_address":"内蒙古自治区呼和浩特市回民区锦泽园小区(除11号楼)"}},{"type":"Feature","geometry":{"type":"Point","coordinates":[111.605333,40.825209]},"properties":{"full_address":"内蒙古自治区呼和浩特市回民区明珠丽景西区(除5号楼)"}},{"type":"Feature","geometry":{"type":"Point","coordinates":[111.644272,40.838249]},"properties":{"full_address":"内蒙古自治区呼和浩特市回民区昌盛家园(除3号楼)"}},{"type":"Feature","geometry":{"type":"Point","coordinates":[111.639519,40.849014]},"properties":{"full_address":"内蒙古自治区呼和浩特市回民区广龙苑小区（除17号楼）"}},{"type":"Feature","geometry":{"type":"Point","coordinates":[111.602558,40.840202]},"properties":{"full_address":"内蒙古自治区呼和浩特市回民区大天森林小区（除13号楼）"}},{"type":"Feature","geometry":{"type":"Point","coordinates":[111.60713,40.84041]},"properties":{"full_address":"内蒙古自治区呼和浩特市回民区新西蓝小区北区（除6号楼）"}},{"type":"Feature","geometry":{"type":"Point","coordinates":[111.616264,40.809315]},"properties":{"full_address":"内蒙古自治区呼和浩特市回民区光明城小区（除3号楼）"}},{"type":"Feature","geometry":{"type":"Point","coordinates":[111.586913,40.831283]},"properties":{"full_address":"内蒙古自治区呼和浩特市回民区东乌素图旧村（除前营子、二道营）"}},{"type":"Feature","geometry":{"type":"Point","coordinates":[111.640892,40.837563]},"properties":{"full_address":"内蒙古自治区呼和浩特市回民区阀门厂小区（除3号楼）"}},{"type":"Feature","geometry":{"type":"Point","coordinates":[111.647644,40.848766]},"properties":{"full_address":"内蒙古自治区呼和浩特市回民区呼运花园（除2号楼）"}},{"type":"Feature","geometry":{"type":"Point","coordinates":[111.637794,40.806313]},"properties":{"full_address":"内蒙古自治区呼和浩特市回民区桃源水榭南区（除3号楼）"}},{"type":"Feature","geometry":{"type":"Point","coordinates":[111.670502,40.8125]},"properties":{"full_address":"内蒙古自治区呼和浩特市回民区海亮名门（除11号楼）"}},{"type":"Feature","geometry":{"type":"Point","coordinates":[111.618004,40.793457]},"properties":{"full_address":"内蒙古自治区呼和浩特市回民区金苑小区（除2号楼）"}},{"type":"Feature","geometry":{"type":"Point","coordinates":[111.636375,40.814335]},"properties":{"full_address":"内蒙古自治区呼和浩特市回民区家和小区（除4号楼）"}},{"type":"Feature","geometry":{"type":"Point","coordinates":[111.649986,40.841221]},"properties":{"full_address":"内蒙古自治区呼和浩特市回民区机电学院宿舍（除3号楼）"}},{"type":"Feature","geometry":{"type":"Point","coordinates":[111.584641,40.835499]},"properties":{"full_address":"内蒙古自治区呼和浩特市回民区塞外安康新居（除10号楼)"}},{"type":"Feature","geometry":{"type":"Point","coordinates":[111.615601,40.802391]},"properties":{"full_address":"内蒙古自治区呼和浩特市回民区阙里人家C区（除5号楼）"}},{"type":"Feature","geometry":{"type":"Point","coordinates":[111.587036,40.827038]},"properties":{"full_address":"内蒙古自治区呼和浩特市回民区中铁诺德龙湾四地块（除2号楼）"}},{"type":"Feature","geometry":{"type":"Point","coordinates":[111.638092,40.796658]},"properties":{"full_address":"内蒙古自治区呼和浩特市回民区水润嘉苑（除30号楼）"}},{"type":"Feature","geometry":{"type":"Point","coordinates":[111.650284,40.821022]},"properties":{"full_address":"内蒙古自治区呼和浩特市回民区浩鑫丽景苑小区（除2号楼）"}},{"type":"Feature","geometry":{"type":"Point","coordinates":[111.634903,40.8134]},"properties":{"full_address":"内蒙古自治区呼和浩特市回民区呼钢小区(除12号楼）"}},{"type":"Feature","geometry":{"type":"Point","coordinates":[111.640999,40.817841]},"properties":{"full_address":"内蒙古自治区呼和浩特市回民区金园社区铁路小区（除1号楼、8号楼、9号楼）"}},{"type":"Feature","geometry":{"type":"Point","coordinates":[111.676727,40.800129]},"properties":{"full_address":"内蒙古自治区呼和浩特市回民区电厂宿舍楼（除14号楼）"}},{"type":"Feature","geometry":{"type":"Point","coordinates":[111.636181,40.777323]},"properties":{"full_address":"内蒙古自治区呼和浩特市玉泉区怡景萃华林"}},{"type":"Feature","geometry":{"type":"Point","coordinates":[111.675025,40.761746]},"properties":{"full_address":"内蒙古自治区呼和浩特市玉泉区香榭澜湾"}},{"type":"Feature","geometry":{"type":"Point","coordinates":[111.646552,40.793089]},"properties":{"full_address":"内蒙古自治区呼和浩特市玉泉区云中小区"}},{"type":"Feature","geometry":{"type":"Point","coordinates":[111.672636,40.789044]},"properties":{"full_address":"内蒙古自治区呼和浩特市玉泉区石羊桥路名品建筑"}},{"type":"Feature","geometry":{"type":"Point","coordinates":[111.68587,40.78469]},"properties":{"full_address":"内蒙古自治区呼和浩特市玉泉区石东路丰瑞公园1号B区"}},{"type":"Feature","geometry":{"type":"Point","coordinates":[111.683663,40.813871]},"properties":{"full_address":"内蒙古自治区呼和浩特市玉泉区纪检委小区"}},{"type":"Feature","geometry":{"type":"Point","coordinates":[111.678251,40.766285]},"properties":{"full_address":"内蒙古自治区呼和浩特市玉泉区万锦香韵"}},{"type":"Feature","geometry":{"type":"Point","coordinates":[111.628441,40.792377]},"properties":{"full_address":"内蒙古自治区呼和浩特市玉泉区兴隆小区"}},{"type":"Feature","geometry":{"type":"Point","coordinates":[111.663303,40.804753]},"properties":{"full_address":"内蒙古自治区呼和浩特市玉泉区嘉豪广场"}},{"type":"Feature","geometry":{"type":"Point","coordinates":[111.68215,40.746887]},"properties":{"full_address":"内蒙古自治区呼和浩特市玉泉区昕雅名苑"}},{"type":"Feature","geometry":{"type":"Point","coordinates":[111.653415,40.792762]},"properties":{"full_address":"内蒙古自治区呼和浩特市玉泉区联通小区"}},{"type":"Feature","geometry":{"type":"Point","coordinates":[111.671569,40.751346]},"properties":{"full_address":"内蒙古自治区呼和浩特市玉泉区上国佳苑"}},{"type":"Feature","geometry":{"type":"Point","coordinates":[111.65969,40.800821]},"properties":{"full_address":"内蒙古自治区呼和浩特市玉泉区小召前街街道规划楼"}},{"type":"Feature","geometry":{"type":"Point","coordinates":[111.663575,40.784104]},"properties":{"full_address":"内蒙古自治区呼和浩特市玉泉区草库巷呼市木器厂宿舍"}},{"type":"Feature","geometry":{"type":"Point","coordinates":[111.637619,40.789043]},"properties":{"full_address":"内蒙古自治区呼和浩特市玉泉区西苑家园"}},{"type":"Feature","geometry":{"type":"Point","coordinates":[111.67041,40.81567]},"properties":{"full_address":"内蒙古自治区呼和浩特市玉泉区阿木南营"}},{"type":"Feature","geometry":{"type":"Point","coordinates":[111.653415,40.792762]},"properties":{"full_address":"内蒙古自治区呼和浩特市玉泉区昭君路联通小区旁中国联通呼和浩特分公司运维技能培训实操基地(地球站工地)"}},{"type":"Feature","geometry":{"type":"Point","coordinates":[111.674294,40.782539]},"properties":{"full_address":"内蒙古自治区呼和浩特市玉泉区绿波小区"}},{"type":"Feature","geometry":{"type":"Point","coordinates":[111.626128,40.793782]},"properties":{"full_address":"内蒙古自治区呼和浩特市玉泉区新苑家园"}},{"type":"Feature","geometry":{"type":"Point","coordinates":[111.648682,40.802569]},"properties":{"full_address":"内蒙古自治区呼和浩特市玉泉区汇豪天下"}},{"type":"Feature","geometry":{"type":"Point","coordinates":[111.676972,40.787266]},"properties":{"full_address":"内蒙古自治区呼和浩特市玉泉区富丽城B区4号楼"}},{"type":"Feature","geometry":{"type":"Point","coordinates":[111.688972,40.776634]},"properties":{"full_address":"内蒙古自治区呼和浩特市玉泉区秋实璟峯汇(除3号楼，A座、B座)"}},{"type":"Feature","geometry":{"type":"Point","coordinates":[111.665435,40.798913]},"properties":{"full_address":"内蒙古自治区呼和浩特市玉泉区五里营东小区"}},{"type":"Feature","geometry":{"type":"Point","coordinates":[111.640121,40.793163]},"properties":{"full_address":"内蒙古自治区呼和浩特市玉泉区西苑北小区(除3号楼)"}},{"type":"Feature","geometry":{"type":"Point","coordinates":[111.673881,40.753655]},"properties":{"full_address":"内蒙古自治区呼和浩特市玉泉区福缘名居(除5号楼)"}},{"type":"Feature","geometry":{"type":"Point","coordinates":[111.696851,40.733399]},"properties":{"full_address":"内蒙古自治区呼和浩特市玉泉区天颐尚居(除B1号楼)"}},{"type":"Feature","geometry":{"type":"Point","coordinates":[111.678345,40.779458]},"properties":{"full_address":"内蒙古自治区呼和浩特市玉泉区闻都世界城(除18A)"}},{"type":"Feature","geometry":{"type":"Point","coordinates":[111.67543,40.75319]},"properties":{"full_address":"内蒙古自治区呼和浩特市玉泉区恒奥世纪华府（除5号楼）"}},{"type":"Feature","geometry":{"type":"Point","coordinates":[111.676706,40.779523]},"properties":{"full_address":"内蒙古自治区呼和浩特市玉泉区华隆小区（除13号楼）"}},{"type":"Feature","geometry":{"type":"Point","coordinates":[111.658684,40.800179]},"properties":{"full_address":"内蒙古自治区呼和浩特市玉泉区小召前街兴盛苑小区（除8号楼）"}},{"type":"Feature","geometry":{"type":"Point","coordinates":[111.67543,40.75319]},"properties":{"full_address":"内蒙古自治区呼和浩特市玉泉区恒奥凤凰城（除5号楼）"}},{"type":"Feature","geometry":{"type":"Point","coordinates":[111.660698,40.797138]},"properties":{"full_address":"内蒙古自治区呼和浩特市玉泉区金角苑小区（除1号楼、2号楼）"}},{"type":"Feature","geometry":{"type":"Point","coordinates":[111.657051,40.79092]},"properties":{"full_address":"内蒙古自治区呼和浩特市玉泉区永兴达小区（除1号楼）"}},{"type":"Feature","geometry":{"type":"Point","coordinates":[111.675133,40.798061]},"properties":{"full_address":"内蒙古自治区呼和浩特市玉泉区烟厂苁蓉小区（除8号楼、19号楼、22号楼）"}},{"type":"Feature","geometry":{"type":"Point","coordinates":[111.668747,40.78688]},"properties":{"full_address":"内蒙古自治区呼和浩特市玉泉区俪城小区A（除7号楼）"}},{"type":"Feature","geometry":{"type":"Point","coordinates":[111.684807,40.773041]},"properties":{"full_address":"内蒙古自治区呼和浩特市玉泉区万锦枫泽湾（除1号楼）"}},{"type":"Feature","geometry":{"type":"Point","coordinates":[111.672577,40.765129]},"properties":{"full_address":"内蒙古自治区呼和浩特市玉泉区蓝色港湾（除3号楼）"}},{"type":"Feature","geometry":{"type":"Point","coordinates":[111.668159,40.799995]},"properties":{"full_address":"内蒙古自治区呼和浩特市玉泉区养鱼池东巷小白楼"}},{"type":"Feature","geometry":{"type":"Point","coordinates":[111.61512,40.776306]},"properties":{"full_address":"内蒙古自治区呼和浩特市玉泉区玉泉人家4号楼"}},{"type":"Feature","geometry":{"type":"Point","coordinates":[111.66655,40.794689]},"properties":{"full_address":"内蒙古自治区呼和浩特市玉泉区大正小区1号楼"}},{"type":"Feature","geometry":{"type":"Point","coordinates":[111.680046,40.788589]},"properties":{"full_address":"内蒙古自治区呼和浩特市玉泉区颐和景园2号楼"}},{"type":"Feature","geometry":{"type":"Point","coordinates":[111.671211,40.799541]},"properties":{"full_address":"内蒙古自治区呼和浩特市玉泉区五塔花园5号楼"}},{"type":"Feature","geometry":{"type":"Point","coordinates":[111.647789,40.795269]},"properties":{"full_address":"内蒙古自治区呼和浩特市玉泉区印象江南东门（除5号院）"}},{"type":"Feature","geometry":{"type":"Point","coordinates":[111.661713,40.803944]},"properties":{"full_address":"内蒙古自治区呼和浩特市玉泉区新华小区（除1号楼）"}},{"type":"Feature","geometry":{"type":"Point","coordinates":[111.638603,40.778156]},"properties":{"full_address":"内蒙古自治区呼和浩特市玉泉区天骄熙岸（除8号楼）"}},{"type":"Feature","geometry":{"type":"Point","coordinates":[111.685432,40.748158]},"properties":{"full_address":"内蒙古自治区呼和浩特市玉泉区鼎盛国际（除B8号楼、G2号楼、G1号楼）"}},{"type":"Feature","geometry":{"type":"Point","coordinates":[111.664597,40.795082]},"properties":{"full_address":"内蒙古自治区呼和浩特市玉泉区御景苑北区（除1号楼）"}},{"type":"Feature","geometry":{"type":"Point","coordinates":[111.670189,40.782181]},"properties":{"full_address":"内蒙古自治区呼和浩特市玉泉区万象天地小区（除4号楼）"}},{"type":"Feature","geometry":{"type":"Point","coordinates":[111.665756,40.792309]},"properties":{"full_address":"内蒙古自治区呼和浩特市玉泉区二建小区（除2号楼）"}},{"type":"Feature","geometry":{"type":"Point","coordinates":[111.714264,40.826572]},"properties":{"full_address":"内蒙古自治区呼和浩特市赛罕区亚信小区"}},{"type":"Feature","geometry":{"type":"Point","coordinates":[111.760537,40.78115]},"properties":{"full_address":"内蒙古自治区呼和浩特市赛罕区阳光美居"}},{"type":"Feature","geometry":{"type":"Point","coordinates":[111.68635,40.808234]},"properties":{"full_address":"内蒙古自治区呼和浩特市赛罕区地质局宿舍148号院"}},{"type":"Feature","geometry":{"type":"Point","coordinates":[111.729437,40.81867]},"properties":{"full_address":"内蒙古自治区呼和浩特市赛罕区春雨小区"}},{"type":"Feature","geometry":{"type":"Point","coordinates":[111.689947,40.802901]},"properties":{"full_address":"内蒙古自治区呼和浩特市赛罕区科委小区"}},{"type":"Feature","geometry":{"type":"Point","coordinates":[111.711412,40.82558]},"properties":{"full_address":"内蒙古自治区呼和浩特市赛罕区乐业小区"}},{"type":"Feature","geometry":{"type":"Point","coordinates":[111.680569,40.799866]},"properties":{"full_address":"内蒙古自治区呼和浩特市赛罕区山丹小区"}},{"type":"Feature","geometry":{"type":"Point","coordinates":[111.695418,40.789874]},"properties":{"full_address":"内蒙古自治区呼和浩特市赛罕区舒心园小区"}},{"type":"Feature","geometry":{"type":"Point","coordinates":[111.698247,40.807542]},"properties":{"full_address":"内蒙古自治区呼和浩特市赛罕区林场小区"}},{"type":"Feature","geometry":{"type":"Point","coordinates":[111.680407,40.79093]},"properties":{"full_address":"内蒙古自治区呼和浩特市赛罕区灯泡厂小区"}},{"type":"Feature","geometry":{"type":"Point","coordinates":[111.720742,40.794795]},"properties":{"full_address":"内蒙古自治区呼和浩特市赛罕区恒大名都小区"}},{"type":"Feature","geometry":{"type":"Point","coordinates":[111.733515,40.777816]},"properties":{"full_address":"内蒙古自治区呼和浩特市赛罕区馨康花园中区"}},{"type":"Feature","geometry":{"type":"Point","coordinates":[111.724411,40.825523]},"properties":{"full_address":"内蒙古自治区呼和浩特市赛罕区御景101公馆"}},{"type":"Feature","geometry":{"type":"Point","coordinates":[111.751229,40.789765]},"properties":{"full_address":"内蒙古自治区呼和浩特市赛罕区保全庄新村"}},{"type":"Feature","geometry":{"type":"Point","coordinates":[111.706001,40.777121]},"properties":{"full_address":"内蒙古自治区呼和浩特市赛罕区税苑小区"}},{"type":"Feature","geometry":{"type":"Point","coordinates":[111.730701,40.818926]},"properties":{"full_address":"内蒙古自治区呼和浩特市赛罕区丰泽园小区"}},{"type":"Feature","geometry":{"type":"Point","coordinates":[111.732696,40.773385]},"properties":{"full_address":"内蒙古自治区呼和浩特市赛罕区旺第嘉华小区"}},{"type":"Feature","geometry":{"type":"Point","coordinates":[111.712494,40.817697]},"properties":{"full_address":"内蒙古自治区呼和浩特市赛罕区河西乌兰小区"}},{"type":"Feature","geometry":{"type":"Point","coordinates":[111.675194,40.815689]},"properties":{"full_address":"内蒙古自治区呼和浩特市赛罕区土地局宿舍"}},{"type":"Feature","geometry":{"type":"Point","coordinates":[111.73024,40.787365]},"properties":{"full_address":"内蒙古自治区呼和浩特市赛罕区万豪美墅城"}},{"type":"Feature","geometry":{"type":"Point","coordinates":[111.918987,40.798066]},"properties":{"full_address":"内蒙古自治区呼和浩特市赛罕区添密湾村"}},{"type":"Feature","geometry":{"type":"Point","coordinates":[111.741588,40.805633]},"properties":{"full_address":"内蒙古自治区呼和浩特市赛罕区竹园小区东区"}},{"type":"Feature","geometry":{"type":"Point","coordinates":[111.735646,40.749944]},"properties":{"full_address":"内蒙古自治区呼和浩特市赛罕区东黑河村"}},{"type":"Feature","geometry":{"type":"Point","coordinates":[111.731976,40.778921]},"properties":{"full_address":"内蒙古自治区呼和浩特市赛罕区馨康花园34号楼"}},{"type":"Feature","geometry":{"type":"Point","coordinates":[111.730279,40.82155]},"properties":{"full_address":"内蒙古自治区呼和浩特市赛罕区徐家沙梁小区"}},{"type":"Feature","geometry":{"type":"Point","coordinates":[111.71508,40.82769]},"properties":{"full_address":"内蒙古自治区呼和浩特市赛罕区三干社区海外公寓（除3号楼）"}},{"type":"Feature","geometry":{"type":"Point","coordinates":[111.733044,40.815657]},"properties":{"full_address":"内蒙古自治区呼和浩特市赛罕区巨海城10区（除1号楼）"}},{"type":"Feature","geometry":{"type":"Point","coordinates":[111.767593,40.78846]},"properties":{"full_address":"内蒙古自治区呼和浩特市赛罕区民富家园（除2号楼）"}},{"type":"Feature","geometry":{"type":"Point","coordinates":[111.731819,40.7537]},"properties":{"full_address":"内蒙古自治区呼和浩特市赛罕区南锦绣嘉苑C区（除1号楼）"}},{"type":"Feature","geometry":{"type":"Point","coordinates":[111.711661,40.826727]},"properties":{"full_address":"内蒙古自治区呼和浩特市赛罕区中行小区（除3号楼）"}},{"type":"Feature","geometry":{"type":"Point","coordinates":[111.72564,40.76666]},"properties":{"full_address":"内蒙古自治区呼和浩特市赛罕区金城小区1号楼（1单元，3单元）"}},{"type":"Feature","geometry":{"type":"Point","coordinates":[111.72583,40.76334]},"properties":{"full_address":"内蒙古自治区呼和浩特市赛罕区民智苑小区B1号楼（除2单元）"}},{"type":"Feature","geometry":{"type":"Point","coordinates":[111.699059,40.801044]},"properties":{"full_address":"内蒙古自治区呼和浩特市赛罕区巧报镇政府家属院（除2号楼）"}},{"type":"Feature","geometry":{"type":"Point","coordinates":[111.69519,40.775539]},"properties":{"full_address":"内蒙古自治区呼和浩特市赛罕区赛罕区万锦合泰（除3号楼）"}},{"type":"Feature","geometry":{"type":"Point","coordinates":[111.695641,40.798409]},"properties":{"full_address":"内蒙古自治区呼和浩特市赛罕区东苑小区中心区（除7号楼）"}},{"type":"Feature","geometry":{"type":"Point","coordinates":[111.787224,40.804493]},"properties":{"full_address":"内蒙古自治区呼和浩特市赛罕区东方领海A区（除6号楼）"}},{"type":"Feature","geometry":{"type":"Point","coordinates":[111.776779,40.797722]},"properties":{"full_address":"内蒙古自治区呼和浩特市赛罕区东方科苑（除9号楼）"}},{"type":"Feature","geometry":{"type":"Point","coordinates":[111.766243,40.795692]},"properties":{"full_address":"内蒙古自治区呼和浩特市赛罕区南苑小区（除19号楼）"}},{"type":"Feature","geometry":{"type":"Point","coordinates":[111.732712,40.818459]},"properties":{"full_address":"内蒙古自治区呼和浩特市赛罕区澳华城市花园1期（除10号楼）"}},{"type":"Feature","geometry":{"type":"Point","coordinates":[111.717819,40.82782]},"properties":{"full_address":"内蒙古自治区呼和浩特市赛罕区长乐湾小区（除5号楼）"}},{"type":"Feature","geometry":{"type":"Point","coordinates":[111.72412,40.82439]},"properties":{"full_address":"内蒙古自治区呼和浩特市赛罕区东乐花园西区（除3号楼）"}},{"type":"Feature","geometry":{"type":"Point","coordinates":[111.710564,40.818691]},"properties":{"full_address":"内蒙古自治区呼和浩特市赛罕区祖光小区（除12号楼）"}},{"type":"Feature","geometry":{"type":"Point","coordinates":[111.706978,40.797729]},"properties":{"full_address":"内蒙古自治区呼和浩特市赛罕区牧机所小区（除8号楼）"}},{"type":"Feature","geometry":{"type":"Point","coordinates":[111.681747,40.804375]},"properties":{"full_address":"内蒙古自治区呼和浩特市赛罕区书香门第小区（除4号楼）"}},{"type":"Feature","geometry":{"type":"Point","coordinates":[111.713257,40.816952]},"properties":{"full_address":"内蒙古自治区呼和浩特市赛罕区乌兰小区（除11、12、13号楼）"}},{"type":"Feature","geometry":{"type":"Point","coordinates":[111.768738,40.796383]},"properties":{"full_address":"内蒙古自治区呼和浩特市赛罕区秀水佳园（除10号楼）"}},{"type":"Feature","geometry":{"type":"Point","coordinates":[111.781303,40.795399]},"properties":{"full_address":"内蒙古自治区呼和浩特市赛罕区东达景苑（除9号楼）"}},{"type":"Feature","geometry":{"type":"Point","coordinates":[111.708679,40.827141]},"properties":{"full_address":"内蒙古自治区呼和浩特市赛罕区金川地税局艺校家属楼（除1号楼）"}},{"type":"Feature","geometry":{"type":"Point","coordinates":[111.855064,40.891586]},"properties":{"full_address":"内蒙古自治区呼和浩特市赛罕区巴彦街道罗家营村陶然雅居B（除8号楼）"}},{"type":"Feature","geometry":{"type":"Point","coordinates":[111.722839,40.785751]},"properties":{"full_address":"内蒙古自治区呼和浩特市赛罕区中海蓝湾南区（除1号楼）"}},{"type":"Feature","geometry":{"type":"Point","coordinates":[111.708672,40.823383]},"properties":{"full_address":"内蒙古自治区呼和浩特市赛罕区自来水宿舍楼1号大院（除2号楼）"}},{"type":"Feature","geometry":{"type":"Point","coordinates":[111.752754,40.80394]},"properties":{"full_address":"内蒙古自治区呼和浩特市赛罕区锦绣福源B区（除8号楼）"}},{"type":"Feature","geometry":{"type":"Point","coordinates":[111.818825,40.785694]},"properties":{"full_address":"内蒙古自治区呼和浩特市赛罕区六犋牛村（除奶牛小区）"}},{"type":"Feature","geometry":{"type":"Point","coordinates":[111.739357,40.824032]},"properties":{"full_address":"内蒙古自治区呼和浩特市赛罕区检察家园（除3号楼）"}},{"type":"Feature","geometry":{"type":"Point","coordinates":[111.696724,40.772041]},"properties":{"full_address":"内蒙古自治区呼和浩特市赛罕区祥瑞家园（除8号楼）"}},{"type":"Feature","geometry":{"type":"Point","coordinates":[111.713501,40.790794]},"properties":{"full_address":"内蒙古自治区呼和浩特市赛罕区永泰城（除4号楼）"}},{"type":"Feature","geometry":{"type":"Point","coordinates":[111.6912,40.790199]},"properties":{"full_address":"内蒙古自治区呼和浩特市赛罕区司法厅住宅小区（除1号楼）"}},{"type":"Feature","geometry":{"type":"Point","coordinates":[111.719872,40.770367]},"properties":{"full_address":"内蒙古自治区呼和浩特市赛罕区化肥厂生活小区（除8号楼）"}},{"type":"Feature","geometry":{"type":"Point","coordinates":[111.710281,40.828339]},"properties":{"full_address":"内蒙古自治区呼和浩特市赛罕区巨华朗域小区（除6号楼）"}},{"type":"Feature","geometry":{"type":"Point","coordinates":[111.692749,40.785542]},"properties":{"full_address":"内蒙古自治区呼和浩特市赛罕区景馨家园二区（除3号楼）"}},{"type":"Feature","geometry":{"type":"Point","coordinates":[111.860283,40.718254]},"properties":{"full_address":"内蒙古自治区呼和浩特市赛罕区金河镇东达赖营村"}},{"type":"Feature","geometry":{"type":"Point","coordinates":[111.717455,40.812806]},"properties":{"full_address":"内蒙古自治区呼和浩特市赛罕区桥华园"}},{"type":"Feature","geometry":{"type":"Point","coordinates":[111.529131,40.791776]},"properties":{"full_address":"内蒙古自治区呼和浩特市土默特左旗台阁牧镇溪峰尚居小区二期"}},{"type":"Feature","geometry":{"type":"Point","coordinates":[111.535652,40.788833]},"properties":{"full_address":"内蒙古自治区呼和浩特市土默特左旗宽城小区东区"}},{"type":"Feature","geometry":{"type":"Point","coordinates":[111.537048,40.790703]},"properties":{"full_address":"内蒙古自治区呼和浩特市土默特左旗泰和熙地小区"}},{"type":"Feature","geometry":{"type":"Point","coordinates":[111.54834,40.779392]},"properties":{"full_address":"内蒙古自治区呼和浩特市土默特左旗金润华府小区B区"}},{"type":"Feature","geometry":{"type":"Point","coordinates":[111.103577,40.727413]},"properties":{"full_address":"内蒙古自治区呼和浩特市土默特左旗金华学府小区"}},{"type":"Feature","geometry":{"type":"Point","coordinates":[111.544681,40.780462]},"properties":{"full_address":"内蒙古自治区呼和浩特市土默特左旗金澜湾小区"}},{"type":"Feature","geometry":{"type":"Point","coordinates":[111.544427,40.788621]},"properties":{"full_address":"内蒙古自治区呼和浩特市土默特左旗天佑花园小区"}},{"type":"Feature","geometry":{"type":"Point","coordinates":[111.540553,40.77934]},"properties":{"full_address":"内蒙古自治区呼和浩特市土默特左旗公元大道小区"}},{"type":"Feature","geometry":{"type":"Point","coordinates":[111.474894,40.759804]},"properties":{"full_address":"内蒙古自治区呼和浩特市土默特左旗金山开发区易购城小区B4栋"}},{"type":"Feature","geometry":{"type":"Point","coordinates":[111.534264,40.781517]},"properties":{"full_address":"内蒙古自治区呼和浩特市土默特左旗半山半水A区（除2号楼）"}},{"type":"Feature","geometry":{"type":"Point","coordinates":[111.549561,40.79834]},"properties":{"full_address":"内蒙古自治区呼和浩特市土默特左旗汇金区域服务中心御景嘉园小区（除4号楼）"}},{"type":"Feature","geometry":{"type":"Point","coordinates":[111.395073,40.589653]},"properties":{"full_address":"内蒙古自治区呼和浩特市土默特左旗金浩区域服务中心宽城西区寿园（除5号楼）"}},{"type":"Feature","geometry":{"type":"Point","coordinates":[111.7261,41.247205]},"properties":{"full_address":"内蒙古自治区呼和浩特市武川县哈乐镇三合泉村"}},{"type":"Feature","geometry":{"type":"Point","coordinates":[111.463371,41.078578]},"properties":{"full_address":"内蒙古自治区呼和浩特市武川县可镇荣金小区"}},{"type":"Feature","geometry":{"type":"Point","coordinates":[110.031248,40.594462]},"properties":{"full_address":"内蒙古自治区包头市东河区东站街道办事处维多利新天地小区"}},{"type":"Feature","geometry":{"type":"Point","coordinates":[110.034557,40.594993]},"properties":{"full_address":"内蒙古自治区包头市东河区回民街道办事处福瑞瓦东小区"}},{"type":"Feature","geometry":{"type":"Point","coordinates":[110.039413,40.601883]},"properties":{"full_address":"内蒙古自治区包头市东河区回民街道办事处北梁西二区"}},{"type":"Feature","geometry":{"type":"Point","coordinates":[110.053635,40.573608]},"properties":{"full_address":"内蒙古自治区包头市东河区河东街道办事处阳光天福小区"}},{"type":"Feature","geometry":{"type":"Point","coordinates":[110.036652,40.577911]},"properties":{"full_address":"内蒙古自治区包头市东河区南门外街道办事处盛世小区"}},{"type":"Feature","geometry":{"type":"Point","coordinates":[109.988571,40.594639]},"properties":{"full_address":"内蒙古自治区包头市东河区铁西街道办事处三街二区"}},{"type":"Feature","geometry":{"type":"Point","coordinates":[110.031136,40.564766]},"properties":{"full_address":"内蒙古自治区包头市东河区天骄街道办事处二里半地矿小区AB区"}},{"type":"Feature","geometry":{"type":"Point","coordinates":[110.055771,40.563381]},"properties":{"full_address":"内蒙古自治区包头市东河区杨圪塄街道办事处北梁新区南六区"}},{"type":"Feature","geometry":{"type":"Point","coordinates":[110.029892,40.570431]},"properties":{"full_address":"内蒙古自治区包头市东河区南门外街道办事处东官房小区"}},{"type":"Feature","geometry":{"type":"Point","coordinates":[110.011307,40.586189]},"properties":{"full_address":"内蒙古自治区包头市东河区西脑包街道办事处西河景苑小区"}},{"type":"Feature","geometry":{"type":"Point","coordinates":[109.988579,40.595043]},"properties":{"full_address":"内蒙古自治区包头市东河区铁西街道办事处部分小区居民楼（总段1号楼，总段2号楼，合作7号楼，公安楼）"}},{"type":"Feature","geometry":{"type":"Point","coordinates":[109.820468,40.632908]},"properties":{"full_address":"内蒙古自治区包头市昆都仑区东亚世纪城文雅苑小区"}},{"type":"Feature","geometry":{"type":"Point","coordinates":[109.840393,40.680221]},"properties":{"full_address":"内蒙古自治区包头市昆都仑区居然新城小区"}},{"type":"Feature","geometry":{"type":"Point","coordinates":[109.82304,40.62243]},"properties":{"full_address":"内蒙古自治区包头市昆都仑区天疆骊城小区"}},{"type":"Feature","geometry":{"type":"Point","coordinates":[109.842949,40.639961]},"properties":{"full_address":"内蒙古自治区包头市昆都仑区华丽家族小区"}},{"type":"Feature","geometry":{"type":"Point","coordinates":[109.800941,40.681023]},"properties":{"full_address":"内蒙古自治区包头市昆都仑区天赐新城小区"}},{"type":"Feature","geometry":{"type":"Point","coordinates":[109.808868,40.689621]},"properties":{"full_address":"内蒙古自治区包头市昆都仑区南排四组新村致富路北35—40栋，43、44栋，54、55栋"}},{"type":"Feature","geometry":{"type":"Point","coordinates":[109.808777,40.692986]},"properties":{"full_address":"内蒙古自治区包头市昆都仑区南排四组新村企业路中段南48、52、53栋"}},{"type":"Feature","geometry":{"type":"Point","coordinates":[109.804108,40.67173]},"properties":{"full_address":"内蒙古自治区包头市昆都仑区胜利佳苑小区"}},{"type":"Feature","geometry":{"type":"Point","coordinates":[109.663582,40.664013]},"properties":{"full_address":"内蒙古自治区包头市昆都仑区背锅窑村"}},{"type":"Feature","geometry":{"type":"Point","coordinates":[109.82959,40.663601]},"properties":{"full_address":"内蒙古自治区包头市昆都仑区少先31街坊79小区"}},{"type":"Feature","geometry":{"type":"Point","coordinates":[109.833359,40.643349]},"properties":{"full_address":"内蒙古自治区包头市昆都仑区友谊小区"}},{"type":"Feature","geometry":{"type":"Point","coordinates":[109.833359,40.643349]},"properties":{"full_address":"内蒙古自治区包头市昆都仑区友谊南小区"}},{"type":"Feature","geometry":{"type":"Point","coordinates":[109.825684,40.672142]},"properties":{"full_address":"内蒙古自治区包头市昆都仑区国际新城北区"}},{"type":"Feature","geometry":{"type":"Point","coordinates":[109.83859,40.64178]},"properties":{"full_address":"内蒙古自治区包头市昆都仑区团13街坊包钢院小区"}},{"type":"Feature","geometry":{"type":"Point","coordinates":[109.823326,40.62669]},"properties":{"full_address":"内蒙古自治区包头市昆都仑区帝景小区"}},{"type":"Feature","geometry":{"type":"Point","coordinates":[109.78363,40.641113]},"properties":{"full_address":"内蒙古自治区包头市昆都仑区孟家河湾村"}},{"type":"Feature","geometry":{"type":"Point","coordinates":[109.813263,40.609901]},"properties":{"full_address":"内蒙古自治区包头市昆都仑区万和城二期"}},{"type":"Feature","geometry":{"type":"Point","coordinates":[109.816399,40.63575]},"properties":{"full_address":"内蒙古自治区包头市昆都仑区黄河四区"}},{"type":"Feature","geometry":{"type":"Point","coordinates":[109.817955,40.649094]},"properties":{"full_address":"内蒙古自治区包头市昆都仑区友谊20街坊育华小区"}},{"type":"Feature","geometry":{"type":"Point","coordinates":[109.833267,40.663502]},"properties":{"full_address":"内蒙古自治区包头市昆都仑区佳园小区"}},{"type":"Feature","geometry":{"type":"Point","coordinates":[109.879875,40.6685]},"properties":{"full_address":"内蒙古自治区包头市青山区松石国际城石榴园11栋"}},{"type":"Feature","geometry":{"type":"Point","coordinates":[109.885861,40.669555]},"properties":{"full_address":"内蒙古自治区包头市青山区呼得木林新天地二区九号楼"}},{"type":"Feature","geometry":{"type":"Point","coordinates":[109.898252,40.651781]},"properties":{"full_address":"内蒙古自治区包头市青山区光辉三区"}},{"type":"Feature","geometry":{"type":"Point","coordinates":[109.865282,40.69486]},"properties":{"full_address":"内蒙古自治区包头市青山区银海社区阳光上城上景园小区西区"}},{"type":"Feature","geometry":{"type":"Point","coordinates":[109.865409,40.648995]},"properties":{"full_address":"内蒙古自治区包头市青山区春光四区"}},{"type":"Feature","geometry":{"type":"Point","coordinates":[109.91065,40.64492]},"properties":{"full_address":"内蒙古自治区包头市青山区健康阳光城北区"}},{"type":"Feature","geometry":{"type":"Point","coordinates":[109.931205,40.64618]},"properties":{"full_address":"内蒙古自治区包头市青山区当代菁英国际小区"}},{"type":"Feature","geometry":{"type":"Point","coordinates":[109.9123,40.655975]},"properties":{"full_address":"内蒙古自治区包头市青山区都兰小区"}},{"type":"Feature","geometry":{"type":"Point","coordinates":[109.895982,40.654357]},"properties":{"full_address":"内蒙古自治区包头市青山区鑫达佳园小区"}},{"type":"Feature","geometry":{"type":"Point","coordinates":[109.87345,40.67759]},"properties":{"full_address":"内蒙古自治区包头市青山区富强路10号街坊"}},{"type":"Feature","geometry":{"type":"Point","coordinates":[109.875946,40.649647]},"properties":{"full_address":"内蒙古自治区包头市青山区大连新型春意园"}},{"type":"Feature","geometry":{"type":"Point","coordinates":[109.862457,40.671131]},"properties":{"full_address":"内蒙古自治区包头市青山区金泰丽苑小区"}},{"type":"Feature","geometry":{"type":"Point","coordinates":[109.853317,40.650063]},"properties":{"full_address":"内蒙古自治区包头市青山区赵家营4区"}},{"type":"Feature","geometry":{"type":"Point","coordinates":[109.87756,40.66694]},"properties":{"full_address":"内蒙古自治区包头市青山区幸福路6号街坊"}},{"type":"Feature","geometry":{"type":"Point","coordinates":[109.908798,40.658821]},"properties":{"full_address":"内蒙古自治区包头市青山区朝阳一区"}},{"type":"Feature","geometry":{"type":"Point","coordinates":[109.87417,40.67843]},"properties":{"full_address":"内蒙古自治区包头市青山区富强路7号街坊"}},{"type":"Feature","geometry":{"type":"Point","coordinates":[109.92836,40.673622]},"properties":{"full_address":"内蒙古自治区包头市青山区松石国际城石榴园"}},{"type":"Feature","geometry":{"type":"Point","coordinates":[109.886353,40.669216]},"properties":{"full_address":"内蒙古自治区包头市青山区呼得木林新天地二区"}},{"type":"Feature","geometry":{"type":"Point","coordinates":[109.902733,40.648392]},"properties":{"full_address":"内蒙古自治区包头市青山区保利三期"}},{"type":"Feature","geometry":{"type":"Point","coordinates":[109.93527,40.64807]},"properties":{"full_address":"内蒙古自治区包头市青山区青山路5号街坊"}},{"type":"Feature","geometry":{"type":"Point","coordinates":[109.850182,40.646152]},"properties":{"full_address":"内蒙古自治区包头市青山区金苑小区"}},{"type":"Feature","geometry":{"type":"Point","coordinates":[109.859421,40.671391]},"properties":{"full_address":"内蒙古自治区包头市青山区迎宾二社区四运院"}},{"type":"Feature","geometry":{"type":"Point","coordinates":[109.860901,40.671558]},"properties":{"full_address":"内蒙古自治区包头市青山区恒荣景秀小区"}},{"type":"Feature","geometry":{"type":"Point","coordinates":[109.87006,40.68162]},"properties":{"full_address":"内蒙古自治区包头市青山区青山路1号街坊（西至邻圃道、东至富强路，南至青山路，北至厂前路，不包含北重六小）"}},{"type":"Feature","geometry":{"type":"Point","coordinates":[109.89991,40.671772]},"properties":{"full_address":"内蒙古自治区包头市青山区观澜壹号"}},{"type":"Feature","geometry":{"type":"Point","coordinates":[109.87287,40.67608]},"properties":{"full_address":"内蒙古自治区包头市青山区富强路12号街坊"}},{"type":"Feature","geometry":{"type":"Point","coordinates":[109.914528,40.64996]},"properties":{"full_address":"内蒙古自治区包头市青山区佳福小区"}},{"type":"Feature","geometry":{"type":"Point","coordinates":[109.88772,40.66061]},"properties":{"full_address":"内蒙古自治区包头市青山区自由路8号街坊"}},{"type":"Feature","geometry":{"type":"Point","coordinates":[109.943863,40.634605]},"properties":{"full_address":"内蒙古自治区包头市青山区轻工学院二期家属楼"}},{"type":"Feature","geometry":{"type":"Point","coordinates":[109.888809,40.67345]},"properties":{"full_address":"内蒙古自治区包头市青山区兵工华居小区"}},{"type":"Feature","geometry":{"type":"Point","coordinates":[109.87259,40.66919]},"properties":{"full_address":"内蒙古自治区包头市青山区赛音道5号街坊2栋"}},{"type":"Feature","geometry":{"type":"Point","coordinates":[109.873198,40.677653]},"properties":{"full_address":"内蒙古自治区包头市青山区富强路1号街坊27栋"}},{"type":"Feature","geometry":{"type":"Point","coordinates":[109.84906,40.650398]},"properties":{"full_address":"内蒙古自治区包头市青山区赵家营村小西门258公寓"}},{"type":"Feature","geometry":{"type":"Point","coordinates":[109.918457,40.652378]},"properties":{"full_address":"内蒙古自治区包头市青山区六合成南二区5栋"}},{"type":"Feature","geometry":{"type":"Point","coordinates":[109.947983,40.637611]},"properties":{"full_address":"内蒙古自治区包头市青山区轻工学院一期家属楼"}},{"type":"Feature","geometry":{"type":"Point","coordinates":[109.958763,40.653893]},"properties":{"full_address":"内蒙古自治区包头市青山区乌素图利民社区146栋—150栋，155栋—159栋"}},{"type":"Feature","geometry":{"type":"Point","coordinates":[109.84906,40.650398]},"properties":{"full_address":"内蒙古自治区包头市青山区赵家营村三区"}},{"type":"Feature","geometry":{"type":"Point","coordinates":[109.871391,40.69651]},"properties":{"full_address":"内蒙古自治区包头市青山区青福新城"}},{"type":"Feature","geometry":{"type":"Point","coordinates":[109.969948,40.60038]},"properties":{"full_address":"内蒙古自治区包头市九原区沙河街道"}},{"type":"Feature","geometry":{"type":"Point","coordinates":[109.978609,40.620447]},"properties":{"full_address":"内蒙古自治区包头市九原区白音席勒街道"}},{"type":"Feature","geometry":{"type":"Point","coordinates":[109.93953,40.602999]},"properties":{"full_address":"内蒙古自治区包头市九原区赛汗街道"}},{"type":"Feature","geometry":{"type":"Point","coordinates":[109.596733,40.597439]},"properties":{"full_address":"内蒙古自治区包头市九原区麻池镇永土路及沼南路以东、万哈线以南、希望大道以北、九原区与高新区界以西"}},{"type":"Feature","geometry":{"type":"Point","coordinates":[110.554283,40.593121]},"properties":{"full_address":"内蒙古自治区包头市土默特右旗沟门镇北只图村"}},{"type":"Feature","geometry":{"type":"Point","coordinates":[110.553238,40.556911]},"properties":{"full_address":"内蒙古自治区包头市土默特右旗萨拉齐镇惠安一期小区"}},{"type":"Feature","geometry":{"type":"Point","coordinates":[110.553238,40.556911]},"properties":{"full_address":"内蒙古自治区包头市土默特右旗萨拉齐镇惠安二期小区"}},{"type":"Feature","geometry":{"type":"Point","coordinates":[110.552773,40.555363]},"properties":{"full_address":"内蒙古自治区包头市土默特右旗萨拉齐镇温馨一区"}},{"type":"Feature","geometry":{"type":"Point","coordinates":[110.552773,40.555363]},"properties":{"full_address":"内蒙古自治区包头市土默特右旗萨拉齐镇温馨二区"}},{"type":"Feature","geometry":{"type":"Point","coordinates":[110.527061,40.54306]},"properties":{"full_address":"内蒙古自治区包头市土默特右旗萨拉齐镇惠民佳苑小区"}},{"type":"Feature","geometry":{"type":"Point","coordinates":[110.52206,40.56192]},"properties":{"full_address":"内蒙古自治区包头市土默特右旗萨拉齐镇同乐平房区"}},{"type":"Feature","geometry":{"type":"Point","coordinates":[110.524406,40.563595]},"properties":{"full_address":"内蒙古自治区包头市土默特右旗萨拉齐镇烟草平房区"}},{"type":"Feature","geometry":{"type":"Point","coordinates":[109.90925,40.582583]},"properties":{"full_address":"内蒙古自治区包头市稀土高新区民馨路街道民馨六区"}},{"type":"Feature","geometry":{"type":"Point","coordinates":[109.933797,40.590371]},"properties":{"full_address":"内蒙古自治区包头市稀土高新区万水泉镇泉丰社区（果树队平房区）"}},{"type":"Feature","geometry":{"type":"Point","coordinates":[109.924049,40.582878]},"properties":{"full_address":"内蒙古自治区包头市稀土高新区万水泉镇水岸花都一区"}},{"type":"Feature","geometry":{"type":"Point","coordinates":[109.828751,40.581389]},"properties":{"full_address":"内蒙古自治区包头市稀土高新区稀土路街道二水厂小区（原市政养殖场）"}},{"type":"Feature","geometry":{"type":"Point","coordinates":[109.951454,40.568272]},"properties":{"full_address":"内蒙古自治区包头市稀土高新区万水泉镇万泉佳苑D区"}},{"type":"Feature","geometry":{"type":"Point","coordinates":[109.88166,40.635731]},"properties":{"full_address":"内蒙古自治区包头市稀土高新区稀土路街道中梁首府一号小区"}},{"type":"Feature","geometry":{"type":"Point","coordinates":[109.920853,40.568932]},"properties":{"full_address":"内蒙古自治区包头市稀土高新区万水泉镇安泰社区包哈公路以北、张三粮店道路以东、建华南路以西、包兰铁路以南区域"}},{"type":"Feature","geometry":{"type":"Point","coordinates":[109.849678,40.64225]},"properties":{"full_address":"内蒙古自治区包头市稀土高新区稀土路街道日月华庭二期"}},{"type":"Feature","geometry":{"type":"Point","coordinates":[109.909462,40.585178]},"properties":{"full_address":"内蒙古自治区包头市稀土高新区民馨路街道滨河第一城C区"}},{"type":"Feature","geometry":{"type":"Point","coordinates":[109.851669,40.643471]},"properties":{"full_address":"内蒙古自治区包头市稀土高新区稀土路街道银苑小区"}},{"type":"Feature","geometry":{"type":"Point","coordinates":[109.945648,40.565029]},"properties":{"full_address":"内蒙古自治区包头市稀土高新区万水泉镇万泉佳苑A区"}},{"type":"Feature","geometry":{"type":"Point","coordinates":[118.930608,42.325709]},"properties":{"full_address":"内蒙古自治区赤峰市红山区赤峰商贸物流服务园区朝阳路65号"}},{"type":"Feature","geometry":{"type":"Point","coordinates":[119.010216,42.286673]},"properties":{"full_address":"内蒙古自治区赤峰市红山区东城街道四季雅苑小区"}},{"type":"Feature","geometry":{"type":"Point","coordinates":[118.952337,42.265746]},"properties":{"full_address":"内蒙古自治区赤峰市红山区站前街道医药公司家属楼小区"}},{"type":"Feature","geometry":{"type":"Point","coordinates":[118.954186,42.263307]},"properties":{"full_address":"内蒙古自治区赤峰市红山区站前街道昭乌达小区梅园7号楼"}},{"type":"Feature","geometry":{"type":"Point","coordinates":[118.950571,42.260454]},"properties":{"full_address":"内蒙古自治区赤峰市红山区站前街道金百合东区1号楼"}},{"type":"Feature","geometry":{"type":"Point","coordinates":[118.955257,42.272853]},"properties":{"full_address":"内蒙古自治区赤峰市红山区哈达街道万悦城A座"}},{"type":"Feature","geometry":{"type":"Point","coordinates":[118.944871,42.248603]},"properties":{"full_address":"内蒙古自治区赤峰市红山区西城街道百合和苑18号楼"}},{"type":"Feature","geometry":{"type":"Point","coordinates":[118.908764,42.288124]},"properties":{"full_address":"内蒙古自治区赤峰市松山区铁东街道北城嘉园小区（二期）"}},{"type":"Feature","geometry":{"type":"Point","coordinates":[118.908046,42.274768]},"properties":{"full_address":"内蒙古自治区赤峰市松山区铁东街道蓝山庭院西区"}},{"type":"Feature","geometry":{"type":"Point","coordinates":[119.386133,43.972314]},"properties":{"full_address":"内蒙古自治区赤峰市巴林左旗临潢路南段步行街东侧多品棉布行（临潢路80号）"}},{"type":"Feature","geometry":{"type":"Point","coordinates":[110.021551,39.802337]},"properties":{"full_address":"内蒙古自治区鄂尔多斯市东胜区林荫街道金色家园小区3#楼"}},{"type":"Feature","geometry":{"type":"Point","coordinates":[110.033023,39.806262]},"properties":{"full_address":"内蒙古自治区鄂尔多斯市东胜区富兴街道富兴花园南平房区"}},{"type":"Feature","geometry":{"type":"Point","coordinates":[109.37886,39.84763]},"properties":{"full_address":"内蒙古自治区鄂尔多斯市东胜区供电局巷子7号街坊31号及东面5户平房区"}},{"type":"Feature","geometry":{"type":"Point","coordinates":[110.03302,39.80727]},"properties":{"full_address":"内蒙古自治区鄂尔多斯市东胜区富兴花园小区南侧饭店"}},{"type":"Feature","geometry":{"type":"Point","coordinates":[110.012459,39.823742]},"properties":{"full_address":"内蒙古自治区鄂尔多斯市东胜区满都海巷12街坊58号及东边1户、西边17户平房区域"}},{"type":"Feature","geometry":{"type":"Point","coordinates":[110.011017,39.829132]},"properties":{"full_address":"内蒙古自治区鄂尔多斯市东胜区红波社区工行小区"}},{"type":"Feature","geometry":{"type":"Point","coordinates":[109.96144,39.82127]},"properties":{"full_address":"内蒙古自治区鄂尔多斯市东胜区公路工程家属小区"}},{"type":"Feature","geometry":{"type":"Point","coordinates":[110.037453,39.827648]},"properties":{"full_address":"内蒙古自治区鄂尔多斯市东胜区国电富兴苑小区"}},{"type":"Feature","geometry":{"type":"Point","coordinates":[110.030678,39.81002]},"properties":{"full_address":"内蒙古自治区鄂尔多斯市东胜区煜春园"}},{"type":"Feature","geometry":{"type":"Point","coordinates":[110.026863,39.834492]},"properties":{"full_address":"内蒙古自治区鄂尔多斯市东胜区炜业怡和丽景"}},{"type":"Feature","geometry":{"type":"Point","coordinates":[109.999062,39.799274]},"properties":{"full_address":"内蒙古自治区鄂尔多斯市东胜区金鹰万家小区"}},{"type":"Feature","geometry":{"type":"Point","coordinates":[109.98053,39.823471]},"properties":{"full_address":"内蒙古自治区鄂尔多斯市东胜区紫金苑小区"}},{"type":"Feature","geometry":{"type":"Point","coordinates":[110.056587,39.812729]},"properties":{"full_address":"内蒙古自治区鄂尔多斯市东胜区补拉塔移民区"}},{"type":"Feature","geometry":{"type":"Point","coordinates":[110.03302,39.80727]},"properties":{"full_address":"内蒙古自治区鄂尔多斯市东胜区富兴花园小区除高风险区域外的其他区域"}},{"type":"Feature","geometry":{"type":"Point","coordinates":[108.071566,38.234507]},"properties":{"full_address":"内蒙古自治区鄂尔多斯市鄂托克前旗昂素镇金泰宾馆"}},{"type":"Feature","geometry":{"type":"Point","coordinates":[108.06792,38.233273]},"properties":{"full_address":"内蒙古自治区鄂尔多斯市鄂托克前旗昂素镇真味香食府"}},{"type":"Feature","geometry":{"type":"Point","coordinates":[108.068929,38.232999]},"properties":{"full_address":"内蒙古自治区鄂尔多斯市鄂托克前旗昂素镇麻乃鼐兰州牛肉拉面馆"}},{"type":"Feature","geometry":{"type":"Point","coordinates":[108.72981,39.831739]},"properties":{"full_address":"内蒙古自治区鄂尔多斯市杭锦旗金地佳苑1号楼三单元"}},{"type":"Feature","geometry":{"type":"Point","coordinates":[119.784287,49.20327]},"properties":{"full_address":"内蒙古自治区呼伦贝尔市海拉尔区博雅新区小区（北区）3号楼"}},{"type":"Feature","geometry":{"type":"Point","coordinates":[119.741711,49.226163]},"properties":{"full_address":"内蒙古自治区呼伦贝尔市海拉尔区滨州明珠小区"}},{"type":"Feature","geometry":{"type":"Point","coordinates":[119.916313,49.261051]},"properties":{"full_address":"内蒙古自治区呼伦贝尔市海拉尔区互助村2路4号平房"}},{"type":"Feature","geometry":{"type":"Point","coordinates":[119.745537,49.21316]},"properties":{"full_address":"内蒙古自治区呼伦贝尔市海拉尔区中国石油呼伦贝尔工业园区加油站（海拉尔区301国道附近）"}},{"type":"Feature","geometry":{"type":"Point","coordinates":[120.073822,49.189632]},"properties":{"full_address":"内蒙古自治区呼伦贝尔市海拉尔区哈克镇哈克村北一街以北、北三街以西、西一路以东区域"}},{"type":"Feature","geometry":{"type":"Point","coordinates":[123.3908,48.2635]},"properties":{"full_address":"内蒙古自治区呼伦贝尔市阿荣旗霍尔奇镇荣花村上七垧地组"}},{"type":"Feature","geometry":{"type":"Point","coordinates":[123.388367,48.275902]},"properties":{"full_address":"内蒙古自治区呼伦贝尔市阿荣旗霍尔奇镇荣花村下七垧地组"}},{"type":"Feature","geometry":{"type":"Point","coordinates":[123.724455,50.590184]},"properties":{"full_address":"内蒙古自治区呼伦贝尔市鄂伦春自治旗阿里河镇建设局家属楼"}},{"type":"Feature","geometry":{"type":"Point","coordinates":[119.73687,49.163158]},"properties":{"full_address":"内蒙古自治区呼伦贝尔市鄂温克族自治旗巴彦托海镇金鼎上城南区每日精选生鲜超市"}},{"type":"Feature","geometry":{"type":"Point","coordinates":[119.737825,49.164215]},"properties":{"full_address":"内蒙古自治区呼伦贝尔市鄂温克族自治旗巴彦托海镇金鼎上城北区好宜家超市"}},{"type":"Feature","geometry":{"type":"Point","coordinates":[119.742859,49.150508]},"properties":{"full_address":"内蒙古自治区呼伦贝尔市鄂温克族自治旗巴彦托海镇龙景庭院三期万克米多多仓储超市"}},{"type":"Feature","geometry":{"type":"Point","coordinates":[119.755043,49.142284]},"properties":{"full_address":"内蒙古自治区呼伦贝尔市鄂温克族自治旗巴彦托海镇佳乐购超市"}},{"type":"Feature","geometry":{"type":"Point","coordinates":[119.736671,49.17157]},"properties":{"full_address":"内蒙古自治区呼伦贝尔市鄂温克族自治旗巴彦托海镇华晟宾馆"}},{"type":"Feature","geometry":{"type":"Point","coordinates":[119.736481,49.172029]},"properties":{"full_address":"内蒙古自治区呼伦贝尔市鄂温克族自治旗巴彦托海镇华晟蔬菜水果超市"}},{"type":"Feature","geometry":{"type":"Point","coordinates":[119.738853,49.155029]},"properties":{"full_address":"内蒙古自治区呼伦贝尔市鄂温克族自治旗移动小区及小区门市"}},{"type":"Feature","geometry":{"type":"Point","coordinates":[119.756531,49.13271]},"properties":{"full_address":"内蒙古自治区呼伦贝尔市鄂温克族自治旗伊敏路以西至南兴路、索伦街以南至南外环路以北整个区域"}},{"type":"Feature","geometry":{"type":"Point","coordinates":[119.592354,49.076241]},"properties":{"full_address":"内蒙古自治区呼伦贝尔市鄂温克族自治旗龙达牲畜交易市场及一百米范围内平房"}},{"type":"Feature","geometry":{"type":"Point","coordinates":[118.260742,48.215994]},"properties":{"full_address":"内蒙古自治区呼伦贝尔市新巴尔虎左旗德远小区及底商"}},{"type":"Feature","geometry":{"type":"Point","coordinates":[118.259089,48.215705]},"properties":{"full_address":"内蒙古自治区呼伦贝尔市新巴尔虎左旗五一小区及底商"}},{"type":"Feature","geometry":{"type":"Point","coordinates":[118.261595,48.215241]},"properties":{"full_address":"内蒙古自治区呼伦贝尔市新巴尔虎左旗好心情快餐店"}},{"type":"Feature","geometry":{"type":"Point","coordinates":[116.818924,48.666002]},"properties":{"full_address":"内蒙古自治区呼伦贝尔市新巴尔虎右旗八一小区"}},{"type":"Feature","geometry":{"type":"Point","coordinates":[116.82369,48.672101]},"properties":{"full_address":"内蒙古自治区呼伦贝尔市新巴尔虎右旗芳草地智能宾馆"}},{"type":"Feature","geometry":{"type":"Point","coordinates":[116.819548,48.669973]},"properties":{"full_address":"内蒙古自治区呼伦贝尔市新巴尔虎右旗状元府小区"}},{"type":"Feature","geometry":{"type":"Point","coordinates":[116.819083,48.661393]},"properties":{"full_address":"内蒙古自治区呼伦贝尔市新巴尔虎右旗乔巴山小区"}},{"type":"Feature","geometry":{"type":"Point","coordinates":[116.826668,48.662571]},"properties":{"full_address":"内蒙古自治区呼伦贝尔市新巴尔虎右旗蒙古家园小区"}},{"type":"Feature","geometry":{"type":"Point","coordinates":[116.834717,48.676392]},"properties":{"full_address":"内蒙古自治区呼伦贝尔市新巴尔虎右旗巴尔虎小区"}},{"type":"Feature","geometry":{"type":"Point","coordinates":[116.826836,48.668964]},"properties":{"full_address":"内蒙古自治区呼伦贝尔市新巴尔虎右旗金色世家小区"}},{"type":"Feature","geometry":{"type":"Point","coordinates":[116.810547,48.664143]},"properties":{"full_address":"内蒙古自治区呼伦贝尔市新巴尔虎右旗阿拉坦额莫勒镇邮政小区"}},{"type":"Feature","geometry":{"type":"Point","coordinates":[116.821037,48.669872]},"properties":{"full_address":"内蒙古自治区呼伦贝尔市新巴尔虎右旗金鞍小区（小二楼以南包含小二楼、2号楼及底商、西侧楼宇及底商、3号楼及底商围封的区域）"}},{"type":"Feature","geometry":{"type":"Point","coordinates":[116.82369,48.672101]},"properties":{"full_address":"内蒙古自治区呼伦贝尔市新巴尔虎右旗中俄蒙住宅楼及底商"}},{"type":"Feature","geometry":{"type":"Point","coordinates":[116.992246,49.126787]},"properties":{"full_address":"内蒙古自治区呼伦贝尔市新巴尔虎右旗呼伦二期"}},{"type":"Feature","geometry":{"type":"Point","coordinates":[107.420578,40.77367]},"properties":{"full_address":"内蒙古自治区巴彦淖尔市临河区新华街道绿色家园小区"}},{"type":"Feature","geometry":{"type":"Point","coordinates":[107.417969,40.772949]},"properties":{"full_address":"内蒙古自治区巴彦淖尔市临河区新华街道绿岛新村小区"}},{"type":"Feature","geometry":{"type":"Point","coordinates":[113.090642,40.978312]},"properties":{"full_address":"内蒙古自治区乌兰察布市集宁区乌兰察布市邮政物流园区分拣中心"}},{"type":"Feature","geometry":{"type":"Point","coordinates":[113.128064,41.03998]},"properties":{"full_address":"内蒙古自治区乌兰察布市集宁区天佐小区3号楼"}},{"type":"Feature","geometry":{"type":"Point","coordinates":[112.582628,40.895173]},"properties":{"full_address":"内蒙古自治区乌兰察布市卓资县卓资山镇人民北路丑妞化妆品店"}},{"type":"Feature","geometry":{"type":"Point","coordinates":[112.576023,40.895814]},"properties":{"full_address":"内蒙古自治区乌兰察布市卓资县卓资山镇人民北路康恩大药房"}},{"type":"Feature","geometry":{"type":"Point","coordinates":[112.576538,40.895173]},"properties":{"full_address":"内蒙古自治区乌兰察布市卓资县卓资山镇人民北路利达灯具店"}},{"type":"Feature","geometry":{"type":"Point","coordinates":[112.580641,40.901212]},"properties":{"full_address":"内蒙古自治区乌兰察布市卓资县卓资山镇龙胜路馨雅窗帘店"}},{"type":"Feature","geometry":{"type":"Point","coordinates":[112.556219,40.903069]},"properties":{"full_address":"内蒙古自治区乌兰察布市卓资县卓资山镇爱民街海平超市"}},{"type":"Feature","geometry":{"type":"Point","coordinates":[112.159332,40.980658]},"properties":{"full_address":"内蒙古自治区乌兰察布市卓资县旗下营镇后汽路（S105）小王轮胎店旁贾培花店铺"}},{"type":"Feature","geometry":{"type":"Point","coordinates":[112.172054,40.995636]},"properties":{"full_address":"内蒙古自治区乌兰察布市卓资县旗下营镇一间房物流园区修车店"}},{"type":"Feature","geometry":{"type":"Point","coordinates":[112.20723,40.895012]},"properties":{"full_address":"内蒙古自治区乌兰察布市卓资县旗下营镇蓿麻湾砂厂装卸货点"}},{"type":"Feature","geometry":{"type":"Point","coordinates":[112.580711,40.901123]},"properties":{"full_address":"内蒙古自治区乌兰察布市卓资县卓资山镇龙胜路雅美居布艺店、海清布艺店"}},{"type":"Feature","geometry":{"type":"Point","coordinates":[113.851143,40.87293]},"properties":{"full_address":"内蒙古自治区乌兰察布市卓资县旗下营镇张铁人家电百货"}},{"type":"Feature","geometry":{"type":"Point","coordinates":[112.185532,40.974842]},"properties":{"full_address":"内蒙古自治区乌兰察布市卓资县旗下营镇刘永生生熟肉店"}},{"type":"Feature","geometry":{"type":"Point","coordinates":[112.161079,40.980942]},"properties":{"full_address":"内蒙古自治区乌兰察布市卓资县旗下营镇伊香园馒头店"}},{"type":"Feature","geometry":{"type":"Point","coordinates":[112.159332,40.980658]},"properties":{"full_address":"内蒙古自治区乌兰察布市卓资县旗下营镇联通营业点"}},{"type":"Feature","geometry":{"type":"Point","coordinates":[112.163376,40.982906]},"properties":{"full_address":"内蒙古自治区乌兰察布市卓资县旗下营镇福鱼名烟名酒店"}},{"type":"Feature","geometry":{"type":"Point","coordinates":[112.185532,40.974842]},"properties":{"full_address":"内蒙古自治区乌兰察布市卓资县旗下营镇仟水秀超市"}},{"type":"Feature","geometry":{"type":"Point","coordinates":[112.185532,40.974842]},"properties":{"full_address":"内蒙古自治区乌兰察布市卓资县旗下营镇杭州包子铺"}},{"type":"Feature","geometry":{"type":"Point","coordinates":[113.541092,41.557056]},"properties":{"full_address":"内蒙古自治区乌兰察布市商都县平安小区"}},{"type":"Feature","geometry":{"type":"Point","coordinates":[113.580028,41.563629]},"properties":{"full_address":"内蒙古自治区乌兰察布市商都县龙湾小区12号楼"}},{"type":"Feature","geometry":{"type":"Point","coordinates":[113.574113,41.561161]},"properties":{"full_address":"内蒙古自治区乌兰察布市商都县洪玉小区2号楼"}},{"type":"Feature","geometry":{"type":"Point","coordinates":[122.053383,46.071808]},"properties":{"full_address":"内蒙古自治区兴安盟乌兰浩特市都林花园小区2号楼6单元"}},{"type":"Feature","geometry":{"type":"Point","coordinates":[122.110825,46.071137]},"properties":{"full_address":"内蒙古自治区兴安盟乌兰浩特市恒大绿洲小区14号楼3单元"}},{"type":"Feature","geometry":{"type":"Point","coordinates":[122.09316,46.07282]},"properties":{"full_address":"内蒙古自治区兴安盟乌兰浩特市友好小区1号楼2单元"}},{"type":"Feature","geometry":{"type":"Point","coordinates":[122.09316,46.07282]},"properties":{"full_address":"内蒙古自治区兴安盟乌兰浩特市友好小区1号楼3单元"}},{"type":"Feature","geometry":{"type":"Point","coordinates":[123.583122,41.854992]},"properties":{"full_address":"辽宁省沈阳市浑南区满堂街道英达村除高风险外的其他区域"}},{"type":"Feature","geometry":{"type":"Point","coordinates":[123.607071,41.875893]},"properties":{"full_address":"辽宁省沈阳市浑南区满堂街道东沟村"}},{"type":"Feature","geometry":{"type":"Point","coordinates":[123.593132,41.86692]},"properties":{"full_address":"辽宁省沈阳市浑南区满堂街道公家村"}},{"type":"Feature","geometry":{"type":"Point","coordinates":[123.181061,41.785332]},"properties":{"full_address":"辽宁省沈阳市于洪区沙岭街道水木成典小区除高风险外的其他区域"}},{"type":"Feature","geometry":{"type":"Point","coordinates":[123.177063,41.788067]},"properties":{"full_address":"辽宁省沈阳市于洪区沙岭街道万纬沈阳于洪冷链园"}},{"type":"Feature","geometry":{"type":"Point","coordinates":[123.046715,41.179131]},"properties":{"full_address":"辽宁省鞍山市立山区灵山街道红拖社区除红旗街12栋、钢绳街36栋以外的其他区域"}},{"type":"Feature","geometry":{"type":"Point","coordinates":[123.043907,41.183922]},"properties":{"full_address":"辽宁省鞍山市立山区灵山街道灵西社区"}},{"type":"Feature","geometry":{"type":"Point","coordinates":[122.4235,41.072392]},"properties":{"full_address":"辽宁省鞍山市台安县韭菜台镇韭菜台村外其余村"}},{"type":"Feature","geometry":{"type":"Point","coordinates":[122.471222,41.157654]},"properties":{"full_address":"辽宁省鞍山市台安县高力房镇大高村"}},{"type":"Feature","geometry":{"type":"Point","coordinates":[122.460381,41.34737]},"properties":{"full_address":"辽宁省鞍山市台安县台安高新农业产业开发区除鞍山九股河食品有限责任公司厂区外的其他区域"}},{"type":"Feature","geometry":{"type":"Point","coordinates":[122.428558,41.400791]},"properties":{"full_address":"辽宁省鞍山市台安县八角台街道西郊社区除一百户小区4、5、9号楼外的其他区域"}},{"type":"Feature","geometry":{"type":"Point","coordinates":[122.53734,40.947502]},"properties":{"full_address":"辽宁省鞍山市海城市牛庄镇东关村御龙盛景小区"}},{"type":"Feature","geometry":{"type":"Point","coordinates":[122.534354,40.942542]},"properties":{"full_address":"辽宁省鞍山市海城市牛庄镇南关村"}},{"type":"Feature","geometry":{"type":"Point","coordinates":[122.448757,40.969433]},"properties":{"full_address":"辽宁省鞍山市海城市西四镇（除高风险区以外其他区域）"}},{"type":"Feature","geometry":{"type":"Point","coordinates":[122.527717,40.938756]},"properties":{"full_address":"辽宁省鞍山市海城市牛庄镇振兴村局部（路通桥路南起200米界，东起商业街路至铸造厂东路300米所辖区域）"}},{"type":"Feature","geometry":{"type":"Point","coordinates":[122.740715,40.862343]},"properties":{"full_address":"辽宁省鞍山市海城市兴海街道站前街幸福里小区1、2、3号楼和站前街13号楼"}},{"type":"Feature","geometry":{"type":"Point","coordinates":[122.51339,40.953701]},"properties":{"full_address":"辽宁省鞍山市海城市牛庄镇西头村"}},{"type":"Feature","geometry":{"type":"Point","coordinates":[123.89477,41.85769]},"properties":{"full_address":"辽宁省抚顺市新抚区站前街道白云社区西五路17号楼"}},{"type":"Feature","geometry":{"type":"Point","coordinates":[123.901777,41.860259]},"properties":{"full_address":"辽宁省抚顺市新抚区站前街道白云社区西五路18号楼1单元、2单元、3单元、4单元"}},{"type":"Feature","geometry":{"type":"Point","coordinates":[123.99398,41.890076]},"properties":{"full_address":"辽宁省抚顺市顺城区前甸镇东华园东区"}},{"type":"Feature","geometry":{"type":"Point","coordinates":[123.969841,41.882328]},"properties":{"full_address":"辽宁省抚顺市顺城区长春街道新湖国际一期"}},{"type":"Feature","geometry":{"type":"Point","coordinates":[123.854309,41.870651]},"properties":{"full_address":"辽宁省抚顺市顺城区葛布街道后葛南棚改2号楼"}},{"type":"Feature","geometry":{"type":"Point","coordinates":[123.854309,41.870651]},"properties":{"full_address":"辽宁省抚顺市顺城区葛布街道后葛南棚改4号楼"}},{"type":"Feature","geometry":{"type":"Point","coordinates":[123.8826,41.87059]},"properties":{"full_address":"辽宁省抚顺市顺城区将军堡街道梅河路67号楼"}},{"type":"Feature","geometry":{"type":"Point","coordinates":[123.882383,41.870873]},"properties":{"full_address":"辽宁省抚顺市顺城区将军堡街道梅河路67-1号楼"}},{"type":"Feature","geometry":{"type":"Point","coordinates":[123.881118,41.87055]},"properties":{"full_address":"辽宁省抚顺市顺城区将军堡街道梅河路69-1号楼"}},{"type":"Feature","geometry":{"type":"Point","coordinates":[123.935669,41.886669]},"properties":{"full_address":"辽宁省抚顺市顺城区新华街道顺新社区天茂家园小区"}},{"type":"Feature","geometry":{"type":"Point","coordinates":[123.927872,41.887959]},"properties":{"full_address":"辽宁省抚顺市顺城区抚顺城路东段（16-1、16-2、16-3、16-4）号楼门市房"}},{"type":"Feature","geometry":{"type":"Point","coordinates":[123.93542,41.88801]},"properties":{"full_address":"辽宁省抚顺市顺城区抚顺城路东段14号楼"}},{"type":"Feature","geometry":{"type":"Point","coordinates":[123.9354,41.88843]},"properties":{"full_address":"辽宁省抚顺市顺城区抚顺城路东段15号楼"}},{"type":"Feature","geometry":{"type":"Point","coordinates":[123.93602,41.886589]},"properties":{"full_address":"辽宁省抚顺市顺城区顺新楼院党员活动中心"}},{"type":"Feature","geometry":{"type":"Point","coordinates":[123.887276,41.876415]},"properties":{"full_address":"辽宁省抚顺市顺城区将军街道远方社区南山秀水小区"}},{"type":"Feature","geometry":{"type":"Point","coordinates":[124.917936,42.08959]},"properties":{"full_address":"辽宁省抚顺市清原满族自治县清原镇金台合苑2号楼"}},{"type":"Feature","geometry":{"type":"Point","coordinates":[124.943718,42.104183]},"properties":{"full_address":"辽宁省抚顺市清原满族自治县清原镇金台合苑3号楼"}},{"type":"Feature","geometry":{"type":"Point","coordinates":[124.918022,42.089561]},"properties":{"full_address":"辽宁省抚顺市清原满族自治县清原镇日新小区18号楼"}},{"type":"Feature","geometry":{"type":"Point","coordinates":[124.913059,42.097024]},"properties":{"full_address":"辽宁省抚顺市清原满族自治县清原镇金地家园16号楼"}},{"type":"Feature","geometry":{"type":"Point","coordinates":[124.937958,42.101059]},"properties":{"full_address":"辽宁省抚顺市清原满族自治县清原镇白云社区居委会（白云街兴隆路73号）"}},{"type":"Feature","geometry":{"type":"Point","coordinates":[124.912994,42.095337]},"properties":{"full_address":"辽宁省抚顺市清原满族自治县清原镇歆海湖畔一期（不含17号楼）"}},{"type":"Feature","geometry":{"type":"Point","coordinates":[124.918022,42.089561]},"properties":{"full_address":"辽宁省抚顺市清原满族自治县清原镇铁北和谐家园（不含8号楼）"}},{"type":"Feature","geometry":{"type":"Point","coordinates":[124.907059,42.094002]},"properties":{"full_address":"辽宁省抚顺市清原满族自治县清原镇盛和林业家园（不含5号楼）"}},{"type":"Feature","geometry":{"type":"Point","coordinates":[120.44337,41.553531]},"properties":{"full_address":"辽宁省朝阳市双塔区龙山街道文祥豪府一期西区63号、65号楼"}},{"type":"Feature","geometry":{"type":"Point","coordinates":[120.44783,41.59219]},"properties":{"full_address":"辽宁省朝阳市双塔区红旗街道辽河家园小区（除高风险区以外）"}},{"type":"Feature","geometry":{"type":"Point","coordinates":[120.456337,41.555]},"properties":{"full_address":"辽宁省朝阳市双塔区龙山街道凌河庄园小区（除高风险区以外）"}},{"type":"Feature","geometry":{"type":"Point","coordinates":[120.445374,41.553902]},"properties":{"full_address":"辽宁省朝阳市双塔区龙山街道文祥豪府小区（除高风险区以外）"}},{"type":"Feature","geometry":{"type":"Point","coordinates":[120.451424,41.54216]},"properties":{"full_address":"辽宁省朝阳市双塔区龙山街道光大领仕馆小区（除高风险区以外）"}},{"type":"Feature","geometry":{"type":"Point","coordinates":[120.427292,41.543743]},"properties":{"full_address":"辽宁省朝阳市双塔区龙山街道兴隆尚品小区（除高风险区以外）"}},{"type":"Feature","geometry":{"type":"Point","coordinates":[120.43145,41.544041]},"properties":{"full_address":"辽宁省朝阳市双塔区龙山街道三合家园小区（除高风险区以外）"}},{"type":"Feature","geometry":{"type":"Point","coordinates":[120.436653,41.574913]},"properties":{"full_address":"辽宁省朝阳市双塔区站南街道和平家园小区（除高风险区以外）"}},{"type":"Feature","geometry":{"type":"Point","coordinates":[120.457619,41.600544]},"properties":{"full_address":"辽宁省朝阳市双塔区凌河街道水岸华城小区（除高风险区以外）"}},{"type":"Feature","geometry":{"type":"Point","coordinates":[120.45152,41.57535]},"properties":{"full_address":"辽宁省朝阳市双塔区光明街道朝阳大街三段5号楼"}},{"type":"Feature","geometry":{"type":"Point","coordinates":[120.426392,41.604782]},"properties":{"full_address":"辽宁省朝阳市龙城区龙泉街道桃源雅居小区（除高风险区以外）"}},{"type":"Feature","geometry":{"type":"Point","coordinates":[120.41923,41.540847]},"properties":{"full_address":"辽宁省朝阳市朝阳县柳城街道凌凤禽业有限公司"}},{"type":"Feature","geometry":{"type":"Point","coordinates":[120.42498,41.537601]},"properties":{"full_address":"辽宁省朝阳市朝阳县柳城街道柳城家园小区（除高风险区以外）"}},{"type":"Feature","geometry":{"type":"Point","coordinates":[120.948288,40.855583]},"properties":{"full_address":"辽宁省葫芦岛市连山区塔山乡孟屯村东、西孟屯"}},{"type":"Feature","geometry":{"type":"Point","coordinates":[120.895012,40.78297]},"properties":{"full_address":"辽宁省葫芦岛市连山区锦郊街道二台子村"}},{"type":"Feature","geometry":{"type":"Point","coordinates":[120.86422,40.75457]},"properties":{"full_address":"辽宁省葫芦岛市连山区站前街道群英街17号楼，站前街道群英街工会大厦，站前街道中央路17号楼"}},{"type":"Feature","geometry":{"type":"Point","coordinates":[120.903358,40.792351]},"properties":{"full_address":"辽宁省葫芦岛市连山区锦郊街道东兴村拉拉屯村除高风险区域外的其他区域"}},{"type":"Feature","geometry":{"type":"Point","coordinates":[120.62709,40.926102]},"properties":{"full_address":"辽宁省葫芦岛市连山区连山区钢屯镇钢西村、钢东村"}},{"type":"Feature","geometry":{"type":"Point","coordinates":[120.877365,40.767181]},"properties":{"full_address":"辽宁省葫芦岛市连山区连山街道上东盛景C区除高风险区域外的其他区域"}},{"type":"Feature","geometry":{"type":"Point","coordinates":[120.545685,40.941154]},"properties":{"full_address":"辽宁省葫芦岛市连山区山神庙子乡山西村山谷哨屯"}},{"type":"Feature","geometry":{"type":"Point","coordinates":[120.666817,41.03273]},"properties":{"full_address":"辽宁省葫芦岛市南票区暖池塘镇除高风险区外的其他区域"}},{"type":"Feature","geometry":{"type":"Point","coordinates":[119.857338,40.055229]},"properties":{"full_address":"辽宁省葫芦岛市绥中县万家镇王家庄（前街）"}},{"type":"Feature","geometry":{"type":"Point","coordinates":[125.335991,43.938992]},"properties":{"full_address":"吉林省长春市宽城区兴业街道紫金豪庭10栋"}},{"type":"Feature","geometry":{"type":"Point","coordinates":[125.331093,43.927135]},"properties":{"full_address":"吉林省长春市宽城区兴业街道新星宇和顺小区"}},{"type":"Feature","geometry":{"type":"Point","coordinates":[126.630628,45.660858]},"properties":{"full_address":"黑龙江省哈尔滨市香坊区朝阳镇前进村"}},{"type":"Feature","geometry":{"type":"Point","coordinates":[124.233307,47.552422]},"properties":{"full_address":"黑龙江省齐齐哈尔市富裕县塔哈工业园区除中建交通宿舍外其它区域"}},{"type":"Feature","geometry":{"type":"Point","coordinates":[130.261502,47.282211]},"properties":{"full_address":"黑龙江省鹤岗市兴安区光宇小区C8号楼"}},{"type":"Feature","geometry":{"type":"Point","coordinates":[127.500237,50.242584]},"properties":{"full_address":"黑龙江省黑河市爱辉区兴安街道热电社区和谐家园小区及附属门市"}},{"type":"Feature","geometry":{"type":"Point","coordinates":[127.52639,50.24456]},"properties":{"full_address":"黑龙江省黑河市爱辉区花园街道金兰社区华泰滨江锦苑小区"}},{"type":"Feature","geometry":{"type":"Point","coordinates":[127.53045,50.230125]},"properties":{"full_address":"黑龙江省黑河市爱辉区博文社区学府家园小区"}},{"type":"Feature","geometry":{"type":"Point","coordinates":[127.478416,50.244343]},"properties":{"full_address":"黑龙江省黑河市爱辉区海兰街道温馨社区北国明珠一期小区"}},{"type":"Feature","geometry":{"type":"Point","coordinates":[127.520004,50.242439]},"properties":{"full_address":"黑龙江省黑河市爱辉区花园街道金兰社区法官公寓小区及附属门市车库"}},{"type":"Feature","geometry":{"type":"Point","coordinates":[127.510841,50.233971]},"properties":{"full_address":"黑龙江省黑河市爱辉区花园街道博文社区交警家园三期小区及附属门市车库"}},{"type":"Feature","geometry":{"type":"Point","coordinates":[127.487724,50.251812]},"properties":{"full_address":"黑龙江省黑河市爱辉区兴安街道金融社区林业佳苑小区及附属门市车库"}},{"type":"Feature","geometry":{"type":"Point","coordinates":[127.528023,50.233143]},"properties":{"full_address":"黑龙江省黑河市爱辉区花园街道喇嘛台社区荣耀世纪小区及附属门市车库"}},{"type":"Feature","geometry":{"type":"Point","coordinates":[127.529472,50.232582]},"properties":{"full_address":"黑龙江省黑河市爱辉区中央东大街365号区域（不含6、9、10号楼）"}},{"type":"Feature","geometry":{"type":"Point","coordinates":[126.348717,46.255741]},"properties":{"full_address":"黑龙江省绥化市兰西县颜河街道金玉兰庭小区"}},{"type":"Feature","geometry":{"type":"Point","coordinates":[126.284767,46.244511]},"properties":{"full_address":"黑龙江省绥化市兰西县开元尚居小区5期3号楼"}},{"type":"Feature","geometry":{"type":"Point","coordinates":[126.242882,46.442631]},"properties":{"full_address":"黑龙江省绥化市兰西县北安乡北安村西围子屯"}},{"type":"Feature","geometry":{"type":"Point","coordinates":[125.964478,46.062111]},"properties":{"full_address":"黑龙江省绥化市肇东市清华名苑B区"}},{"type":"Feature","geometry":{"type":"Point","coordinates":[125.978378,46.054089]},"properties":{"full_address":"黑龙江省绥化市肇东市翔龙城小区19号楼"}},{"type":"Feature","geometry":{"type":"Point","coordinates":[125.978378,46.054089]},"properties":{"full_address":"黑龙江省绥化市肇东市 翔龙城小区9号商服"}},{"type":"Feature","geometry":{"type":"Point","coordinates":[125.988846,46.058033]},"properties":{"full_address":"黑龙江省绥化市肇东市 十四道街万福国际小区D1、A1、A2商服"}},{"type":"Feature","geometry":{"type":"Point","coordinates":[125.883644,45.705181]},"properties":{"full_address":"黑龙江省绥化市肇东市   人民医院门诊楼"}},{"type":"Feature","geometry":{"type":"Point","coordinates":[125.994423,46.073711]},"properties":{"full_address":"黑龙江省绥化市肇东市三道街新纪元商场"}},{"type":"Feature","geometry":{"type":"Point","coordinates":[125.971741,46.062702]},"properties":{"full_address":"黑龙江省绥化市肇东市宏盛丽园小区8A商服"}},{"type":"Feature","geometry":{"type":"Point","coordinates":[125.84317,46.003429]},"properties":{"full_address":"黑龙江省绥化市肇东市       正阳郡小区（除1号楼3单元）"}},{"type":"Feature","geometry":{"type":"Point","coordinates":[125.97448,46.060192]},"properties":{"full_address":"黑龙江省绥化市肇东市江山帝景小区（除F座4单元）"}},{"type":"Feature","geometry":{"type":"Point","coordinates":[125.99484,46.063321]},"properties":{"full_address":"黑龙江省绥化市肇东市巴黎花园小区"}},{"type":"Feature","geometry":{"type":"Point","coordinates":[125.977036,46.057766]},"properties":{"full_address":"黑龙江省绥化市肇东市翰林苑小区"}},{"type":"Feature","geometry":{"type":"Point","coordinates":[125.989502,46.070862]},"properties":{"full_address":"黑龙江省绥化市肇东市春天百货商场"}},{"type":"Feature","geometry":{"type":"Point","coordinates":[125.995911,46.072906]},"properties":{"full_address":"黑龙江省绥化市肇东市六道街外贸楼一楼商服"}},{"type":"Feature","geometry":{"type":"Point","coordinates":[125.995682,46.0742]},"properties":{"full_address":"黑龙江省绥化市肇东市第一百货商店"}},{"type":"Feature","geometry":{"type":"Point","coordinates":[121.469093,31.204451]},"properties":{"full_address":"上海市上海市黄浦区打浦桥街道打浦路38弄海华花园"}},{"type":"Feature","geometry":{"type":"Point","coordinates":[121.47088,31.204975]},"properties":{"full_address":"上海市上海市黄浦区打浦桥街道打浦路1号金玉兰广场4楼海底捞火锅店"}},{"type":"Feature","geometry":{"type":"Point","coordinates":[121.483751,31.226392]},"properties":{"full_address":"上海市上海市黄浦区豫园街道人民路875号"}},{"type":"Feature","geometry":{"type":"Point","coordinates":[121.45327,31.229601]},"properties":{"full_address":"上海市上海市黄浦区南京东路街道北京西路49号、55号"}},{"type":"Feature","geometry":{"type":"Point","coordinates":[121.432193,31.201327]},"properties":{"full_address":"上海市上海市长宁区新华路街道新华路24号（秋果酒店）"}},{"type":"Feature","geometry":{"type":"Point","coordinates":[121.444808,31.239794]},"properties":{"full_address":"上海市上海市静安区江宁路街道陕西北路1155弄"}},{"type":"Feature","geometry":{"type":"Point","coordinates":[121.442796,31.305375]},"properties":{"full_address":"上海市上海市静安区彭浦新村街道场中路2471弄小区"}},{"type":"Feature","geometry":{"type":"Point","coordinates":[121.460312,31.25186]},"properties":{"full_address":"上海市上海市静安区芷江西路街道三兴大楼小区"}},{"type":"Feature","geometry":{"type":"Point","coordinates":[121.46822,31.26403]},"properties":{"full_address":"上海市上海市静安区共和新路街道中山北路311号"}},{"type":"Feature","geometry":{"type":"Point","coordinates":[121.47707,31.25673]},"properties":{"full_address":"上海市上海市静安区宝山路街道宝山路420号"}},{"type":"Feature","geometry":{"type":"Point","coordinates":[121.461604,31.253318]},"properties":{"full_address":"上海市上海市静安区芷江西路街道兴新小区（中兴路1279弄、中兴路1321弄、中华新路612号、中华新路618号、中华新路630号、中华新路640号）"}},{"type":"Feature","geometry":{"type":"Point","coordinates":[121.419877,31.258178]},"properties":{"full_address":"上海市上海市普陀区石泉路街道品尊国际公寓（二期）"}},{"type":"Feature","geometry":{"type":"Point","coordinates":[121.430786,31.247526]},"properties":{"full_address":"上海市上海市普陀区长寿路街道中山北路2088号智选假日酒店"}},{"type":"Feature","geometry":{"type":"Point","coordinates":[121.448868,31.254799]},"properties":{"full_address":"上海市上海市普陀区宜川路街道嘉华苑小区"}},{"type":"Feature","geometry":{"type":"Point","coordinates":[121.4261,31.26459]},"properties":{"full_address":"上海市上海市普陀区甘泉路街道宜君路80弄小区"}},{"type":"Feature","geometry":{"type":"Point","coordinates":[121.428459,31.257923]},"properties":{"full_address":"上海市上海市普陀区石泉路街道华池路58弄新体育广场"}},{"type":"Feature","geometry":{"type":"Point","coordinates":[121.437286,31.260031]},"properties":{"full_address":"上海市上海市普陀区宜川路街道宜川二村78-83号、101-109号、122-127号"}},{"type":"Feature","geometry":{"type":"Point","coordinates":[121.443237,31.240511]},"properties":{"full_address":"上海市上海市普陀区长寿路街道九茂小区"}},{"type":"Feature","geometry":{"type":"Point","coordinates":[121.4412,31.2587]},"properties":{"full_address":"上海市上海市普陀区宜川路街道农林光新小区"}},{"type":"Feature","geometry":{"type":"Point","coordinates":[121.379814,31.23996]},"properties":{"full_address":"上海市上海市普陀区长征镇真光路962弄1幢、2幢、8幢、9幢"}},{"type":"Feature","geometry":{"type":"Point","coordinates":[121.50217,31.26396]},"properties":{"full_address":"上海市上海市虹口区嘉兴路街道瑞虹路233弄小区"}},{"type":"Feature","geometry":{"type":"Point","coordinates":[121.473664,31.27382]},"properties":{"full_address":"上海市上海市虹口区广中路街道水电路191弄小区"}},{"type":"Feature","geometry":{"type":"Point","coordinates":[121.497269,31.27356]},"properties":{"full_address":"上海市上海市虹口区欧阳路街道天宝第二小区（四平路幸福村289-293、299-315号，密云路250弄4-15号）"}},{"type":"Feature","geometry":{"type":"Point","coordinates":[121.529252,31.285356]},"properties":{"full_address":"上海市上海市杨浦区控江路街道靖宇中路58弄1-9号、60号、70号及其沿街商铺"}},{"type":"Feature","geometry":{"type":"Point","coordinates":[121.529361,31.334719]},"properties":{"full_address":"上海市上海市杨浦区殷行街道闸殷路81弄（包括沿街商铺）"}},{"type":"Feature","geometry":{"type":"Point","coordinates":[121.51631,31.28776]},"properties":{"full_address":"上海市上海市杨浦区五角场街道国权路95弄(包括沿街商铺)"}},{"type":"Feature","geometry":{"type":"Point","coordinates":[121.529808,31.28458]},"properties":{"full_address":"上海市上海市杨浦区控江路街道控江六村及其沿街商铺"}},{"type":"Feature","geometry":{"type":"Point","coordinates":[121.524933,31.28524]},"properties":{"full_address":"上海市上海市杨浦区控江路街道控江四村及其沿街商铺"}},{"type":"Feature","geometry":{"type":"Point","coordinates":[121.52071,31.28838]},"properties":{"full_address":"上海市上海市杨浦区五角场街道黄兴路1669弄（包括沿街商铺）"}},{"type":"Feature","geometry":{"type":"Point","coordinates":[121.52964,31.287991]},"properties":{"full_address":"上海市上海市杨浦区延吉新村街道控江五村小区 （包括沿街商铺）"}},{"type":"Feature","geometry":{"type":"Point","coordinates":[121.544044,31.290056]},"properties":{"full_address":"上海市上海市杨浦区长白新村街道安图路18弄益晖新苑小区（含一期和二期及沿街商铺）"}},{"type":"Feature","geometry":{"type":"Point","coordinates":[121.54392,31.29448]},"properties":{"full_address":"上海市上海市杨浦区长白新村街道延吉东路115弄小区（包括沿街商铺）"}},{"type":"Feature","geometry":{"type":"Point","coordinates":[121.52422,31.29862]},"properties":{"full_address":"上海市上海市杨浦区长海路街道双阳北路395弄"}},{"type":"Feature","geometry":{"type":"Point","coordinates":[121.46806,31.02712]},"properties":{"full_address":"上海市上海市闵行区吴泾镇东川路333弄紫竹半岛小区"}},{"type":"Feature","geometry":{"type":"Point","coordinates":[121.377414,31.164033]},"properties":{"full_address":"上海市上海市闵行区七宝镇漕宝路1555弄大上海国际花园9区、13区、17区"}},{"type":"Feature","geometry":{"type":"Point","coordinates":[121.351517,31.166451]},"properties":{"full_address":"上海市上海市闵行区七宝镇航新路88弄330号-376号三佳苑小区"}},{"type":"Feature","geometry":{"type":"Point","coordinates":[121.372551,31.175364]},"properties":{"full_address":"上海市上海市闵行区虹桥镇吴中路1588弄胡桃里音乐酒馆所在建筑主体（含地下美食广场）及周边商铺"}},{"type":"Feature","geometry":{"type":"Point","coordinates":[121.402939,31.18148]},"properties":{"full_address":"上海市上海市闵行区虹桥镇吴中路511弄古北新城二期、四期（112号-120号）小区"}},{"type":"Feature","geometry":{"type":"Point","coordinates":[121.376251,31.170612]},"properties":{"full_address":"上海市上海市闵行区虹桥镇吴中路1065号虹桥吉祥公寓"}},{"type":"Feature","geometry":{"type":"Point","coordinates":[121.425911,31.30077]},"properties":{"full_address":"上海市上海市宝山区大场镇场中路3658弄美好家小区"}},