{"type":"FeatureCollection","features":[{"type":"Feature","geometry":{"type":"Point","coordinates":[116.665218,40.183505]},"properties":{"full_address":"北京市顺义区双丰街道鲁能7号院溪园36号楼"}},{"type":"Feature","geometry":{"type":"Point","coordinates":[116.4348,39.78132]},"properties":{"full_address":"北京市大兴区旧宫（地区）镇上林苑小区除14号楼以外其他楼栋以及德茂小区29号楼、11号楼"}},{"type":"Feature","geometry":{"type":"Point","coordinates":[117.215088,39.147083]},"properties":{"full_address":"天津市天津市河东区春华街道新博园小区上述高风险区之外的其他楼"}},{"type":"Feature","geometry":{"type":"Point","coordinates":[114.474411,38.030061]},"properties":{"full_address":"河北省石家庄市桥西区工农路西菜园街19号院"}},{"type":"Feature","geometry":{"type":"Point","coordinates":[114.51799,36.553915]},"properties":{"full_address":"河北省邯郸市邯山区南堡乡南堡崔村"}},{"type":"Feature","geometry":{"type":"Point","coordinates":[114.51799,36.553915]},"properties":{"full_address":"河北省邯郸市邯山区南堡乡南堡前村"}},{"type":"Feature","geometry":{"type":"Point","coordinates":[114.518185,36.554068]},"properties":{"full_address":"河北省邯郸市邯山区南堡乡南堡李村"}},{"type":"Feature","geometry":{"type":"Point","coordinates":[114.954458,36.557063]},"properties":{"full_address":"河北省邯郸市肥乡区西吕营镇吕营市场"}},{"type":"Feature","geometry":{"type":"Point","coordinates":[115.713905,39.394317]},"properties":{"full_address":"河北省保定市涞水县县城建成区内除高风险区之外的区域"}},{"type":"Feature","geometry":{"type":"Point","coordinates":[115.944626,39.412591]},"properties":{"full_address":"河北省保定市涿州市松林店镇辖区内除高风险区之外的区域"}},{"type":"Feature","geometry":{"type":"Point","coordinates":[115.961543,39.389963]},"properties":{"full_address":"河北省保定市涿州市林屯镇辖区内除高风险区之外的区域"}},{"type":"Feature","geometry":{"type":"Point","coordinates":[115.552335,40.481462]},"properties":{"full_address":"河北省张家口市怀来县存瑞镇北三营村"}},{"type":"Feature","geometry":{"type":"Point","coordinates":[115.525557,40.401457]},"properties":{"full_address":"河北省张家口市怀来县沙城镇新开路"}},{"type":"Feature","geometry":{"type":"Point","coordinates":[116.340988,38.643491]},"properties":{"full_address":"河北省沧州市河间市卧佛堂镇后王庄村"}},{"type":"Feature","geometry":{"type":"Point","coordinates":[112.6606,37.484258]},"properties":{"full_address":"山西省晋中市太谷区胡村镇北阳村"}},{"type":"Feature","geometry":{"type":"Point","coordinates":[112.655066,37.472381]},"properties":{"full_address":"山西省晋中市太谷区胡村镇南阳村"}},{"type":"Feature","geometry":{"type":"Point","coordinates":[112.660359,37.480562]},"properties":{"full_address":"山西省晋中市太谷区胡村镇中阳村"}},{"type":"Feature","geometry":{"type":"Point","coordinates":[112.675792,37.498549]},"properties":{"full_address":"山西省晋中市太谷区胡村镇孟高村"}},{"type":"Feature","geometry":{"type":"Point","coordinates":[111.029588,35.036677]},"properties":{"full_address":"山西省运城市盐湖区御溪苑小区"}},{"type":"Feature","geometry":{"type":"Point","coordinates":[111.012518,35.058079]},"properties":{"full_address":"山西省运城市盐湖区壹家网咖"}},{"type":"Feature","geometry":{"type":"Point","coordinates":[111.012783,35.055575]},"properties":{"full_address":"山西省运城市盐湖区汉堡王快餐（大商联生活广场店）"}},{"type":"Feature","geometry":{"type":"Point","coordinates":[111.011615,35.027189]},"properties":{"full_address":"山西省运城市盐湖区雅典娜蛋糕(万达广场店）"}},{"type":"Feature","geometry":{"type":"Point","coordinates":[111.028409,35.033982]},"properties":{"full_address":"山西省运城市盐湖区运城市规划和自然资源局核酸采集点"}},{"type":"Feature","geometry":{"type":"Point","coordinates":[111.005867,35.022851]},"properties":{"full_address":"山西省运城市盐湖区荟萃小区核酸采集点"}},{"type":"Feature","geometry":{"type":"Point","coordinates":[111.035578,35.035097]},"properties":{"full_address":"山西省运城市盐湖区运城市中心医院核酸采集点"}},{"type":"Feature","geometry":{"type":"Point","coordinates":[111.030623,35.025477]},"properties":{"full_address":"山西省运城市盐湖区荣河1+1生鲜超市（盐湖城店）"}},{"type":"Feature","geometry":{"type":"Point","coordinates":[111.227218,35.129961]},"properties":{"full_address":"山西省运城市夏县南关村"}},{"type":"Feature","geometry":{"type":"Point","coordinates":[117.37853,49.597841]},"properties":{"full_address":"内蒙古自治区呼伦贝尔市满洲里市二卡新村"}},{"type":"Feature","geometry":{"type":"Point","coordinates":[117.45714,49.591791]},"properties":{"full_address":"内蒙古自治区呼伦贝尔市满洲里市北区街道海关路陆桥小区"}},{"type":"Feature","geometry":{"type":"Point","coordinates":[117.453271,49.59985]},"properties":{"full_address":"内蒙古自治区呼伦贝尔市满洲里市兴华街道学子家园"}},{"type":"Feature","geometry":{"type":"Point","coordinates":[117.464333,49.587176]},"properties":{"full_address":"内蒙古自治区呼伦贝尔市满洲里市富华小区"}},{"type":"Feature","geometry":{"type":"Point","coordinates":[117.37853,49.597841]},"properties":{"full_address":"内蒙古自治区呼伦贝尔市满洲里市红楼早市"}},{"type":"Feature","geometry":{"type":"Point","coordinates":[117.37853,49.597841]},"properties":{"full_address":"内蒙古自治区呼伦贝尔市满洲里市汇发夜市"}},{"type":"Feature","geometry":{"type":"Point","coordinates":[117.461287,49.590928]},"properties":{"full_address":"内蒙古自治区呼伦贝尔市满洲里市政北小区"}},{"type":"Feature","geometry":{"type":"Point","coordinates":[111.9976,43.644991]},"properties":{"full_address":"内蒙古自治区锡林郭勒盟二连浩特市迎宾路东一街坊（十栋平房及东侧大院）"}},{"type":"Feature","geometry":{"type":"Point","coordinates":[111.987084,43.633536]},"properties":{"full_address":"内蒙古自治区锡林郭勒盟二连浩特市景典小区"}},{"type":"Feature","geometry":{"type":"Point","coordinates":[121.582668,38.943009]},"properties":{"full_address":"辽宁省大连市沙河口区三合大厦"}},{"type":"Feature","geometry":{"type":"Point","coordinates":[123.847072,42.29854]},"properties":{"full_address":"辽宁省铁岭市银州区柴河街以东、龙首山以西，北至北市路、南至南马路的区域（除3个高风险区外）"}},{"type":"Feature","geometry":{"type":"Point","coordinates":[123.753348,47.866652]},"properties":{"full_address":"黑龙江省齐齐哈尔市甘南县双河农场南方熟食店"}},{"type":"Feature","geometry":{"type":"Point","coordinates":[123.753348,47.866652]},"properties":{"full_address":"黑龙江省齐齐哈尔市甘南县双河农场七彩复印社"}},{"type":"Feature","geometry":{"type":"Point","coordinates":[123.515214,47.914238]},"properties":{"full_address":"黑龙江省齐齐哈尔市甘南县王子花苑小区除6号楼外其他区域"}},{"type":"Feature","geometry":{"type":"Point","coordinates":[123.513844,47.912342]},"properties":{"full_address":"黑龙江省齐齐哈尔市甘南县红太阳美发店"}},{"type":"Feature","geometry":{"type":"Point","coordinates":[125.109397,46.598266]},"properties":{"full_address":"黑龙江省大庆市萨尔图区东风街道东风新村花样年华小区"}},{"type":"Feature","geometry":{"type":"Point","coordinates":[125.114361,46.598594]},"properties":{"full_address":"黑龙江省大庆市萨尔图区东风街道东风新村香榭丽小区"}},{"type":"Feature","geometry":{"type":"Point","coordinates":[125.105088,46.592829]},"properties":{"full_address":"黑龙江省大庆市萨尔图区东风街道东风新村H高层"}},{"type":"Feature","geometry":{"type":"Point","coordinates":[125.112994,46.597379]},"properties":{"full_address":"黑龙江省大庆市萨尔图区东风街道东风新村东安阳光公寓"}},{"type":"Feature","geometry":{"type":"Point","coordinates":[125.11196,46.59584]},"properties":{"full_address":"黑龙江省大庆市萨尔图区东风街道东风新村义耕小区（含东安市场）"}},{"type":"Feature","geometry":{"type":"Point","coordinates":[125.111514,46.5999]},"properties":{"full_address":"黑龙江省大庆市萨尔图区东风街道东风新村二区新源小区A、B、C、D组团"}},{"type":"Feature","geometry":{"type":"Point","coordinates":[125.102539,46.598395]},"properties":{"full_address":"黑龙江省大庆市萨尔图区东风街道东风新村经三街商服组团（利民医院周边）"}},{"type":"Feature","geometry":{"type":"Point","coordinates":[125.128509,46.624688]},"properties":{"full_address":"黑龙江省大庆市萨尔图区东安街道东风新村四区"}},{"type":"Feature","geometry":{"type":"Point","coordinates":[125.085646,46.70192]},"properties":{"full_address":"黑龙江省大庆市萨尔图区火炬街道萨北社区"}},{"type":"Feature","geometry":{"type":"Point","coordinates":[125.125254,46.649958]},"properties":{"full_address":"黑龙江省大庆市萨尔图区火炬街道慧园社区"}},{"type":"Feature","geometry":{"type":"Point","coordinates":[125.107148,46.604747]},"properties":{"full_address":"黑龙江省大庆市萨尔图区绿园街道书香名邸小区9-1号楼"}},{"type":"Feature","geometry":{"type":"Point","coordinates":[125.10019,46.602059]},"properties":{"full_address":"黑龙江省大庆市萨尔图区东风街道东风新村4-28号楼"}},{"type":"Feature","geometry":{"type":"Point","coordinates":[125.146419,46.675729]},"properties":{"full_address":"黑龙江省大庆市萨尔图区火炬街道721职业学院北校区"}},{"type":"Feature","geometry":{"type":"Point","coordinates":[125.096952,46.601551]},"properties":{"full_address":"黑龙江省大庆市萨尔图区绿园街道益民墨哥粥铺"}},{"type":"Feature","geometry":{"type":"Point","coordinates":[125.132379,46.578425]},"properties":{"full_address":"黑龙江省大庆市萨尔图区绿园街道东风新村0-10号楼"}},{"type":"Feature","geometry":{"type":"Point","coordinates":[125.07653,46.59812]},"properties":{"full_address":"黑龙江省大庆市萨尔图区会战街道中林小区时畅生活超市"}},{"type":"Feature","geometry":{"type":"Point","coordinates":[125.07653,46.59812]},"properties":{"full_address":"黑龙江省大庆市萨尔图区会战街道中林小区1-47楼到1-50楼"}},{"type":"Feature","geometry":{"type":"Point","coordinates":[125.07653,46.59812]},"properties":{"full_address":"黑龙江省大庆市萨尔图区会战街道中林小区1-52楼"}},{"type":"Feature","geometry":{"type":"Point","coordinates":[125.07653,46.59812]},"properties":{"full_address":"黑龙江省大庆市萨尔图区会战街道中林小区1-55楼到1-57楼"}},{"type":"Feature","geometry":{"type":"Point","coordinates":[125.07653,46.59812]},"properties":{"full_address":"黑龙江省大庆市萨尔图区会战街道中林小区1-62楼"}},{"type":"Feature","geometry":{"type":"Point","coordinates":[125.003973,46.593124]},"properties":{"full_address":"黑龙江省大庆市萨尔图区萨尔图区街道铁西馨民苑A04号楼栋"}},{"type":"Feature","geometry":{"type":"Point","coordinates":[125.01301,46.581985]},"properties":{"full_address":"黑龙江省大庆市萨尔图区萨尔图街道萨环东路北侧旧货市场"}},{"type":"Feature","geometry":{"type":"Point","coordinates":[125.138817,46.576997]},"properties":{"full_address":"黑龙江省大庆市萨尔图区（高新区）景程小区"}},{"type":"Feature","geometry":{"type":"Point","coordinates":[125.012541,46.578895]},"properties":{"full_address":"黑龙江省大庆市萨尔图区萨尔图街道萨环东路南侧建材市场、陶瓷大市场除高风险区以外的其他区域、五交化所属区域"}},{"type":"Feature","geometry":{"type":"Point","coordinates":[125.07653,46.59812]},"properties":{"full_address":"黑龙江省大庆市萨尔图区会战街道中林小区1-53楼"}},{"type":"Feature","geometry":{"type":"Point","coordinates":[125.117977,46.534987]},"properties":{"full_address":"黑龙江省大庆市龙凤区铁路小区5号楼"}},{"type":"Feature","geometry":{"type":"Point","coordinates":[124.85659,46.635808]},"properties":{"full_address":"黑龙江省大庆市让胡路区西苑街报废库"}},{"type":"Feature","geometry":{"type":"Point","coordinates":[124.884818,46.541411]},"properties":{"full_address":"黑龙江省大庆市让胡路区乘风庄炼化公司厂前区A楼"}},{"type":"Feature","geometry":{"type":"Point","coordinates":[127.520693,50.235812]},"properties":{"full_address":"黑龙江省黑河市爱辉区花园街道博文社区星辉小区6号楼楼下门市龙江路146号（王志国内科诊所、大众医药）"}},{"type":"Feature","geometry":{"type":"Point","coordinates":[127.520141,50.235805]},"properties":{"full_address":"黑龙江省黑河市爱辉区花园街道龙江路148号（福利堂中草药有限责任公司）"}},{"type":"Feature","geometry":{"type":"Point","coordinates":[127.520041,50.235776]},"properties":{"full_address":"黑龙江省黑河市爱辉区花园街道龙江路150号（兔宝宝全屋定制）"}},{"type":"Feature","geometry":{"type":"Point","coordinates":[127.519912,50.235744]},"properties":{"full_address":"黑龙江省黑河市爱辉区花园街道龙江路150-2号（美大集成灶）"}},{"type":"Feature","geometry":{"type":"Point","coordinates":[127.516412,50.235128]},"properties":{"full_address":"黑龙江省黑河市爱辉区花园街道博文社区警苑小区（不包含警苑小区2号楼及附属门市楼）"}},{"type":"Feature","geometry":{"type":"Point","coordinates":[127.466921,50.210306]},"properties":{"full_address":"黑龙江省黑河市爱辉区幸福乡上二公村（不包含永兴旺超市西侧路口道南某阳性感染者住所及周边8户住宅）"}},{"type":"Feature","geometry":{"type":"Point","coordinates":[127.516533,50.240419]},"properties":{"full_address":"黑龙江省黑河市爱辉区花园街道长海社区金盾小区（不含2号楼）"}},{"type":"Feature","geometry":{"type":"Point","coordinates":[127.514709,50.239951]},"properties":{"full_address":"黑龙江省黑河市爱辉区花园街道长海社区龙滨花园小区（不含4号楼）"}},{"type":"Feature","geometry":{"type":"Point","coordinates":[121.409313,31.271582]},"properties":{"full_address":"上海市上海市普陀区万里街道新村路1717弄19、21、23号"}},{"type":"Feature","geometry":{"type":"Point","coordinates":[121.551644,31.311702]},"properties":{"full_address":"上海市上海市杨浦区长海路街道民星路158号、160号、162号（包括沿街商铺）"}},{"type":"Feature","geometry":{"type":"Point","coordinates":[121.40999,31.29972]},"properties":{"full_address":"上海市上海市宝山区大场镇南大路12弄洛河桥小区"}},{"type":"Feature","geometry":{"type":"Point","coordinates":[118.642982,32.036529]},"properties":{"full_address":"江苏省南京市江北新区盘城街道盘城社区管西组东北片"}},{"type":"Feature","geometry":{"type":"Point","coordinates":[118.735953,32.069207]},"properties":{"full_address":"江苏省南京市江北新区泰山街道大桥北路12号桥北菜场内外铺9号门面房（燕子理发店）"}},{"type":"Feature","geometry":{"type":"Point","coordinates":[121.602764,29.801329]},"properties":{"full_address":"浙江省宁波市鄞州区下应街道东兴小区最北面，南至东兴社区居委会前主干道，东至启明南路，西至东兴内河"}},{"type":"Feature","geometry":{"type":"Point","coordinates":[120.287275,27.662381]},"properties":{"full_address":"浙江省温州市平阳县凤卧镇平凤村"}},{"type":"Feature","geometry":{"type":"Point","coordinates":[120.288171,27.662123]},"properties":{"full_address":"浙江省温州市平阳县凤卧镇凤东村"}},{"type":"Feature","geometry":{"type":"Point","coordinates":[120.336952,27.63605]},"properties":{"full_address":"浙江省温州市平阳县水头镇亿豪名邸小区"}},{"type":"Feature","geometry":{"type":"Point","coordinates":[116.709435,30.566508]},"properties":{"full_address":"安徽省安庆市怀宁县三桥镇南方村（可丛组和东风组除外）"}},{"type":"Feature","geometry":{"type":"Point","coordinates":[116.766514,30.59753]},"properties":{"full_address":"安徽省安庆市怀宁县黄墩镇独秀山居委会（和谐东路174号和老梗组除外）"}},{"type":"Feature","geometry":{"type":"Point","coordinates":[116.789851,30.605713]},"properties":{"full_address":"安徽省安庆市怀宁县黄墩镇岭北村（立新组、楼西组和大塘组除外）"}},{"type":"Feature","geometry":{"type":"Point","coordinates":[116.789861,30.570046]},"properties":{"full_address":"安徽省安庆市怀宁县黄墩镇花山村（背屋组除外）"}},{"type":"Feature","geometry":{"type":"Point","coordinates":[116.712837,30.55099]},"properties":{"full_address":"安徽省安庆市怀宁县清河乡清河社区（清河街除外）"}},{"type":"Feature","geometry":{"type":"Point","coordinates":[116.76941,30.555585]},"properties":{"full_address":"安徽省安庆市怀宁县清河乡硖石村（何老组除外）"}},{"type":"Feature","geometry":{"type":"Point","coordinates":[116.790583,30.58516]},"properties":{"full_address":"安徽省安庆市怀宁县黄墩镇皖埠村（小屋组除外）"}},{"type":"Feature","geometry":{"type":"Point","coordinates":[119.530094,26.205833]},"properties":{"full_address":"福建省福州市连江县凤城镇丹凤西路8号树德学校"}},{"type":"Feature","geometry":{"type":"Point","coordinates":[118.618252,24.7424]},"properties":{"full_address":"福建省泉州市晋江市永和镇晋南快通—西坑村石材街（含石材街两侧房屋）—西坑群星路围合区域"}},{"type":"Feature","geometry":{"type":"Point","coordinates":[118.554973,24.670996]},"properties":{"full_address":"福建省泉州市晋江市永和镇东至锦石大道(与晋南快通相接)—西至三兴石材厂—南至锦石大道(锦岭工业区交界)—北至将军山（与邵厝交界）的围合区域"}},{"type":"Feature","geometry":{"type":"Point","coordinates":[117.035637,28.241676]},"properties":{"full_address":"江西省鹰潭市月湖区凯翔新天地小红帽幼儿园"}},{"type":"Feature","geometry":{"type":"Point","coordinates":[117.03386,28.23588]},"properties":{"full_address":"江西省鹰潭市月湖区四青街道西站社区铁路新村10号楼1、2单元"}},{"type":"Feature","geometry":{"type":"Point","coordinates":[117.037137,28.239153]},"properties":{"full_address":"江西省鹰潭市月湖区御玺堂足疗馆"}},{"type":"Feature","geometry":{"type":"Point","coordinates":[117.0656,28.2613]},"properties":{"full_address":"江西省鹰潭市月湖区鹰潭市供电北苑招待所"}},{"type":"Feature","geometry":{"type":"Point","coordinates":[117.054536,28.238733]},"properties":{"full_address":"江西省鹰潭市月湖区梅园街道东二村南片区（除32栋）"}},{"type":"Feature","geometry":{"type":"Point","coordinates":[117.054536,28.238733]},"properties":{"full_address":"江西省鹰潭市月湖区梅园街道东二村南片区32栋"}},{"type":"Feature","geometry":{"type":"Point","coordinates":[117.216554,28.284155]},"properties":{"full_address":"江西省鹰潭市贵溪市东门街道筲箕山社区筲箕山菜市场"}},{"type":"Feature","geometry":{"type":"Point","coordinates":[117.224172,28.288766]},"properties":{"full_address":"江西省鹰潭市贵溪市东门街道贵电社区阳光花城（除11栋、12栋）"}},{"type":"Feature","geometry":{"type":"Point","coordinates":[117.214696,28.287539]},"properties":{"full_address":"江西省鹰潭市贵溪市东门街道信江社区石油公司"}},{"type":"Feature","geometry":{"type":"Point","coordinates":[117.221285,28.287311]},"properties":{"full_address":"江西省鹰潭市贵溪市东门街道筲箕山社区御水苑小区"}},{"type":"Feature","geometry":{"type":"Point","coordinates":[117.210203,28.270002]},"properties":{"full_address":"江西省鹰潭市贵溪市雄石街道象山村狮源樊家"}},{"type":"Feature","geometry":{"type":"Point","coordinates":[117.241065,28.306482]},"properties":{"full_address":"江西省鹰潭市贵溪市花园街道铜城社区铜苑小区"}},{"type":"Feature","geometry":{"type":"Point","coordinates":[117.250632,28.294641]},"properties":{"full_address":"江西省鹰潭市贵溪市花园街道四冶社区3区"}},{"type":"Feature","geometry":{"type":"Point","coordinates":[117.187095,28.285464]},"properties":{"full_address":"江西省鹰潭市贵溪市滨江镇御园小区"}},{"type":"Feature","geometry":{"type":"Point","coordinates":[117.195049,28.305886]},"properties":{"full_address":"江西省鹰潭市贵溪市滨江镇黄坑村塘背组"}},{"type":"Feature","geometry":{"type":"Point","coordinates":[117.238938,28.290104]},"properties":{"full_address":"江西省鹰潭市贵溪市花园街道晋兴社区福润印象城商场"}},{"type":"Feature","geometry":{"type":"Point","coordinates":[117.228249,28.291182]},"properties":{"full_address":"江西省鹰潭市贵溪市花园街道白果社区凤凰城小区123栋"}},{"type":"Feature","geometry":{"type":"Point","coordinates":[117.209849,28.292644]},"properties":{"full_address":"江西省鹰潭市贵溪市东门街道雄石社区新都花苑小区（除1栋、5栋外）"}},{"type":"Feature","geometry":{"type":"Point","coordinates":[117.224703,28.282897]},"properties":{"full_address":"江西省鹰潭市贵溪市东门街道芗溪社区电厂东区（除6栋、13栋、阳光花苑G栋2单元外）"}},{"type":"Feature","geometry":{"type":"Point","coordinates":[117.226447,28.289037]},"properties":{"full_address":"江西省鹰潭市贵溪市东门街道筲箕山社区商场波浪街"}},{"type":"Feature","geometry":{"type":"Point","coordinates":[117.221573,28.273296]},"properties":{"full_address":"江西省鹰潭市贵溪市雄石街道仙桥社区福达家园小区（除瑞景楼外）"}},{"type":"Feature","geometry":{"type":"Point","coordinates":[117.202858,28.526333]},"properties":{"full_address":"江西省鹰潭市贵溪市周坊镇杨家村刘子华组"}},{"type":"Feature","geometry":{"type":"Point","coordinates":[117.251201,28.332984]},"properties":{"full_address":"江西省鹰潭市贵溪市滨江镇滨江社区祥和小区"}},{"type":"Feature","geometry":{"type":"Point","coordinates":[117.17761,28.271693]},"properties":{"full_address":"江西省鹰潭市贵溪市滨江镇长石社区幸福小区"}},{"type":"Feature","geometry":{"type":"Point","coordinates":[117.180706,28.371181]},"properties":{"full_address":"江西省鹰潭市贵溪市泗沥镇东洪村刑源组"}},{"type":"Feature","geometry":{"type":"Point","coordinates":[117.210746,28.297872]},"properties":{"full_address":"江西省鹰潭市贵溪市东门街道城北社区和谐小区"}},{"type":"Feature","geometry":{"type":"Point","coordinates":[117.215577,28.283536]},"properties":{"full_address":"江西省鹰潭市贵溪市东门街道江边社区雄石东路国税局旁"}},{"type":"Feature","geometry":{"type":"Point","coordinates":[117.216597,28.283792]},"properties":{"full_address":"江西省鹰潭市贵溪市东门街道江边社区木材公司宿舍楼"}},{"type":"Feature","geometry":{"type":"Point","coordinates":[117.210782,28.295505]},"properties":{"full_address":"江西省鹰潭市贵溪市东门街道雄石社区柏里大道方家岭"}},{"type":"Feature","geometry":{"type":"Point","coordinates":[117.211314,28.317085]},"properties":{"full_address":"江西省鹰潭市贵溪市滨江镇柏里村委会鲤塘组"}},{"type":"Feature","geometry":{"type":"Point","coordinates":[117.229104,28.448686]},"properties":{"full_address":"江西省鹰潭市贵溪市泗沥镇赤石村吕家组"}},{"type":"Feature","geometry":{"type":"Point","coordinates":[117.134092,28.371587]},"properties":{"full_address":"江西省鹰潭市贵溪市泗沥镇何家村樊上何家组"}},{"type":"Feature","geometry":{"type":"Point","coordinates":[117.236779,28.294024]},"properties":{"full_address":"江西省鹰潭市贵溪市花园街道白果社区阳光时尚广场A1区"}},{"type":"Feature","geometry":{"type":"Point","coordinates":[117.020574,28.2384]},"properties":{"full_address":"江西省鹰潭市贵溪市花园街道花园社区江二组"}},{"type":"Feature","geometry":{"type":"Point","coordinates":[117.020574,28.2384]},"properties":{"full_address":"江西省鹰潭市贵溪市花园街道武陵社区中央公园"}},{"type":"Feature","geometry":{"type":"Point","coordinates":[117.224225,28.27878]},"properties":{"full_address":"江西省鹰潭市贵溪市花园街道武陵社区信江国际1期"}},{"type":"Feature","geometry":{"type":"Point","coordinates":[117.381661,28.102992]},"properties":{"full_address":"江西省鹰潭市贵溪市文坊镇沙垅村前进组"}},{"type":"Feature","geometry":{"type":"Point","coordinates":[117.221301,28.290043]},"properties":{"full_address":"江西省鹰潭市贵溪市东门街道石林社区嘉裕花苑小区"}},{"type":"Feature","geometry":{"type":"Point","coordinates":[117.240909,28.31549]},"properties":{"full_address":"江西省鹰潭市贵溪市花园街道高石社区、贵化社区"}},{"type":"Feature","geometry":{"type":"Point","coordinates":[117.142054,27.998226]},"properties":{"full_address":"江西省鹰潭市贵溪市耳口乡圳上村"}},{"type":"Feature","geometry":{"type":"Point","coordinates":[117.319013,28.06544]},"properties":{"full_address":"江西省鹰潭市贵溪市文坊镇斗楼村、沙垅村"}},{"type":"Feature","geometry":{"type":"Point","coordinates":[117.141674,28.156775]},"properties":{"full_address":"江西省鹰潭市贵溪市罗河镇太田村、翁源村、罗田村、新区、贵碧村、周家村"}},{"type":"Feature","geometry":{"type":"Point","coordinates":[117.194147,28.233093]},"properties":{"full_address":"江西省鹰潭市贵溪市雷溪镇张桥村、富港村"}},{"type":"Feature","geometry":{"type":"Point","coordinates":[117.134092,28.371587]},"properties":{"full_address":"江西省鹰潭市贵溪市泗沥镇尹家村、中村村、东洪村、赤石村、何家村"}},{"type":"Feature","geometry":{"type":"Point","coordinates":[117.148813,28.303727]},"properties":{"full_address":"江西省鹰潭市贵溪市滨江镇青石桥村、洪塘村、江南村、黄坑村、铜都村（除五里台吴家）、浮桥村、柏里村（除竹山组）、金沙村、江北村"}},{"type":"Feature","geometry":{"type":"Point","coordinates":[117.247166,28.235862]},"properties":{"full_address":"江西省鹰潭市贵溪市流口镇新溪村、横路村、李源村"}},{"type":"Feature","geometry":{"type":"Point","coordinates":[117.274859,28.324829]},"properties":{"full_address":"江西省鹰潭市贵溪市河潭镇集镇、九夏村"}},{"type":"Feature","geometry":{"type":"Point","coordinates":[117.218409,28.289561]},"properties":{"full_address":"江西省鹰潭市贵溪市东门街道城北社区、雄石社区、木丝岭社区、江边社区、筲箕山社区、芗溪社区、贵电社区、石林社区"}},{"type":"Feature","geometry":{"type":"Point","coordinates":[117.205584,28.281802]},"properties":{"full_address":"江西省鹰潭市贵溪市雄石街道北街社区、西街社区、象山村、南街社区、仙桥社区、挂榜山社区、东街社区"}},{"type":"Feature","geometry":{"type":"Point","coordinates":[117.249823,28.290564]},"properties":{"full_address":"江西省鹰潭市贵溪市花园街道建设社区、紫金堂社区、白果社区、武陵社区、铜城社区、晋兴社区、花园社区、四冶社区"}},{"type":"Feature","geometry":{"type":"Point","coordinates":[117.245497,28.292519]},"properties":{"full_address":"江西省鹰潭市贵溪市彭弯乡集镇"}},{"type":"Feature","geometry":{"type":"Point","coordinates":[117.149913,28.199119]},"properties":{"full_address":"江西省鹰潭市贵溪市罗河镇杨桥村"}},{"type":"Feature","geometry":{"type":"Point","coordinates":[117.137978,28.2602]},"properties":{"full_address":"江西省鹰潭市贵溪市罗河镇潜岭村、童源村"}},{"type":"Feature","geometry":{"type":"Point","coordinates":[117.192094,28.258935]},"properties":{"full_address":"江西省鹰潭市贵溪市雄石街道挂榜山社区"}},{"type":"Feature","geometry":{"type":"Point","coordinates":[117.189753,28.28998]},"properties":{"full_address":"江西省鹰潭市贵溪市滨江镇浮桥村潭湾周家"}},{"type":"Feature","geometry":{"type":"Point","coordinates":[117.214696,28.287539]},"properties":{"full_address":"江西省鹰潭市贵溪市东门街道信江社区"}},{"type":"Feature","geometry":{"type":"Point","coordinates":[117.250407,28.274326]},"properties":{"full_address":"江西省鹰潭市贵溪市流口镇龙腾山庄小区"}},{"type":"Feature","geometry":{"type":"Point","coordinates":[117.044,28.259853]},"properties":{"full_address":"江西省鹰潭市信江新区夏埠乡祝家社区和佳园5栋"}},{"type":"Feature","geometry":{"type":"Point","coordinates":[117.051893,28.264648]},"properties":{"full_address":"江西省鹰潭市信江新区夏埠乡滨江社区恒大二期（除26栋）所有楼栋"}},{"type":"Feature","geometry":{"type":"Point","coordinates":[117.051893,28.264648]},"properties":{"full_address":"江西省鹰潭市信江新区夏埠乡滨江社区恒大一期（除9栋）所有楼栋"}},{"type":"Feature","geometry":{"type":"Point","coordinates":[117.043479,28.261154]},"properties":{"full_address":"江西省鹰潭市信江新区夏埠乡祝家社区和佳园（除5栋）所有楼栋"}},{"type":"Feature","geometry":{"type":"Point","coordinates":[112.159722,34.714531]},"properties":{"full_address":"河南省洛阳市新安县汉关街道河南社区利民小区5号楼之外的区域"}},{"type":"Feature","geometry":{"type":"Point","coordinates":[112.150874,34.726386]},"properties":{"full_address":"河南省洛阳市新安县汉关街道学林社区亚威金城1区"}},{"type":"Feature","geometry":{"type":"Point","coordinates":[112.4748,34.161569]},"properties":{"full_address":"河南省洛阳市汝阳县城关镇刘伶路北段今晚友聚饭店"}},{"type":"Feature","geometry":{"type":"Point","coordinates":[112.478357,34.151426]},"properties":{"full_address":"河南省洛阳市汝阳县城关镇刘伶路206号"}},{"type":"Feature","geometry":{"type":"Point","coordinates":[112.477608,34.155047]},"properties":{"full_address":"河南省洛阳市汝阳县城关镇人民路西段85号"}},{"type":"Feature","geometry":{"type":"Point","coordinates":[112.467915,34.151383]},"properties":{"full_address":"河南省洛阳市汝阳县城关镇隆盛路中段6号楼1门市"}},{"type":"Feature","geometry":{"type":"Point","coordinates":[112.474556,34.148672]},"properties":{"full_address":"河南省洛阳市汝阳县城关镇凤山南路139号"}},{"type":"Feature","geometry":{"type":"Point","coordinates":[112.473968,34.15374]},"properties":{"full_address":"河南省洛阳市汝阳县城关镇人民路51号"}},{"type":"Feature","geometry":{"type":"Point","coordinates":[111.18378,34.775704]},"properties":{"full_address":"河南省三门峡市湖滨区涧河街道六西社区域内除高风险区以外其他区域"}},{"type":"Feature","geometry":{"type":"Point","coordinates":[111.216673,34.780489]},"properties":{"full_address":"河南省三门峡市湖滨区湖滨街道桥西社区域内除高风险区以外其他区域"}},{"type":"Feature","geometry":{"type":"Point","coordinates":[111.187042,34.780091]},"properties":{"full_address":"河南省三门峡市湖滨区前进街道大岭路社区域内除高风险区以外其他区域"}},{"type":"Feature","geometry":{"type":"Point","coordinates":[111.202319,34.787201]},"properties":{"full_address":"河南省三门峡市湖滨区前进街道六楼社区域内除高风险区以外其他区域"}},{"type":"Feature","geometry":{"type":"Point","coordinates":[111.222798,34.768526]},"properties":{"full_address":"河南省三门峡市湖滨区车站街道东风社区域内除高风险区以外其他区域"}},{"type":"Feature","geometry":{"type":"Point","coordinates":[111.192849,34.770644]},"properties":{"full_address":"河南省三门峡市湖滨区涧河街道五原路社区域内除高风险区以外其他区域"}},{"type":"Feature","geometry":{"type":"Point","coordinates":[111.211535,34.77508]},"properties":{"full_address":"河南省三门峡市湖滨区崖底街道师家渠村域内除高风险区以外其他区域"}},{"type":"Feature","geometry":{"type":"Point","coordinates":[111.231324,34.75852]},"properties":{"full_address":"河南省三门峡市湖滨区车站街道峡东社区域内除高风险区以外其他区域"}},{"type":"Feature","geometry":{"type":"Point","coordinates":[111.227496,34.765492]},"properties":{"full_address":"河南省三门峡市湖滨区车站街道文峪社区域内除高风险区以外其他区域"}},{"type":"Feature","geometry":{"type":"Point","coordinates":[111.209967,34.754828]},"properties":{"full_address":"河南省三门峡市湖滨区涧河街道德馨苑社区域内除高风险区以外其他区域"}},{"type":"Feature","geometry":{"type":"Point","coordinates":[111.212606,34.766886]},"properties":{"full_address":"河南省三门峡市湖滨区涧河街道文二社区域内除高风险区以外其他区域"}},{"type":"Feature","geometry":{"type":"Point","coordinates":[111.206079,34.786218]},"properties":{"full_address":"河南省三门峡市湖滨区湖滨街道建设社区域内除高风险区以外其他区域"}},{"type":"Feature","geometry":{"type":"Point","coordinates":[111.225738,34.780968]},"properties":{"full_address":"河南省三门峡市湖滨区会兴街道上村域内除高风险区以外其他区域"}},{"type":"Feature","geometry":{"type":"Point","coordinates":[111.174557,34.765596]},"properties":{"full_address":"河南省三门峡市湖滨区崖底街道商务中心社区合鑫中央公园除高风险区外的其他区域"}},{"type":"Feature","geometry":{"type":"Point","coordinates":[115.342431,34.406641]},"properties":{"full_address":"河南省商丘市宁陵县柳河镇邵庄村委除北郭庄村外其他自然村"}},{"type":"Feature","geometry":{"type":"Point","coordinates":[116.403742,34.263704]},"properties":{"full_address":"河南省商丘市夏邑县韩道口镇政府路五金店（东到穆家饭庄、西到红绿灯十字路口、南到南环路、北到韩桑路）"}},{"type":"Feature","geometry":{"type":"Point","coordinates":[115.771245,34.401423]},"properties":{"full_address":"河南省商丘市城乡一体化示范区张阁镇幸福路以北、运河以南、利民路以西、老街以东合围区域"}},{"type":"Feature","geometry":{"type":"Point","coordinates":[115.055689,32.136086]},"properties":{"full_address":"河南省信阳市潢川县汽车站全域"}},{"type":"Feature","geometry":{"type":"Point","coordinates":[115.05598,32.138426]},"properties":{"full_address":"河南省信阳市潢川县北起二环路、东至新生路、西起旱湖路、南至沟北南路（县汽车站除外），新生社区办公区，县人民医院"}},{"type":"Feature","geometry":{"type":"Point","coordinates":[114.007681,33.153378]},"properties":{"full_address":"河南省驻马店市遂平县天中丽景东区"}},{"type":"Feature","geometry":{"type":"Point","coordinates":[114.063195,33.064486]},"properties":{"full_address":"河南省驻马店市遂平县驿城大道以西、仁安路以南、生产路以北、建仁路以东合围区域"}},{"type":"Feature","geometry":{"type":"Point","coordinates":[111.85735,31.775388]},"properties":{"full_address":"湖北省襄阳市南漳县金漳大道未来城小区"}},{"type":"Feature","geometry":{"type":"Point","coordinates":[112.581694,29.482198]},"properties":{"full_address":"湖南省岳阳市华容县章华镇兴南村"}},{"type":"Feature","geometry":{"type":"Point","coordinates":[112.551863,29.534978]},"properties":{"full_address":"湖南省岳阳市华容县章华镇南门菜市场"}},{"type":"Feature","geometry":{"type":"Point","coordinates":[113.277304,23.142339]},"properties":{"full_address":"广东省广州市越秀区登峰街东至麓景路，北至麓景路辅路、上塘街、北闸街，西至登峰小学交界，南至象岗街、北约街、平安里、东约直街一巷"}},{"type":"Feature","geometry":{"type":"Point","coordinates":[114.074234,22.525604]},"properties":{"full_address":"广东省深圳市福田区福田街道口岸社区御花园第16栋、第18栋、第19栋"}},{"type":"Feature","geometry":{"type":"Point","coordinates":[114.085789,22.53359]},"properties":{"full_address":"广东省深圳市福田区南园街道赤尾社区御景华城第1栋A座"}},{"type":"Feature","geometry":{"type":"Point","coordinates":[114.028376,22.52848]},"properties":{"full_address":"广东省深圳市福田区沙头街道上沙社区中洲滨海商业中心一期2栋A、B座"}},{"type":"Feature","geometry":{"type":"Point","coordinates":[113.91655,22.542971]},"properties":{"full_address":"广东省深圳市南山区南头街道星海名城五期（除高风险区外）"}},{"type":"Feature","geometry":{"type":"Point","coordinates":[113.927001,22.512044]},"properties":{"full_address":"广东省深圳市南山区粤海街道梦想家园（除高风险区外）"}},{"type":"Feature","geometry":{"type":"Point","coordinates":[113.933862,22.48808]},"properties":{"full_address":"广东省深圳市南山区蛇口街道栖游家园（除高风险区外）"}},{"type":"Feature","geometry":{"type":"Point","coordinates":[113.919708,22.482768]},"properties":{"full_address":"广东省深圳市南山区招商街道双玺花园三期（除高风险区外）"}},{"type":"Feature","geometry":{"type":"Point","coordinates":[113.926685,22.519107]},"properties":{"full_address":"广东省深圳市南山区南山街道龙城新苑（除高风险区外）"}},{"type":"Feature","geometry":{"type":"Point","coordinates":[113.897546,22.559667]},"properties":{"full_address":"广东省深圳市宝安区新安街道海乐社区43区城中村自建房小区（除高风险区域以外区域）"}},{"type":"Feature","geometry":{"type":"Point","coordinates":[113.86833,22.570616]},"properties":{"full_address":"广东省深圳市宝安区西乡街道渔业社区轻铁西十巷至西十六巷及轻铁花园818、819栋（除高风险区域以外）"}},{"type":"Feature","geometry":{"type":"Point","coordinates":[113.822777,22.724374]},"properties":{"full_address":"广东省深圳市宝安区新桥街道万丰社区荣泰园（除一区101号以外）"}},{"type":"Feature","geometry":{"type":"Point","coordinates":[114.107917,22.596658]},"properties":{"full_address":"广东省深圳市龙岗区布吉街道凤凰社区西环路何格统建楼生活区（除高风险区外）和布吉圩社区莲花山庄一村"}},{"type":"Feature","geometry":{"type":"Point","coordinates":[114.102153,22.610824]},"properties":{"full_address":"广东省深圳市龙岗区吉华街道水径社区石龙坑新村"}},{"type":"Feature","geometry":{"type":"Point","coordinates":[114.231615,22.549558]},"properties":{"full_address":"广东省深圳市盐田区沙头角街道沙盐路、官下路、金融路、公园路的围合区域（高风险区域除外）"}},{"type":"Feature","geometry":{"type":"Point","coordinates":[114.233626,22.549915]},"properties":{"full_address":"广东省深圳市盐田区诗宁里小区（高风险区域除外）"}},{"type":"Feature","geometry":{"type":"Point","coordinates":[114.23389,22.550394]},"properties":{"full_address":"广东省深圳市盐田区文和园小区"}},{"type":"Feature","geometry":{"type":"Point","coordinates":[114.028734,22.662186]},"properties":{"full_address":"广东省深圳市龙华区龙华街道和联社区弓村二区（除高风险区外）"}},{"type":"Feature","geometry":{"type":"Point","coordinates":[113.129139,23.552007]},"properties":{"full_address":"广东省清远市清城区龙塘镇银盏中心村全区域，银盏社区银一村、银二村、高桥村、盛泰工业园、泰基工业园（含生活配套区）"}},{"type":"Feature","geometry":{"type":"Point","coordinates":[109.732918,18.377865]},"properties":{"full_address":"海南省三亚市海棠区龙海风情小镇G、H、J区"}},{"type":"Feature","geometry":{"type":"Point","coordinates":[109.728242,18.409977]},"properties":{"full_address":"海南省三亚市海棠区南田居巨龙队芒果坡"}},{"type":"Feature","geometry":{"type":"Point","coordinates":[109.693746,18.316832]},"properties":{"full_address":"海南省三亚市海棠区湾坡村除新建小组、青塘小组外的区域"}},{"type":"Feature","geometry":{"type":"Point","coordinates":[109.567815,18.284968]},"properties":{"full_address":"海南省三亚市吉阳区龙坡社区"}},{"type":"Feature","geometry":{"type":"Point","coordinates":[109.516631,18.276265]},"properties":{"full_address":"海南省三亚市吉阳区卓达社区第一、二、三、四、五网格"}},{"type":"Feature","geometry":{"type":"Point","coordinates":[109.581738,18.273569]},"properties":{"full_address":"海南省三亚市吉阳区红土坎村第一、二、三、四网格"}},{"type":"Feature","geometry":{"type":"Point","coordinates":[109.523831,18.286562]},"properties":{"full_address":"海南省三亚市吉阳区东岸村第一、二、三、五、六、七、八网格"}},{"type":"Feature","geometry":{"type":"Point","coordinates":[109.595309,18.289902]},"properties":{"full_address":"海南省三亚市吉阳区新村居委会第一、三、四、五、七网格"}},{"type":"Feature","geometry":{"type":"Point","coordinates":[109.530557,18.281391]},"properties":{"full_address":"海南省三亚市吉阳区海罗村第一、二、三、四、五、六、七、八网格"}},{"type":"Feature","geometry":{"type":"Point","coordinates":[109.608359,18.304777]},"properties":{"full_address":"海南省三亚市吉阳区经济场第二、三、四网格"}},{"type":"Feature","geometry":{"type":"Point","coordinates":[109.51155,18.268785]},"properties":{"full_address":"海南省三亚市吉阳区新月社区第一、五网格"}},{"type":"Feature","geometry":{"type":"Point","coordinates":[109.516638,18.30522]},"properties":{"full_address":"海南省三亚市吉阳区抱坡村委会第一、三、五、六、七网格"}},{"type":"Feature","geometry":{"type":"Point","coordinates":[109.555439,18.293829]},"properties":{"full_address":"海南省三亚市吉阳区荔枝沟社区第三网格"}},{"type":"Feature","geometry":{"type":"Point","coordinates":[109.539176,18.303024]},"properties":{"full_address":"海南省三亚市吉阳区南丁村委会第一、二、四、五、六、七、九、十网格"}},{"type":"Feature","geometry":{"type":"Point","coordinates":[109.52281,18.28335]},"properties":{"full_address":"海南省三亚市吉阳区春河东岸小区"}},{"type":"Feature","geometry":{"type":"Point","coordinates":[109.572614,18.268847]},"properties":{"full_address":"海南省三亚市吉阳区榆红村第三、四、七、九网格"}},{"type":"Feature","geometry":{"type":"Point","coordinates":[109.522633,18.295683]},"properties":{"full_address":"海南省三亚市吉阳区南新居第一、四、九、十一、十二、十三、十五网格"}},{"type":"Feature","geometry":{"type":"Point","coordinates":[109.51713,18.264809]},"properties":{"full_address":"海南省三亚市吉阳区春光社区第一、二、四、五、六网格"}},{"type":"Feature","geometry":{"type":"Point","coordinates":[109.57833,18.281397]},"properties":{"full_address":"海南省三亚市吉阳区海澜社区第一、二、四、五网格"}},{"type":"Feature","geometry":{"type":"Point","coordinates":[109.491658,18.213091]},"properties":{"full_address":"海南省三亚市吉阳区鹿回头社区"}},{"type":"Feature","geometry":{"type":"Point","coordinates":[109.560299,18.24092]},"properties":{"full_address":"海南省三亚市吉阳区红沙社区第四、六、七、八、九、十一、十二网格"}},{"type":"Feature","geometry":{"type":"Point","coordinates":[109.570667,18.279998]},"properties":{"full_address":"海南省三亚市吉阳区干沟村第一、三、四、八网格"}},{"type":"Feature","geometry":{"type":"Point","coordinates":[109.611028,18.294887]},"properties":{"full_address":"海南省三亚市吉阳区田独村"}},{"type":"Feature","geometry":{"type":"Point","coordinates":[109.512696,18.281405]},"properties":{"full_address":"海南省三亚市吉阳区丹州社区第一、二、三、六网格"}},{"type":"Feature","geometry":{"type":"Point","coordinates":[109.521819,18.223633]},"properties":{"full_address":"海南省三亚市吉阳区大东海社区第一、二、三、六网格"}},{"type":"Feature","geometry":{"type":"Point","coordinates":[109.499194,18.2701]},"properties":{"full_address":"海南省三亚市吉阳区月河社区"}},{"type":"Feature","geometry":{"type":"Point","coordinates":[109.483586,18.316036]},"properties":{"full_address":"海南省三亚市天涯区槟榔村"}},{"type":"Feature","geometry":{"type":"Point","coordinates":[109.470361,18.307736]},"properties":{"full_address":"海南省三亚市天涯区妙林村"}},{"type":"Feature","geometry":{"type":"Point","coordinates":[109.502907,18.281021]},"properties":{"full_address":"海南省三亚市天涯区岭北社区第一、二、四网格"}},{"type":"Feature","geometry":{"type":"Point","coordinates":[109.482986,18.29272]},"properties":{"full_address":"海南省三亚市天涯区育春路社区第三网格"}},{"type":"Feature","geometry":{"type":"Point","coordinates":[109.493896,18.293065]},"properties":{"full_address":"海南省三亚市天涯区鸭仔塘社区第二、三、五网格"}},{"type":"Feature","geometry":{"type":"Point","coordinates":[109.43565,18.291425]},"properties":{"full_address":"海南省三亚市天涯区海坡社区第五、九网格"}},{"type":"Feature","geometry":{"type":"Point","coordinates":[109.449061,18.286279]},"properties":{"full_address":"海南省三亚市天涯区三亚湾社区第二、三、五网格"}},{"type":"Feature","geometry":{"type":"Point","coordinates":[109.505027,18.240389]},"properties":{"full_address":"海南省三亚市天涯区新建社区第一网格"}},{"type":"Feature","geometry":{"type":"Point","coordinates":[109.49785,18.2658]},"properties":{"full_address":"海南省三亚市天涯区友谊路社区第一、七网格"}},{"type":"Feature","geometry":{"type":"Point","coordinates":[109.48988086426564,18.271153560481828]},"properties":{"full_address":"海南省三亚市天涯区场站社区第一、二、四网格"}},{"type":"Feature","geometry":{"type":"Point","coordinates":[109.440284,18.299698]},"properties":{"full_address":"海南省三亚市天涯区回辉社区第四、五网格"}},{"type":"Feature","geometry":{"type":"Point","coordinates":[109.489933,18.271222]},"properties":{"full_address":"海南省三亚市天涯区机场路社区第四、七网格"}},{"type":"Feature","geometry":{"type":"Point","coordinates":[109.49833972573545,18.28575011400364]},"properties":{"full_address":"海南省三亚市天涯区金鸡岭社区第一、四、六、七网格"}},{"type":"Feature","geometry":{"type":"Point","coordinates":[109.388656,18.296868]},"properties":{"full_address":"海南省三亚市天涯区桶井村第二、三、四、五、六、七网格"}},{"type":"Feature","geometry":{"type":"Point","coordinates":[109.508732,18.235073]},"properties":{"full_address":"海南省三亚市天涯区榆港社区第三、四、五、六网格"}},{"type":"Feature","geometry":{"type":"Point","coordinates":[109.332122,18.335441]},"properties":{"full_address":"海南省三亚市天涯区文门村委会上中下那后小组"}},{"type":"Feature","geometry":{"type":"Point","coordinates":[109.477305,18.28331]},"properties":{"full_address":"海南省三亚市天涯区回新社区第一、七网格"}},{"type":"Feature","geometry":{"type":"Point","coordinates":[109.498746,18.260277]},"properties":{"full_address":"海南省三亚市天涯区朝阳社区第七网格"}},{"type":"Feature","geometry":{"type":"Point","coordinates":[109.176052,18.34999]},"properties":{"full_address":"海南省三亚市崖州区南滨居南滨兴滨路西片区（西至科宝酒店，东至南滨路口， 南至G225国道，北至万桂花园）"}},{"type":"Feature","geometry":{"type":"Point","coordinates":[109.228486,19.708544]},"properties":{"full_address":"海南省儋州市市辖区白马井镇马口井村"}},{"type":"Feature","geometry":{"type":"Point","coordinates":[109.185099,19.740525]},"properties":{"full_address":"海南省儋州市市辖区光村镇泊潮居委会区域"}},{"type":"Feature","geometry":{"type":"Point","coordinates":[109.279132,19.709133]},"properties":{"full_address":"海南省儋州市市辖区新州镇英均村"}},{"type":"Feature","geometry":{"type":"Point","coordinates":[109.581762,19.522664]},"properties":{"full_address":"海南省儋州市市辖区那大镇先锋社区（除高风险区外）"}},{"type":"Feature","geometry":{"type":"Point","coordinates":[109.574497,19.511094]},"properties":{"full_address":"海南省儋州市市辖区那大镇解放社区（除高风险区外）"}},{"type":"Feature","geometry":{"type":"Point","coordinates":[109.594022,19.542165]},"properties":{"full_address":"海南省儋州市市辖区那大镇城北社区：丰华苑小区、丰华和家园小区、鼎尚公馆"}},{"type":"Feature","geometry":{"type":"Point","coordinates":[109.592065,19.509734]},"properties":{"full_address":"海南省儋州市市辖区那大镇东风社区：清平小区、武侯村"}},{"type":"Feature","geometry":{"type":"Point","coordinates":[109.57085,19.51597]},"properties":{"full_address":"海南省儋州市市辖区那大镇那恁村委会"}},{"type":"Feature","geometry":{"type":"Point","coordinates":[109.534853,19.533024]},"properties":{"full_address":"海南省儋州市市辖区那大镇头潭村委会"}},{"type":"Feature","geometry":{"type":"Point","coordinates":[109.458894,19.507168]},"properties":{"full_address":"海南省儋州市市辖区那大镇蔬菜村委会"}},{"type":"Feature","geometry":{"type":"Point","coordinates":[109.592872,19.531]},"properties":{"full_address":"海南省儋州市市辖区那大镇王桐村委会"}},{"type":"Feature","geometry":{"type":"Point","coordinates":[109.590425,19.501382]},"properties":{"full_address":"海南省儋州市市辖区那大镇清平村委会"}},{"type":"Feature","geometry":{"type":"Point","coordinates":[109.458894,19.507168]},"properties":{"full_address":"海南省儋州市市辖区那大镇红旗村委会"}},{"type":"Feature","geometry":{"type":"Point","coordinates":[109.547679,19.516257]},"properties":{"full_address":"海南省儋州市市辖区那大镇东干社区"}},{"type":"Feature","geometry":{"type":"Point","coordinates":[109.574482,19.529124]},"properties":{"full_address":"海南省儋州市市辖区那大镇茶山村委会区域"}},{"type":"Feature","geometry":{"type":"Point","coordinates":[109.526823,19.502645]},"properties":{"full_address":"海南省儋州市市辖区那大镇铺仔社区"}},{"type":"Feature","geometry":{"type":"Point","coordinates":[109.222772,19.688423]},"properties":{"full_address":"海南省儋州市市辖区白马井镇寨基村"}},{"type":"Feature","geometry":{"type":"Point","coordinates":[109.221805,19.696121]},"properties":{"full_address":"海南省儋州市市辖区白马井镇墟中七路"}},{"type":"Feature","geometry":{"type":"Point","coordinates":[109.648471,19.519071]},"properties":{"full_address":"海南省儋州市市辖区和庆镇和庆农场1队"}},{"type":"Feature","geometry":{"type":"Point","coordinates":[109.209294,19.734396]},"properties":{"full_address":"海南省儋州市市辖区洋浦片区普瑞社区"}},{"type":"Feature","geometry":{"type":"Point","coordinates":[109.240259,19.810107]},"properties":{"full_address":"海南省儋州市市辖区洋浦片区三都区颜村"}},{"type":"Feature","geometry":{"type":"Point","coordinates":[109.562507,19.567192]},"properties":{"full_address":"海南省儋州市市辖区那大镇槟榔村委会区域"}},{"type":"Feature","geometry":{"type":"Point","coordinates":[109.449735,19.506717]},"properties":{"full_address":"海南省儋州市市辖区排浦镇南华墟"}},{"type":"Feature","geometry":{"type":"Point","coordinates":[109.515611,18.773378]},"properties":{"full_address":"海南省省直辖县级行政单位五指山市海南省第二人民医院神经外科住院楼8、9、10楼"}},{"type":"Feature","geometry":{"type":"Point","coordinates":[109.529128,18.767775]},"properties":{"full_address":"海南省省直辖县级行政单位五指山市翡翠家园山水龙湾12栋"}},{"type":"Feature","geometry":{"type":"Point","coordinates":[109.515449,18.771286]},"properties":{"full_address":"海南省省直辖县级行政单位五指山市省第二卫生学校实训宿舍楼"}},{"type":"Feature","geometry":{"type":"Point","coordinates":[110.460944,18.791659]},"properties":{"full_address":"海南省省直辖县级行政单位万宁市万城镇南岛村委会"}},{"type":"Feature","geometry":{"type":"Point","coordinates":[110.376935,18.789939]},"properties":{"full_address":"海南省省直辖县级行政单位万宁市万城镇丰园社区"}},{"type":"Feature","geometry":{"type":"Point","coordinates":[110.438722,18.759402]},"properties":{"full_address":"海南省省直辖县级行政单位万宁市万城镇流溪村委会"}},{"type":"Feature","geometry":{"type":"Point","coordinates":[110.503533,18.856434]},"properties":{"full_address":"海南省省直辖县级行政单位万宁市和乐镇英豪村委会"}},{"type":"Feature","geometry":{"type":"Point","coordinates":[110.383914,18.829586]},"properties":{"full_address":"海南省省直辖县级行政单位万宁市大茂镇红石村委会"}},{"type":"Feature","geometry":{"type":"Point","coordinates":[110.357611,18.766915]},"properties":{"full_address":"海南省省直辖县级行政单位万宁市礼纪镇合丰村委会"}},{"type":"Feature","geometry":{"type":"Point","coordinates":[110.296783,18.72128]},"properties":{"full_address":"海南省省直辖县级行政单位万宁市礼纪镇竹林村委会"}},{"type":"Feature","geometry":{"type":"Point","coordinates":[110.317655,18.75043]},"properties":{"full_address":"海南省省直辖县级行政单位万宁市礼纪镇礼纪墟"}},{"type":"Feature","geometry":{"type":"Point","coordinates":[110.329797,18.825979]},"properties":{"full_address":"海南省省直辖县级行政单位万宁市北大镇北大村委会"}},{"type":"Feature","geometry":{"type":"Point","coordinates":[110.416422,18.775403]},"properties":{"full_address":"海南省省直辖县级行政单位万宁市万城镇宾王村委会"}},{"type":"Feature","geometry":{"type":"Point","coordinates":[110.461639,18.76937]},"properties":{"full_address":"海南省省直辖县级行政单位万宁市万城镇保定村委会"}},{"type":"Feature","geometry":{"type":"Point","coordinates":[110.412533,18.785361]},"properties":{"full_address":"海南省省直辖县级行政单位万宁市万城镇水边村委会"}},{"type":"Feature","geometry":{"type":"Point","coordinates":[110.374542,18.789538]},"properties":{"full_address":"海南省省直辖县级行政单位万宁市万城镇中央坡农场"}},{"type":"Feature","geometry":{"type":"Point","coordinates":[110.382837,18.801051]},"properties":{"full_address":"海南省省直辖县级行政单位万宁市万城镇安置一区"}},{"type":"Feature","geometry":{"type":"Point","coordinates":[110.332976,18.746678]},"properties":{"full_address":"海南省省直辖县级行政单位万宁市礼纪镇群坡村委会"}},{"type":"Feature","geometry":{"type":"Point","coordinates":[110.345694,18.774647]},"properties":{"full_address":"海南省省直辖县级行政单位万宁市礼纪镇太阳村委会"}},{"type":"Feature","geometry":{"type":"Point","coordinates":[110.451622,18.883628]},"properties":{"full_address":"海南省省直辖县级行政单位万宁市后安镇龙田村委会第四队"}},{"type":"Feature","geometry":{"type":"Point","coordinates":[110.401814,18.714928]},"properties":{"full_address":"海南省省直辖县级行政单位万宁市东澳镇（除高风险区外）"}},{"type":"Feature","geometry":{"type":"Point","coordinates":[108.704659,19.226953]},"properties":{"full_address":"海南省省直辖县级行政单位东方市四更镇四北村"}},{"type":"Feature","geometry":{"type":"Point","coordinates":[108.677985,19.228347]},"properties":{"full_address":"海南省省直辖县级行政单位东方市四更镇四南村"}},{"type":"Feature","geometry":{"type":"Point","coordinates":[108.677985,19.228347]},"properties":{"full_address":"海南省省直辖县级行政单位东方市四更镇四中村"}},{"type":"Feature","geometry":{"type":"Point","coordinates":[108.807543,19.120214]},"properties":{"full_address":"海南省省直辖县级行政单位东方市大田镇零公里猕猴岭管理区1巷17-1号"}},{"type":"Feature","geometry":{"type":"Point","coordinates":[108.655603,19.051806]},"properties":{"full_address":"海南省省直辖县级行政单位东方市八所镇十所村"}},{"type":"Feature","geometry":{"type":"Point","coordinates":[108.669085,19.060119]},"properties":{"full_address":"海南省省直辖县级行政单位东方市八所镇罗带村"}},{"type":"Feature","geometry":{"type":"Point","coordinates":[108.678718,19.110248]},"properties":{"full_address":"海南省省直辖县级行政单位东方市八所镇福耀村"}},{"type":"Feature","geometry":{"type":"Point","coordinates":[108.686006,19.102489]},"properties":{"full_address":"海南省省直辖县级行政单位东方市八所镇皇宁村"}},{"type":"Feature","geometry":{"type":"Point","coordinates":[108.648631,19.108975]},"properties":{"full_address":"海南省省直辖县级行政单位东方市八所镇滨海社区"}},{"type":"Feature","geometry":{"type":"Point","coordinates":[108.672941,18.976578]},"properties":{"full_address":"海南省省直辖县级行政单位东方市新龙镇上通天村"}},{"type":"Feature","geometry":{"type":"Point","coordinates":[108.656074,18.977847]},"properties":{"full_address":"海南省省直辖县级行政单位东方市新龙镇下通天村"}},{"type":"Feature","geometry":{"type":"Point","coordinates":[108.678503,19.013781]},"properties":{"full_address":"海南省省直辖县级行政单位东方市新龙镇那斗村"}},{"type":"Feature","geometry":{"type":"Point","coordinates":[108.666448,18.998819]},"properties":{"full_address":"海南省省直辖县级行政单位东方市新龙镇道达村"}},{"type":"Feature","geometry":{"type":"Point","coordinates":[108.681397,19.007711]},"properties":{"full_address":"海南省省直辖县级行政单位东方市新龙镇部道村"}},{"type":"Feature","geometry":{"type":"Point","coordinates":[108.652194,18.867037]},"properties":{"full_address":"海南省省直辖县级行政单位东方市感城镇入学村"}},{"type":"Feature","geometry":{"type":"Point","coordinates":[108.665075,18.857202]},"properties":{"full_address":"海南省省直辖县级行政单位东方市感城镇宝东村"}},{"type":"Feature","geometry":{"type":"Point","coordinates":[108.665075,18.857202]},"properties":{"full_address":"海南省省直辖县级行政单位东方市感城镇宝西村"}},{"type":"Feature","geometry":{"type":"Point","coordinates":[108.663147,18.830623]},"properties":{"full_address":"海南省省直辖县级行政单位东方市感城镇凤亭村"}},{"type":"Feature","geometry":{"type":"Point","coordinates":[108.671014,18.8237]},"properties":{"full_address":"海南省省直辖县级行政单位东方市感城镇加富村"}},{"type":"Feature","geometry":{"type":"Point","coordinates":[108.867044,19.116177]},"properties":{"full_address":"海南省省直辖县级行政单位东方市大田镇俄乐村"}},{"type":"Feature","geometry":{"type":"Point","coordinates":[108.671776,19.105764]},"properties":{"full_address":"海南省省直辖县级行政单位东方市八所镇福民社区除高风险区以外的区域"}},{"type":"Feature","geometry":{"type":"Point","coordinates":[108.634752,19.128052]},"properties":{"full_address":"海南省省直辖县级行政单位东方市八所镇琼西社区除高风险区以外的区域"}},{"type":"Feature","geometry":{"type":"Point","coordinates":[108.679578,19.114605]},"properties":{"full_address":"海南省省直辖县级行政单位东方市八所镇大占坡村除高风险区以外的区域"}},{"type":"Feature","geometry":{"type":"Point","coordinates":[108.708525,19.038829]},"properties":{"full_address":"海南省省直辖县级行政单位东方市八所镇下名山村除高风险区以外的区域"}},{"type":"Feature","geometry":{"type":"Point","coordinates":[108.66742,19.09191]},"properties":{"full_address":"海南省省直辖县级行政单位东方市八所镇永安社区"}},{"type":"Feature","geometry":{"type":"Point","coordinates":[108.700485,19.122762]},"properties":{"full_address":"海南省省直辖县级行政单位东方市八所镇蒲草村"}},{"type":"Feature","geometry":{"type":"Point","coordinates":[108.660156,19.079356]},"properties":{"full_address":"海南省省直辖县级行政单位东方市八所镇居龙村"}},{"type":"Feature","geometry":{"type":"Point","coordinates":[108.649041,19.091716]},"properties":{"full_address":"海南省省直辖县级行政单位东方市八所镇八所村"}},{"type":"Feature","geometry":{"type":"Point","coordinates":[108.701947,19.092851]},"properties":{"full_address":"海南省省直辖县级行政单位东方市八所镇小岭村"}},{"type":"Feature","geometry":{"type":"Point","coordinates":[108.660085,19.100379]},"properties":{"full_address":"海南省省直辖县级行政单位东方市八所镇东海社区"}},{"type":"Feature","geometry":{"type":"Point","coordinates":[108.670604,19.092246]},"properties":{"full_address":"海南省省直辖县级行政单位东方市八所镇伴圆海社区"}},{"type":"Feature","geometry":{"type":"Point","coordinates":[108.679982,19.135096]},"properties":{"full_address":"海南省省直辖县级行政单位东方市八所镇新北社区"}},{"type":"Feature","geometry":{"type":"Point","coordinates":[108.630778,19.090586]},"properties":{"full_address":"海南省省直辖县级行政单位东方市八所镇友谊社区"}},{"type":"Feature","geometry":{"type":"Point","coordinates":[108.645958,19.098731]},"properties":{"full_address":"海南省省直辖县级行政单位东方市八所镇解放社区"}},{"type":"Feature","geometry":{"type":"Point","coordinates":[108.715137,19.06352]},"properties":{"full_address":"海南省省直辖县级行政单位东方市八所镇下红兴村"}},{"type":"Feature","geometry":{"type":"Point","coordinates":[108.682117,19.225616]},"properties":{"full_address":"海南省省直辖县级行政单位东方市四更镇四更镇墟"}},{"type":"Feature","geometry":{"type":"Point","coordinates":[108.677985,19.228347]},"properties":{"full_address":"海南省省直辖县级行政单位东方市四更镇四更村(含四更新村)"}},{"type":"Feature","geometry":{"type":"Point","coordinates":[110.165578,19.70981]},"properties":{"full_address":"海南省省直辖县级行政单位澄迈县仙儒村委会"}},{"type":"Feature","geometry":{"type":"Point","coordinates":[110.129969,19.731864]},"properties":{"full_address":"海南省省直辖县级行政单位澄迈县瑞联村委会"}},{"type":"Feature","geometry":{"type":"Point","coordinates":[110.006755,19.738521]},"properties":{"full_address":"海南省省直辖县级行政单位澄迈县第一社区"}},{"type":"Feature","geometry":{"type":"Point","coordinates":[110.006755,19.738521]},"properties":{"full_address":"海南省省直辖县级行政单位澄迈县第二社区"}},{"type":"Feature","geometry":{"type":"Point","coordinates":[110.139416,19.720964]},"properties":{"full_address":"海南省省直辖县级行政单位澄迈县群庄村委会"}},{"type":"Feature","geometry":{"type":"Point","coordinates":[110.152796,19.700337]},"properties":{"full_address":"海南省省直辖县级行政单位澄迈县村内村委会"}},{"type":"Feature","geometry":{"type":"Point","coordinates":[110.149693,19.699944]},"properties":{"full_address":"海南省省直辖县级行政单位澄迈县里加村委会"}},{"type":"Feature","geometry":{"type":"Point","coordinates":[110.12351,19.713711]},"properties":{"full_address":"海南省省直辖县级行政单位澄迈县南尖村委会"}},{"type":"Feature","geometry":{"type":"Point","coordinates":[110.101443,19.728618]},"properties":{"full_address":"海南省省直辖县级行政单位澄迈县番丁村委会"}},{"type":"Feature","geometry":{"type":"Point","coordinates":[110.10263,19.7097]},"properties":{"full_address":"海南省省直辖县级行政单位澄迈县山琼村委会"}},{"type":"Feature","geometry":{"type":"Point","coordinates":[110.150211,19.727112]},"properties":{"full_address":"海南省省直辖县级行政单位澄迈县北桥村委会"}},{"type":"Feature","geometry":{"type":"Point","coordinates":[110.124995,19.685795]},"properties":{"full_address":"海南省省直辖县级行政单位澄迈县加巨村村委会"}},{"type":"Feature","geometry":{"type":"Point","coordinates":[109.623573,19.930811]},"properties":{"full_address":"海南省省直辖县级行政单位临高县新盈村委会隆安村"}},{"type":"Feature","geometry":{"type":"Point","coordinates":[109.528589,19.890892]},"properties":{"full_address":"海南省省直辖县级行政单位临高县新盈村委会清雅村"}},{"type":"Feature","geometry":{"type":"Point","coordinates":[109.536349,19.89513]},"properties":{"full_address":"海南省省直辖县级行政单位临高县新盈村委会正村"}},{"type":"Feature","geometry":{"type":"Point","coordinates":[109.536349,19.89513]},"properties":{"full_address":"海南省省直辖县级行政单位临高县新盈村委会泮泗村"}},{"type":"Feature","geometry":{"type":"Point","coordinates":[109.53016,19.891194]},"properties":{"full_address":"海南省省直辖县级行政单位临高县新盈村委会永隆村"}},{"type":"Feature","geometry":{"type":"Point","coordinates":[109.743247,19.736901]},"properties":{"full_address":"海南省省直辖县级行政单位临高县新盈村委会龙湾村"}},{"type":"Feature","geometry":{"type":"Point","coordinates":[109.523501,19.896252]},"properties":{"full_address":"海南省省直辖县级行政单位临高县新盈村委会道辽村"}},{"type":"Feature","geometry":{"type":"Point","coordinates":[109.525973,19.872221]},"properties":{"full_address":"海南省省直辖县级行政单位临高县头咀村"}},{"type":"Feature","geometry":{"type":"Point","coordinates":[109.536449,19.891957]},"properties":{"full_address":"海南省省直辖县级行政单位临高县新兴社区（含抱蛟村路口）"}},{"type":"Feature","geometry":{"type":"Point","coordinates":[109.531128,19.886768]},"properties":{"full_address":"海南省省直辖县级行政单位临高县安全村委会佼依村"}},{"type":"Feature","geometry":{"type":"Point","coordinates":[109.531128,19.886768]},"properties":{"full_address":"海南省省直辖县级行政单位临高县安全村委会南村"}},{"type":"Feature","geometry":{"type":"Point","coordinates":[109.531128,19.886768]},"properties":{"full_address":"海南省省直辖县级行政单位临高县安全村委会中村"}},{"type":"Feature","geometry":{"type":"Point","coordinates":[109.531128,19.886768]},"properties":{"full_address":"海南省省直辖县级行政单位临高县安全村委会北村"}},{"type":"Feature","geometry":{"type":"Point","coordinates":[109.531128,19.886768]},"properties":{"full_address":"海南省省直辖县级行政单位临高县安全村委会农业队"}},{"type":"Feature","geometry":{"type":"Point","coordinates":[109.531128,19.886768]},"properties":{"full_address":"海南省省直辖县级行政单位临高县安全村委会存车村"}},{"type":"Feature","geometry":{"type":"Point","coordinates":[109.534007,19.900149]},"properties":{"full_address":"海南省省直辖县级行政单位临高县朗英村委会郎英村"}},{"type":"Feature","geometry":{"type":"Point","coordinates":[109.534007,19.900149]},"properties":{"full_address":"海南省省直辖县级行政单位临高县朗英村委会博岸村"}},{"type":"Feature","geometry":{"type":"Point","coordinates":[109.534007,19.900149]},"properties":{"full_address":"海南省省直辖县级行政单位临高县朗英村委会尚书村"}},{"type":"Feature","geometry":{"type":"Point","coordinates":[109.539555,19.883116]},"properties":{"full_address":"海南省省直辖县级行政单位临高县和贵村委会乐春村"}},{"type":"Feature","geometry":{"type":"Point","coordinates":[109.118481,18.757595]},"properties":{"full_address":"海南省省直辖县级行政单位乐东黎族自治县抱由镇山荣村1队"}},{"type":"Feature","geometry":{"type":"Point","coordinates":[108.884484,18.475266]},"properties":{"full_address":"海南省省直辖县级行政单位乐东黎族自治县利国镇抱新村"}},{"type":"Feature","geometry":{"type":"Point","coordinates":[108.731992,18.580314]},"properties":{"full_address":"海南省省直辖县级行政单位乐东黎族自治县佛罗镇佛北村"}},{"type":"Feature","geometry":{"type":"Point","coordinates":[108.727339,18.552254]},"properties":{"full_address":"海南省省直辖县级行政单位乐东黎族自治县佛罗镇老孔村"}},{"type":"Feature","geometry":{"type":"Point","coordinates":[108.812667,18.522589]},"properties":{"full_address":"海南省省直辖县级行政单位乐东黎族自治县黄流镇抱二村"}},{"type":"Feature","geometry":{"type":"Point","coordinates":[108.815174,18.482906]},"properties":{"full_address":"海南省省直辖县级行政单位乐东黎族自治县黄流镇多一村"}},{"type":"Feature","geometry":{"type":"Point","coordinates":[108.816316,18.489985]},"properties":{"full_address":"海南省省直辖县级行政单位乐东黎族自治县黄流镇多二村"}},{"type":"Feature","geometry":{"type":"Point","coordinates":[108.793057,18.504051]},"properties":{"full_address":"海南省省直辖县级行政单位乐东黎族自治县黄流镇君海湾龙腾金街商业区"}},{"type":"Feature","geometry":{"type":"Point","coordinates":[108.779868,18.480557]},"properties":{"full_address":"海南省省直辖县级行政单位乐东黎族自治县黄流镇黄西村"}},{"type":"Feature","geometry":{"type":"Point","coordinates":[108.936273,18.470573]},"properties":{"full_address":"海南省省直辖县级行政单位乐东黎族自治县九所镇镜湖村"}},{"type":"Feature","geometry":{"type":"Point","coordinates":[108.697349,18.510154]},"properties":{"full_address":"海南省省直辖县级行政单位乐东黎族自治县莺歌海镇除高风险区域外的村（居）"}},{"type":"Feature","geometry":{"type":"Point","coordinates":[108.792488,18.690415]},"properties":{"full_address":"海南省省直辖县级行政单位乐东黎族自治县尖峰镇除高风险区域外的村（居）"}},{"type":"Feature","geometry":{"type":"Point","coordinates":[109.96248,18.608901]},"properties":{"full_address":"海南省省直辖县级行政单位陵水黎族自治县本号镇长埇村委会墓山村一小组和二小组"}},{"type":"Feature","geometry":{"type":"Point","coordinates":[109.931982,18.420826]},"properties":{"full_address":"海南省省直辖县级行政单位陵水黎族自治县新村镇云帆济海小区第6栋、海境新天小区第36栋"}},{"type":"Feature","geometry":{"type":"Point","coordinates":[106.458294,29.549003]},"properties":{"full_address":"重庆市重庆市沙坪坝区天星桥正街、小龙坎正街、石小路、龙泉路、小龙坎新街、站南路、清溪路、天梨路、天马路、天星桥正街的合围区域中除高风险区外的其他区域"}},{"type":"Feature","geometry":{"type":"Point","coordinates":[106.457,29.545492]},"properties":{"full_address":"重庆市重庆市沙坪坝区天星桥街道制药村51号、52号、53号、87号、88号、89号、90号"}},{"type":"Feature","geometry":{"type":"Point","coordinates":[106.458719,29.548846]},"properties":{"full_address":"重庆市重庆市沙坪坝区天星桥街道小龙坎正街333号风华大厦"}},{"type":"Feature","geometry":{"type":"Point","coordinates":[106.459934,29.548895]},"properties":{"full_address":"重庆市重庆市沙坪坝区天星桥街道小龙坎正街339号港城花园除高风险区外的区域"}},{"type":"Feature","geometry":{"type":"Point","coordinates":[106.447892,29.535363]},"properties":{"full_address":"重庆市重庆市沙坪坝区天星桥街道都市花园中路还建房50号—74号"}},{"type":"Feature","geometry":{"type":"Point","coordinates":[106.450332,29.547274]},"properties":{"full_address":"重庆市重庆市沙坪坝区天星桥街道晒光坪69号福源山庄小区"}},{"type":"Feature","geometry":{"type":"Point","coordinates":[106.452296,29.547513]},"properties":{"full_address":"重庆市重庆市沙坪坝区天星桥街道晒光坪56号篱岛生态小区"}},{"type":"Feature","geometry":{"type":"Point","coordinates":[106.453398,29.548743]},"properties":{"full_address":"重庆市重庆市沙坪坝区天星桥街道晒光坪52号天星苑"}},{"type":"Feature","geometry":{"type":"Point","coordinates":[106.453231,29.546108]},"properties":{"full_address":"重庆市重庆市沙坪坝区天星桥街道晒光坪3号、5号、7号、9号升伟新天地"}},{"type":"Feature","geometry":{"type":"Point","coordinates":[106.439739,29.523974]},"properties":{"full_address":"重庆市重庆市沙坪坝区新桥街道三陵雅园B区除高风险区外的其他区域"}},{"type":"Feature","geometry":{"type":"Point","coordinates":[106.462338,29.568455]},"properties":{"full_address":"重庆市重庆市沙坪坝区沙坪坝街道沙北街83号"}},{"type":"Feature","geometry":{"type":"Point","coordinates":[106.465385,29.565275]},"properties":{"full_address":"重庆市重庆市沙坪坝区沙坪坝街道沙正街174号高风险区以外的区域"}},{"type":"Feature","geometry":{"type":"Point","coordinates":[106.446864,29.558403]},"properties":{"full_address":"重庆市重庆市沙坪坝区渝碚路街道杨梨路20号华宇西城丽景小区"}},{"type":"Feature","geometry":{"type":"Point","coordinates":[106.456131,29.559436]},"properties":{"full_address":"重庆市重庆市沙坪坝区渝碚路街道南友村14号、15号、16号、76号、77号、78号、79号、80号、81号、82号、84号"}},{"type":"Feature","geometry":{"type":"Point","coordinates":[106.455982,29.562416]},"properties":{"full_address":"重庆市重庆市沙坪坝区渝碚路街道向乐村89号"}},{"type":"Feature","geometry":{"type":"Point","coordinates":[106.46331,29.555212]},"properties":{"full_address":"重庆市重庆市沙坪坝区渝碚路街道华宇广场11号巴渝楼"}},{"type":"Feature","geometry":{"type":"Point","coordinates":[106.449941,29.530456]},"properties":{"full_address":"重庆市重庆市沙坪坝区覃家岗街道凤天大道154号凤鸣戎苑小区"}},{"type":"Feature","geometry":{"type":"Point","coordinates":[106.438578,29.54638]},"properties":{"full_address":"重庆市重庆市沙坪坝区覃家岗街道融汇温泉锦绣里小区（西区）"}},{"type":"Feature","geometry":{"type":"Point","coordinates":[106.453998,29.541456]},"properties":{"full_address":"重庆市重庆市沙坪坝区天星桥街道都市花园东路66号沙龙花园"}},{"type":"Feature","geometry":{"type":"Point","coordinates":[106.45324,29.54483]},"properties":{"full_address":"重庆市重庆市沙坪坝区天星桥街道天星桥正街46号附61号帛金大厦"}},{"type":"Feature","geometry":{"type":"Point","coordinates":[106.45849,29.550043]},"properties":{"full_address":"重庆市重庆市沙坪坝区天星桥街道天陈路51号附2号"}},{"type":"Feature","geometry":{"type":"Point","coordinates":[106.44601,29.56486]},"properties":{"full_address":"重庆市重庆市沙坪坝区童家桥街道小杨公桥168号华宇林泉雅舍小区"}},{"type":"Feature","geometry":{"type":"Point","coordinates":[106.516037,29.507181]},"properties":{"full_address":"重庆市重庆市九龙坡区杨家坪街道中迪广场（除3号楼以外区域）"}},{"type":"Feature","geometry":{"type":"Point","coordinates":[106.522568,29.507932]},"properties":{"full_address":"重庆市重庆市九龙坡区杨家坪街道金都香榭小区"}},{"type":"Feature","geometry":{"type":"Point","coordinates":[106.459086,29.508681]},"properties":{"full_address":"重庆市重庆市九龙坡区二郎街道望山国际小区"}},{"type":"Feature","geometry":{"type":"Point","coordinates":[106.483245,29.492446]},"properties":{"full_address":"重庆市重庆市九龙坡区九龙街道朵力名都小区"}},{"type":"Feature","geometry":{"type":"Point","coordinates":[106.522324,29.51769]},"properties":{"full_address":"重庆市重庆市九龙坡区九龙街道邹昌举中医诊所"}},{"type":"Feature","geometry":{"type":"Point","coordinates":[106.482076,29.497817]},"properties":{"full_address":"重庆市重庆市九龙坡区九龙街道双龙苑小区"}},{"type":"Feature","geometry":{"type":"Point","coordinates":[106.520714,29.463753]},"properties":{"full_address":"重庆市重庆市巴南区李家沱街道西流沱社区IN半岛里小区2栋、3栋"}},{"type":"Feature","geometry":{"type":"Point","coordinates":[106.530802,29.462373]},"properties":{"full_address":"重庆市重庆市巴南区李家沱街道融汇西流沱小镇（除憨石匠鲜菜土火锅）"}},{"type":"Feature","geometry":{"type":"Point","coordinates":[106.524959,29.375437]},"properties":{"full_address":"重庆市重庆市巴南区鱼洞街道上城时代小区除1栋、6栋、13栋菜鸟驿站、欧汇超市之外的其他楼栋和门面"}},{"type":"Feature","geometry":{"type":"Point","coordinates":[106.901455,30.008541]},"properties":{"full_address":"重庆市重庆市长寿区葛兰镇场镇（除杨利麻将馆）"}},{"type":"Feature","geometry":{"type":"Point","coordinates":[106.901455,30.008541]},"properties":{"full_address":"重庆市重庆市长寿区葛兰镇枯井村"}},{"type":"Feature","geometry":{"type":"Point","coordinates":[106.901455,30.008541]},"properties":{"full_address":"重庆市重庆市长寿区葛兰镇天台村（除葛兰镇天台村7组156号）"}},{"type":"Feature","geometry":{"type":"Point","coordinates":[104.148822,30.60085]},"properties":{"full_address":"四川省成都市锦江区成龙路街道锦蓉佳苑 4-10 栋，包括 7-10 栋底层商户"}},{"type":"Feature","geometry":{"type":"Point","coordinates":[104.137695,30.59487]},"properties":{"full_address":"四川省成都市锦江区成龙路街道卓锦城 6 期 1-17、19-22 栋"}},{"type":"Feature","geometry":{"type":"Point","coordinates":[104.15345952826871,30.60232526395763]},"properties":{"full_address":"四川省成都市锦江区成龙路街道绿地 468 公馆 5 期 1、3、4、5 栋，包括楼栋底层商户"}},{"type":"Feature","geometry":{"type":"Point","coordinates":[104.141375,30.606313]},"properties":{"full_address":"四川省成都市锦江区成龙路街道绿地 468 公馆 6 期 1、3 栋，包括楼栋底层商户，及 4、5、6 栋商业楼"}},{"type":"Feature","geometry":{"type":"Point","coordinates":[104.146827,30.597429]},"properties":{"full_address":"四川省成都市锦江区三圣街道锦江城市花园三期 1-3栋、7 栋"}},{"type":"Feature","geometry":{"type":"Point","coordinates":[104.00635,30.69535]},"properties":{"full_address":"四川省成都市青羊区金沙街道金地金沙府邸小区"}},{"type":"Feature","geometry":{"type":"Point","coordinates":[104.054816,30.663558]},"properties":{"full_address":"四川省成都市青羊区少城街道泡桐树街3-19号（7号院落除外）、12-24号"}},{"type":"Feature","geometry":{"type":"Point","coordinates":[104.10897,30.685144]},"properties":{"full_address":"四川省成都市成华区府青路街道安庆苑及底商（怡福路61号）"}},{"type":"Feature","geometry":{"type":"Point","coordinates":[104.103353,30.671658]},"properties":{"full_address":"四川省成都市成华区猛追湾街道甲壳特区及底商（建设巷14号附24号）"}},{"type":"Feature","geometry":{"type":"Point","coordinates":[104.556114,30.387257]},"properties":{"full_address":"四川省成都市简阳市简城街道石笋井街、红建路北段、健身街北侧、金水街桥北巷临健康巷路边房屋范围内的区域（其中含滨水怡景小区及南北两侧楼栋、桥北巷城中村部分区域）"}},{"type":"Feature","geometry":{"type":"Point","coordinates":[104.034686,30.595077]},"properties":{"full_address":"四川省成都市高新区石羊街道美洲花园社区棕榈湾小区"}},{"type":"Feature","geometry":{"type":"Point","coordinates":[104.030219,30.540709]},"properties":{"full_address":"四川省成都市高新区桂溪街道科创社区朗基御今缘"}},{"type":"Feature","geometry":{"type":"Point","coordinates":[106.065627,30.79718]},"properties":{"full_address":"四川省南充市顺庆区澄泉路雍锦半岛小区"}},{"type":"Feature","geometry":{"type":"Point","coordinates":[106.095637,30.798429]},"properties":{"full_address":"四川省南充市顺庆区果城路49号家益·江天一色小区25栋1单元"}},{"type":"Feature","geometry":{"type":"Point","coordinates":[106.099122,30.80588]},"properties":{"full_address":"四川省南充市顺庆区金鱼岭正街74号延安路小学1栋2单元"}},{"type":"Feature","geometry":{"type":"Point","coordinates":[106.069084,30.852814]},"properties":{"full_address":"四川省南充市顺庆区潆华北路二段鸿通春天花城15栋1单元"}},{"type":"Feature","geometry":{"type":"Point","coordinates":[106.121438,30.83127]},"properties":{"full_address":"四川省南充市顺庆区清泉寺南路3号锦上花苑小区（除4栋以外区域）"}},{"type":"Feature","geometry":{"type":"Point","coordinates":[106.108063,30.808328]},"properties":{"full_address":"四川省南充市顺庆区正阳东路39号佳兆业广场小区（除2栋以外区域）"}},{"type":"Feature","geometry":{"type":"Point","coordinates":[106.110596,30.807246]},"properties":{"full_address":"四川省南充市顺庆区饮泉路COCO香江小区1期1区、2区（除5栋、11栋以外区域）"}},{"type":"Feature","geometry":{"type":"Point","coordinates":[106.090625,30.807667]},"properties":{"full_address":"四川省南充市顺庆区伍家坡街34号风神小区（除2栋以外区域）"}},{"type":"Feature","geometry":{"type":"Point","coordinates":[106.068284,30.791304]},"properties":{"full_address":"四川省南充市顺庆区玉带中路二段3号玉带明珠小区（除3栋以外区域）"}},{"type":"Feature","geometry":{"type":"Point","coordinates":[106.085632,30.782149]},"properties":{"full_address":"四川省南充市顺庆区丁香街73号小区（除4栋以外区域）"}},{"type":"Feature","geometry":{"type":"Point","coordinates":[106.1234,30.777843]},"properties":{"full_address":"四川省南充市高坪区沁园路29号东方嘉苑"}},{"type":"Feature","geometry":{"type":"Point","coordinates":[106.101569,30.767347]},"properties":{"full_address":"四川省南充市高坪区钻石街88号雍景上河湾二期5栋1单元"}},{"type":"Feature","geometry":{"type":"Point","coordinates":[106.101811,30.771857]},"properties":{"full_address":"四川省南充市高坪区高都路春风·紫金港3栋1单元"}},{"type":"Feature","geometry":{"type":"Point","coordinates":[106.114582,30.786769]},"properties":{"full_address":"四川省南充市高坪区阳春路275号海洋彼岸3栋"}},{"type":"Feature","geometry":{"type":"Point","coordinates":[106.196139,30.868568]},"properties":{"full_address":"四川省南充市高坪区龙门街道（除曹家坝社区、指路碑村以外区域）"}},{"type":"Feature","geometry":{"type":"Point","coordinates":[106.125511,30.798867]},"properties":{"full_address":"四川省南充市高坪区临江南路二段51号泰合·慢城八岛小区（除49栋以外区域）"}},{"type":"Feature","geometry":{"type":"Point","coordinates":[106.064177,30.76265]},"properties":{"full_address":"四川省南充市嘉陵区都尉路一段嘉禾苑4栋4单元"}},{"type":"Feature","geometry":{"type":"Point","coordinates":[106.03901,30.748109]},"properties":{"full_address":"四川省南充市嘉陵区彩虹路388号嘉陵区工业集中区管理委员会办公楼"}},{"type":"Feature","geometry":{"type":"Point","coordinates":[106.053076,30.755067]},"properties":{"full_address":"四川省南充市嘉陵区南虹路四段72号南虹小区（除11、12、13、14、15栋以外区域）"}},{"type":"Feature","geometry":{"type":"Point","coordinates":[106.108722,31.290506]},"properties":{"full_address":"四川省南充市南部县盘龙镇综合贸易市场"}},{"type":"Feature","geometry":{"type":"Point","coordinates":[106.090483,31.282635]},"properties":{"full_address":"四川省南充市南部县盘龙镇观音井村1组史家坪居住区"}},{"type":"Feature","geometry":{"type":"Point","coordinates":[102.798598,31.66063]},"properties":{"full_address":"四川省阿坝藏族羌族自治州理县米亚罗镇青城饭店"}},{"type":"Feature","geometry":{"type":"Point","coordinates":[102.979307,31.496693]},"properties":{"full_address":"四川省阿坝藏族羌族自治州理县古尔沟镇枫悦大酒店"}},{"type":"Feature","geometry":{"type":"Point","coordinates":[103.174273,31.441598]},"properties":{"full_address":"四川省阿坝藏族羌族自治州理县杂谷脑镇壹山依舍酒店"}},{"type":"Feature","geometry":{"type":"Point","coordinates":[103.174273,31.441598]},"properties":{"full_address":"四川省阿坝藏族羌族自治州理县杂谷脑镇吉祥岗赞酒店"}},{"type":"Feature","geometry":{"type":"Point","coordinates":[101.562079,32.984347]},"properties":{"full_address":"四川省阿坝藏族羌族自治州阿坝县安斗乡派克村"}},{"type":"Feature","geometry":{"type":"Point","coordinates":[101.513792,33.001747]},"properties":{"full_address":"四川省阿坝藏族羌族自治州阿坝县安斗乡克洼村"}},{"type":"Feature","geometry":{"type":"Point","coordinates":[101.549675,32.999472]},"properties":{"full_address":"四川省阿坝藏族羌族自治州阿坝县安斗乡华洛村三组、四组"}},{"type":"Feature","geometry":{"type":"Point","coordinates":[102.718443,25.073379]},"properties":{"full_address":"云南省昆明市盘龙区联盟街道东至万华路，南至白云路，西至盘江东路，北至二环北路除实力北岸小区外的区域"}},{"type":"Feature","geometry":{"type":"Point","coordinates":[91.163674,29.643307]},"properties":{"full_address":"西藏自治区拉萨市城关区旁多水利枢纽管理局"}},{"type":"Feature","geometry":{"type":"Point","coordinates":[91.134088,29.654065]},"properties":{"full_address":"西藏自治区拉萨市城关区丹杰林路吖啦嗦饭馆"}},{"type":"Feature","geometry":{"type":"Point","coordinates":[91.144553,29.650329]},"properties":{"full_address":"西藏自治区拉萨市城关区江苏大道嚓荣鲁突茶馆"}},{"type":"Feature","geometry":{"type":"Point","coordinates":[91.135594,29.675344]},"properties":{"full_address":"西藏自治区拉萨市城关区色拉北路圣城花园"}},{"type":"Feature","geometry":{"type":"Point","coordinates":[91.180051,29.642546]},"properties":{"full_address":"西藏自治区拉萨市城关区西藏大学（纳金校区、河坝林校区）"}},{"type":"Feature","geometry":{"type":"Point","coordinates":[91.105859,29.649638]},"properties":{"full_address":"西藏自治区拉萨市城关区锦江之星上海大厦店"}},{"type":"Feature","geometry":{"type":"Point","coordinates":[91.137198,29.657844]},"properties":{"full_address":"西藏自治区拉萨市城关区那曲第三高级中学"}},{"type":"Feature","geometry":{"type":"Point","coordinates":[91.069293,29.657767]},"properties":{"full_address":"西藏自治区拉萨市城关区西苑6栋1单元"}},{"type":"Feature","geometry":{"type":"Point","coordinates":[91.148307,29.682842]},"properties":{"full_address":"西藏自治区拉萨市城关区夺底路45号"}},{"type":"Feature","geometry":{"type":"Point","coordinates":[91.096285,29.655515]},"properties":{"full_address":"西藏自治区拉萨市城关区拉萨饭店"}},{"type":"Feature","geometry":{"type":"Point","coordinates":[91.129506,29.652469]},"properties":{"full_address":"西藏自治区拉萨市城关区功德林天街三楼贵哥卤肉卷"}},{"type":"Feature","geometry":{"type":"Point","coordinates":[91.145261,29.646277]},"properties":{"full_address":"西藏自治区拉萨市城关区林聚南路西藏大学后门北侧财政局商品房7-8号藏大俄洛桥烧烤店"}},{"type":"Feature","geometry":{"type":"Point","coordinates":[91.137683,29.657819]},"properties":{"full_address":"西藏自治区拉萨市城关区纳金路63号万科书店"}},{"type":"Feature","geometry":{"type":"Point","coordinates":[91.134509,29.665798]},"properties":{"full_address":"西藏自治区拉萨市城关区江苏大道塔玛西路游乐园幼儿园（东郊园区）"}},{"type":"Feature","geometry":{"type":"Point","coordinates":[91.10743,29.6543]},"properties":{"full_address":"西藏自治区拉萨市城关区德吉中路龙布斯钦酒吧"}},{"type":"Feature","geometry":{"type":"Point","coordinates":[91.148556,29.662871]},"properties":{"full_address":"西藏自治区拉萨市城关区当热东路蜀邑香毛肚火锅"}},{"type":"Feature","geometry":{"type":"Point","coordinates":[91.128348,29.664314]},"properties":{"full_address":"西藏自治区拉萨市城关区团结新村北门当热中路德居宾馆"}},{"type":"Feature","geometry":{"type":"Point","coordinates":[91.131503,29.651767]},"properties":{"full_address":"西藏自治区拉萨市城关区丹杰林路光明港琼甜茶馆"}},{"type":"Feature","geometry":{"type":"Point","coordinates":[91.129855,29.657839]},"properties":{"full_address":"西藏自治区拉萨市城关区林廓北路温州商贸城"}},{"type":"Feature","geometry":{"type":"Point","coordinates":[91.121675,29.671719]},"properties":{"full_address":"西藏自治区拉萨市城关区娘热路幸福新村"}},{"type":"Feature","geometry":{"type":"Point","coordinates":[91.131375,29.6562]},"properties":{"full_address":"西藏自治区拉萨市城关区丹杰林路18号（扎西私房）"}},{"type":"Feature","geometry":{"type":"Point","coordinates":[90.992501,29.647322]},"properties":{"full_address":"西藏自治区拉萨市堆龙德庆区南嘎社区钢材市场"}},{"type":"Feature","geometry":{"type":"Point","coordinates":[90.998542,29.645847]},"properties":{"full_address":"西藏自治区拉萨市堆龙德庆区南嘎社区批发市场南门4号自建房"}},{"type":"Feature","geometry":{"type":"Point","coordinates":[90.997985,29.616743]},"properties":{"full_address":"西藏自治区拉萨市堆龙德庆区岗德林社区4组索朗晋美出租房"}},{"type":"Feature","geometry":{"type":"Point","coordinates":[90.986029,29.630313]},"properties":{"full_address":"西藏自治区拉萨市堆龙德庆区乃琼街道弘顺装卸楼员工宿舍"}},{"type":"Feature","geometry":{"type":"Point","coordinates":[90.976036,29.655375]},"properties":{"full_address":"西藏自治区拉萨市堆龙德庆区乃琼街道乃琼社区3组67号"}},{"type":"Feature","geometry":{"type":"Point","coordinates":[91.089381,29.607424]},"properties":{"full_address":"西藏自治区拉萨市堆龙德庆区柳梧万达南阳大师傅蛋糕店"}},{"type":"Feature","geometry":{"type":"Point","coordinates":[90.997985,29.616743]},"properties":{"full_address":"西藏自治区拉萨市堆龙德庆区经开区旺唐岗德林购物店"}},{"type":"Feature","geometry":{"type":"Point","coordinates":[91.089381,29.607424]},"properties":{"full_address":"西藏自治区拉萨市堆龙德庆区柳梧万达吉源烤肉店"}},{"type":"Feature","geometry":{"type":"Point","coordinates":[91.078954,29.628728]},"properties":{"full_address":"西藏自治区拉萨市堆龙德庆区高度江南岸小区"}},{"type":"Feature","geometry":{"type":"Point","coordinates":[91.078954,29.628728]},"properties":{"full_address":"西藏自治区拉萨市堆龙德庆区天知珑怡小区"}},{"type":"Feature","geometry":{"type":"Point","coordinates":[91.089381,29.607424]},"properties":{"full_address":"西藏自治区拉萨市堆龙德庆区柳梧村火车站集体出租房"}},{"type":"Feature","geometry":{"type":"Point","coordinates":[91.078004,29.613347]},"properties":{"full_address":"西藏自治区拉萨市堆龙德庆区桑旦林一期小区"}},{"type":"Feature","geometry":{"type":"Point","coordinates":[90.972526,29.656817]},"properties":{"full_address":"西藏自治区拉萨市堆龙德庆区东嘎街道祥和苑社区"}},{"type":"Feature","geometry":{"type":"Point","coordinates":[90.972526,29.656817]},"properties":{"full_address":"西藏自治区拉萨市堆龙德庆区东嘎街道祥和苑社区东侧老路入口自建出租房仲多仓公寓"}},{"type":"Feature","geometry":{"type":"Point","coordinates":[90.952631,29.662911]},"properties":{"full_address":"西藏自治区拉萨市堆龙德庆区羊达社区2组沿街门面房"}},{"type":"Feature","geometry":{"type":"Point","coordinates":[91.024716,29.649859]},"properties":{"full_address":"西藏自治区拉萨市堆龙德庆区东嘎社区1组门面房瑞峰商务酒店"}},{"type":"Feature","geometry":{"type":"Point","coordinates":[90.998542,29.645847]},"properties":{"full_address":"西藏自治区拉萨市堆龙德庆区南嘎社区2组扎西出租房"}},{"type":"Feature","geometry":{"type":"Point","coordinates":[90.998157,29.652495]},"properties":{"full_address":"西藏自治区拉萨市堆龙德庆区东嘎水泥厂龙龙公寓"}},{"type":"Feature","geometry":{"type":"Point","coordinates":[90.997985,29.616743]},"properties":{"full_address":"西藏自治区拉萨市堆龙德庆区岗德林社区3组结成出租房"}},{"type":"Feature","geometry":{"type":"Point","coordinates":[90.997985,29.616743]},"properties":{"full_address":"西藏自治区拉萨市堆龙德庆区岗德林社区4组喜明公寓"}},{"type":"Feature","geometry":{"type":"Point","coordinates":[90.992195,29.644175]},"properties":{"full_address":"西藏自治区拉萨市堆龙德庆区东嘎街道加落路4号"}},{"type":"Feature","geometry":{"type":"Point","coordinates":[91.009065,29.635768]},"properties":{"full_address":"西藏自治区拉萨市堆龙德庆区东嘎街道拉贡路1247—5号"}},{"type":"Feature","geometry":{"type":"Point","coordinates":[90.984049,29.630491]},"properties":{"full_address":"西藏自治区拉萨市堆龙德庆区乃琼街道波玛路915号"}},{"type":"Feature","geometry":{"type":"Point","coordinates":[90.99432,29.651824]},"properties":{"full_address":"西藏自治区拉萨市堆龙德庆区东嘎街道青藏路528—3号"}},{"type":"Feature","geometry":{"type":"Point","coordinates":[91.297229,29.658637]},"properties":{"full_address":"西藏自治区拉萨市达孜区德庆镇桑珠林村"}},{"type":"Feature","geometry":{"type":"Point","coordinates":[91.385825,29.692868]},"properties":{"full_address":"西藏自治区拉萨市达孜区邦堆乡邦堆村"}},{"type":"Feature","geometry":{"type":"Point","coordinates":[91.160684,29.903121]},"properties":{"full_address":"西藏自治区拉萨市林周县卡孜乡路2号"}},{"type":"Feature","geometry":{"type":"Point","coordinates":[91.258337,29.896414]},"properties":{"full_address":"西藏自治区拉萨市林周县甘曲镇甘曲路17号附4（醉人音响店）"}},{"type":"Feature","geometry":{"type":"Point","coordinates":[91.265288,29.893545]},"properties":{"full_address":"西藏自治区拉萨市林周县江夏乡江夏路2号"}},{"type":"Feature","geometry":{"type":"Point","coordinates":[91.265288,29.893545]},"properties":{"full_address":"西藏自治区拉萨市林周县江夏乡江夏路江夏组朗白仓商店"}},{"type":"Feature","geometry":{"type":"Point","coordinates":[91.197562,29.921802]},"properties":{"full_address":"西藏自治区拉萨市林周县强嘎乡曲嘎强村搬迁组"}},{"type":"Feature","geometry":{"type":"Point","coordinates":[91.010582,29.942512]},"properties":{"full_address":"西藏自治区拉萨市林周县春堆乡春堆村当巴组"}},{"type":"Feature","geometry":{"type":"Point","coordinates":[91.158801,29.870982]},"properties":{"full_address":"西藏自治区拉萨市林周县卡孜乡托门村恰西组"}},{"type":"Feature","geometry":{"type":"Point","coordinates":[91.403462,30.559743]},"properties":{"full_address":"西藏自治区拉萨市当雄县乌玛塘乡郝如村1、2、3组"}},{"type":"Feature","geometry":{"type":"Point","coordinates":[91.576988,30.607132]},"properties":{"full_address":"西藏自治区拉萨市当雄县乌玛塘乡郭尼村2、3、4、5组"}},{"type":"Feature","geometry":{"type":"Point","coordinates":[91.490608,30.578024]},"properties":{"full_address":"西藏自治区拉萨市当雄县乌玛塘乡纳龙村"}},{"type":"Feature","geometry":{"type":"Point","coordinates":[90.533806,30.087167]},"properties":{"full_address":"西藏自治区拉萨市当雄县羊八井镇桑巴萨社区2组除康桑区域以外的其他区域"}},{"type":"Feature","geometry":{"type":"Point","coordinates":[91.109596,30.475618]},"properties":{"full_address":"西藏自治区拉萨市当雄县当曲卡镇当区社区"}},{"type":"Feature","geometry":{"type":"Point","coordinates":[91.101162,30.473119]},"properties":{"full_address":"西藏自治区拉萨市当雄县城后藏茶馆"}},{"type":"Feature","geometry":{"type":"Point","coordinates":[90.157878,29.436547]},"properties":{"full_address":"西藏自治区拉萨市尼木县塔荣镇塔荣村2组"}},{"type":"Feature","geometry":{"type":"Point","coordinates":[90.363839,29.465182]},"properties":{"full_address":"西藏自治区拉萨市尼木县续迈乡霍德村2组"}},{"type":"Feature","geometry":{"type":"Point","coordinates":[90.754297,29.352563]},"properties":{"full_address":"西藏自治区拉萨市曲水县曲水村沿河路12号"}},{"type":"Feature","geometry":{"type":"Point","coordinates":[90.714235,29.409944]},"properties":{"full_address":"西藏自治区拉萨市曲水县曲水镇曲甫路幸福度假村"}},{"type":"Feature","geometry":{"type":"Point","coordinates":[91.792209,29.804514]},"properties":{"full_address":"西藏自治区拉萨市墨竹工卡县工卡镇格桑村6组"}},{"type":"Feature","geometry":{"type":"Point","coordinates":[91.730866,29.834132]},"properties":{"full_address":"西藏自治区拉萨市墨竹工卡县姐妹宽粉店"}},{"type":"Feature","geometry":{"type":"Point","coordinates":[91.730866,29.834132]},"properties":{"full_address":"西藏自治区拉萨市墨竹工卡县城铁链包子店"}},{"type":"Feature","geometry":{"type":"Point","coordinates":[91.730866,29.834132]},"properties":{"full_address":"西藏自治区拉萨市墨竹工卡县四海超市旁回族服装店"}},{"type":"Feature","geometry":{"type":"Point","coordinates":[91.65893,29.758854]},"properties":{"full_address":"西藏自治区拉萨市墨竹工卡县甲玛批发购物"}},{"type":"Feature","geometry":{"type":"Point","coordinates":[88.878795,29.268422]},"properties":{"full_address":"西藏自治区日喀则市桑珠孜区通源小区"}},{"type":"Feature","geometry":{"type":"Point","coordinates":[88.88727,29.270389]},"properties":{"full_address":"西藏自治区日喀则市桑珠孜区南郊公租房二区13栋"}},{"type":"Feature","geometry":{"type":"Point","coordinates":[88.881405,29.265892]},"properties":{"full_address":"西藏自治区日喀则市桑珠孜区山东北路欧氏诊所"}},{"type":"Feature","geometry":{"type":"Point","coordinates":[88.889414,29.254051]},"properties":{"full_address":"西藏自治区日喀则市桑珠孜区教育安居23栋"}},{"type":"Feature","geometry":{"type":"Point","coordinates":[88.897636,29.241721]},"properties":{"full_address":"西藏自治区日喀则市桑珠孜区黑龙江南路牛爱猪韩式碳烤店"}},{"type":"Feature","geometry":{"type":"Point","coordinates":[88.885624,29.240181]},"properties":{"full_address":"西藏自治区日喀则市桑珠孜区鸿达花园C区7号"}},{"type":"Feature","geometry":{"type":"Point","coordinates":[88.885162,29.264153]},"properties":{"full_address":"西藏自治区日喀则市桑珠孜区藏隆广场生艾堂"}},{"type":"Feature","geometry":{"type":"Point","coordinates":[88.88727,29.270389]},"properties":{"full_address":"西藏自治区日喀则市桑珠孜区矿业小区1栋"}},{"type":"Feature","geometry":{"type":"Point","coordinates":[88.886213,29.256468]},"properties":{"full_address":"西藏自治区日喀则市桑珠孜区交警支队住宿楼三单元"}},{"type":"Feature","geometry":{"type":"Point","coordinates":[88.889578,29.273801]},"properties":{"full_address":"西藏自治区日喀则市桑珠孜区教武场社区金珠林新建教武场东南角正对面10栋自建房"}},{"type":"Feature","geometry":{"type":"Point","coordinates":[88.882225,29.258805]},"properties":{"full_address":"西藏自治区日喀则市桑珠孜区嘎玉林社区第一高级中学西面自建房自北向南第5排"}},{"type":"Feature","geometry":{"type":"Point","coordinates":[88.86618,29.253392]},"properties":{"full_address":"西藏自治区日喀则市桑珠孜区德勒社区办公楼北面10栋自建房"}},{"type":"Feature","geometry":{"type":"Point","coordinates":[88.83453,29.441032]},"properties":{"full_address":"西藏自治区日喀则市桑珠孜区城南街道康萨二区"}},{"type":"Feature","geometry":{"type":"Point","coordinates":[88.879737,29.269282]},"properties":{"full_address":"西藏自治区日喀则市桑珠孜区雪强路扎西曲塔酒店（喜嘎央恰）"}},{"type":"Feature","geometry":{"type":"Point","coordinates":[88.88061,29.269131]},"properties":{"full_address":"西藏自治区日喀则市桑珠孜区桑珠孜饭店雪强路18号"}},{"type":"Feature","geometry":{"type":"Point","coordinates":[88.887363,29.278796]},"properties":{"full_address":"西藏自治区日喀则市桑珠孜区米日社区顿珠贵林景苑"}},{"type":"Feature","geometry":{"type":"Point","coordinates":[88.83571,29.35504]},"properties":{"full_address":"西藏自治区日喀则市桑珠孜区东嘎乡同热村"}},{"type":"Feature","geometry":{"type":"Point","coordinates":[88.83571,29.35504]},"properties":{"full_address":"西藏自治区日喀则市桑珠孜区东嘎乡加木切村附近活动板房区（昌都市天磊建设工程有限公司）"}},{"type":"Feature","geometry":{"type":"Point","coordinates":[88.936052,29.184234]},"properties":{"full_address":"西藏自治区日喀则市桑珠孜区甲措雄乡比杂村"}},{"type":"Feature","geometry":{"type":"Point","coordinates":[88.885162,29.264153]},"properties":{"full_address":"西藏自治区日喀则市桑珠孜区藏隆广场黄记煌餐厅"}},{"type":"Feature","geometry":{"type":"Point","coordinates":[88.901485,29.255269]},"properties":{"full_address":"西藏自治区日喀则市桑珠孜区雄孜热小区A区10号"}},{"type":"Feature","geometry":{"type":"Point","coordinates":[88.88727,29.270389]},"properties":{"full_address":"西藏自治区日喀则市桑珠孜区齐鲁大道旦木念苍餐厅"}},{"type":"Feature","geometry":{"type":"Point","coordinates":[88.898211,29.254972]},"properties":{"full_address":"西藏自治区日喀则市桑珠孜区龙江路茗珠缘茶会所"}},{"type":"Feature","geometry":{"type":"Point","coordinates":[88.89335,29.252779]},"properties":{"full_address":"西藏自治区日喀则市桑珠孜区黑龙江路白雪藏餐"}},{"type":"Feature","geometry":{"type":"Point","coordinates":[88.88023,29.263263]},"properties":{"full_address":"西藏自治区日喀则市桑珠孜区珠峰路电信公司职工周转房5栋"}},{"type":"Feature","geometry":{"type":"Point","coordinates":[88.893402,29.270536]},"properties":{"full_address":"西藏自治区日喀则市桑珠孜区神湖1区1栋"}},{"type":"Feature","geometry":{"type":"Point","coordinates":[88.898494,29.263593]},"properties":{"full_address":"西藏自治区日喀则市桑珠孜区雅喜花园"}},{"type":"Feature","geometry":{"type":"Point","coordinates":[88.886634,29.263474]},"properties":{"full_address":"西藏自治区日喀则市桑珠孜区珠峰路农行公寓16栋"}},{"type":"Feature","geometry":{"type":"Point","coordinates":[88.896135,29.259659]},"properties":{"full_address":"西藏自治区日喀则市桑珠孜区达热瓦安居B区9栋"}},{"type":"Feature","geometry":{"type":"Point","coordinates":[88.882191,29.268904]},"properties":{"full_address":"西藏自治区日喀则市桑珠孜区金龙菜市场"}},{"type":"Feature","geometry":{"type":"Point","coordinates":[88.89036,29.257209]},"properties":{"full_address":"西藏自治区日喀则市桑珠孜区人行退休基地"}},{"type":"Feature","geometry":{"type":"Point","coordinates":[88.879162,29.273336]},"properties":{"full_address":"西藏自治区日喀则市桑珠孜区雪强路远大诊所"}},{"type":"Feature","geometry":{"type":"Point","coordinates":[88.88727,29.270389]},"properties":{"full_address":"西藏自治区日喀则市桑珠孜区五居委5号"}},{"type":"Feature","geometry":{"type":"Point","coordinates":[88.881501,29.268986]},"properties":{"full_address":"西藏自治区日喀则市桑珠孜区青岛西路建司内科诊所"}},{"type":"Feature","geometry":{"type":"Point","coordinates":[88.882339,29.261923]},"properties":{"full_address":"西藏自治区日喀则市桑珠孜区哥比伦咖啡店"}},{"type":"Feature","geometry":{"type":"Point","coordinates":[88.896135,29.259659]},"properties":{"full_address":"西藏自治区日喀则市桑珠孜区达热瓦小区拉萨贡吉茶馆第三分店"}},{"type":"Feature","geometry":{"type":"Point","coordinates":[88.86618,29.253392]},"properties":{"full_address":"西藏自治区日喀则市桑珠孜区德勒社区英悦旱冰场"}},{"type":"Feature","geometry":{"type":"Point","coordinates":[88.873496,29.261219]},"properties":{"full_address":"西藏自治区日喀则市桑珠孜区珠峰西路扎寺广场西侧丰盛餐馆"}},{"type":"Feature","geometry":{"type":"Point","coordinates":[88.87725,29.265909]},"properties":{"full_address":"西藏自治区日喀则市桑珠孜区步行街平措丰盛餐馆"}},{"type":"Feature","geometry":{"type":"Point","coordinates":[89.101213,29.684993]},"properties":{"full_address":"西藏自治区日喀则市南木林县南木林镇甲岗宗巴（往东、南、西）（门牌：002号至036号）共35户"}},{"type":"Feature","geometry":{"type":"Point","coordinates":[89.082383,29.683758]},"properties":{"full_address":"西藏自治区日喀则市南木林县南木林镇岗巴村（森康自然村）"}},{"type":"Feature","geometry":{"type":"Point","coordinates":[89.548949,28.825075]},"properties":{"full_address":"西藏自治区日喀则市江孜县江热乡拉鲁村"}},{"type":"Feature","geometry":{"type":"Point","coordinates":[87.122625,28.659554]},"properties":{"full_address":"西藏自治区日喀则市定日县协格尔镇德吉小区（德吉小区1栋1单元除外）"}},{"type":"Feature","geometry":{"type":"Point","coordinates":[87.122625,28.659554]},"properties":{"full_address":"西藏自治区日喀则市定日县协格尔镇政法小区"}},{"type":"Feature","geometry":{"type":"Point","coordinates":[87.128161,28.656636]},"properties":{"full_address":"西藏自治区日喀则市定日县协格尔镇阳光小区（定日县协格尔镇阳光小区1栋2单元和3栋2单元除外）"}},{"type":"Feature","geometry":{"type":"Point","coordinates":[87.123251,28.657505]},"properties":{"full_address":"西藏自治区日喀则市定日县协格尔镇珠峰南路2号"}},{"type":"Feature","geometry":{"type":"Point","coordinates":[87.124208,28.659042]},"properties":{"full_address":"西藏自治区日喀则市定日县国网西藏电力有限公司定日县供电公司"}},{"type":"Feature","geometry":{"type":"Point","coordinates":[87.12612,28.658743]},"properties":{"full_address":"西藏自治区日喀则市定日县城易地搬迁点"}},{"type":"Feature","geometry":{"type":"Point","coordinates":[87.122625,28.659554]},"properties":{"full_address":"西藏自治区日喀则市定日县协格尔镇格桑花小区（格桑花小区28栋二单元除外）"}},{"type":"Feature","geometry":{"type":"Point","coordinates":[87.122625,28.659554]},"properties":{"full_address":"西藏自治区日喀则市定日县协格尔镇扎西小区（扎西小区一栋一单元除外）"}},{"type":"Feature","geometry":{"type":"Point","coordinates":[88.497964,29.161721]},"properties":{"full_address":"西藏自治区日喀则市萨迦县扯休乡朗巴吉村"}},{"type":"Feature","geometry":{"type":"Point","coordinates":[87.984043,28.915861]},"properties":{"full_address":"西藏自治区日喀则市萨迦县扎西岗乡查玛村"}},{"type":"Feature","geometry":{"type":"Point","coordinates":[87.982882,28.881727]},"properties":{"full_address":"西藏自治区日喀则市萨迦县扎西岗乡玉萨村"}},{"type":"Feature","geometry":{"type":"Point","coordinates":[88.021964,28.903121]},"properties":{"full_address":"西藏自治区日喀则市萨迦县萨迦镇团结村"}},{"type":"Feature","geometry":{"type":"Point","coordinates":[88.021674,28.899664]},"properties":{"full_address":"西藏自治区日喀则市萨迦县班智达西路2号"}},{"type":"Feature","geometry":{"type":"Point","coordinates":[88.021674,28.899664]},"properties":{"full_address":"西藏自治区日喀则市萨迦县拉章北路5号"}},{"type":"Feature","geometry":{"type":"Point","coordinates":[88.093522,28.919861]},"properties":{"full_address":"西藏自治区日喀则市萨迦县萨迦镇多夏村"}},{"type":"Feature","geometry":{"type":"Point","coordinates":[88.181877,28.821985]},"properties":{"full_address":"西藏自治区日喀则市萨迦县萨迦镇卡吾村"}},{"type":"Feature","geometry":{"type":"Point","coordinates":[88.031905,28.93403]},"properties":{"full_address":"西藏自治区日喀则市萨迦县萨迦镇索西村"}},{"type":"Feature","geometry":{"type":"Point","coordinates":[88.021674,28.899664]},"properties":{"full_address":"西藏自治区日喀则市萨迦县新城北路2号"}},{"type":"Feature","geometry":{"type":"Point","coordinates":[88.58614,29.155719]},"properties":{"full_address":"西藏自治区日喀则市萨迦县扯休乡生玛村"}},{"type":"Feature","geometry":{"type":"Point","coordinates":[88.454114,29.156447]},"properties":{"full_address":"西藏自治区日喀则市萨迦县扯休乡乃村"}},{"type":"Feature","geometry":{"type":"Point","coordinates":[88.454114,29.156447]},"properties":{"full_address":"西藏自治区日喀则市萨迦县扯休乡乃夏村"}},{"type":"Feature","geometry":{"type":"Point","coordinates":[88.470282,29.176792]},"properties":{"full_address":"西藏自治区日喀则市萨迦县扯休乡吉雄村"}},{"type":"Feature","geometry":{"type":"Point","coordinates":[88.442903,29.176877]},"properties":{"full_address":"西藏自治区日喀则市萨迦县扯休乡嘎吉林村"}},{"type":"Feature","geometry":{"type":"Point","coordinates":[88.55525,28.855034]},"properties":{"full_address":"西藏自治区日喀则市萨迦县拉洛乡觉村"}},{"type":"Feature","geometry":{"type":"Point","coordinates":[88.434076,29.028389]},"properties":{"full_address":"西藏自治区日喀则市萨迦县雄玛乡江嘎村"}},{"type":"Feature","geometry":{"type":"Point","coordinates":[88.360032,29.209495]},"properties":{"full_address":"西藏自治区日喀则市萨迦县吉定镇德吉林村"}},{"type":"Feature","geometry":{"type":"Point","coordinates":[87.844647,28.665103]},"properties":{"full_address":"西藏自治区日喀则市萨迦县麻布加乡麻布加村"}},{"type":"Feature","geometry":{"type":"Point","coordinates":[88.360032,29.209495]},"properties":{"full_address":"西藏自治区日喀则市萨迦县吉定镇农业银行"}},{"type":"Feature","geometry":{"type":"Point","coordinates":[87.652699,29.009171]},"properties":{"full_address":"西藏自治区日喀则市拉孜县曲下镇德林村"}},{"type":"Feature","geometry":{"type":"Point","coordinates":[88.13654,29.294435]},"properties":{"full_address":"西藏自治区日喀则市拉孜县扎西岗乡扎西岗村"}},{"type":"Feature","geometry":{"type":"Point","coordinates":[87.712941,29.089832]},"properties":{"full_address":"西藏自治区日喀则市拉孜县锡钦乡格白村"}},{"type":"Feature","geometry":{"type":"Point","coordinates":[88.202154,29.146797]},"properties":{"full_address":"西藏自治区日喀则市拉孜县柳乡柳村杂自然村"}},{"type":"Feature","geometry":{"type":"Point","coordinates":[87.753142,29.298559]},"properties":{"full_address":"西藏自治区日喀则市拉孜县曲玛乡达布村"}},{"type":"Feature","geometry":{"type":"Point","coordinates":[87.695435,29.156613]},"properties":{"full_address":"西藏自治区日喀则市拉孜县拉孜镇拉孜村"}},{"type":"Feature","geometry":{"type":"Point","coordinates":[87.653548,28.925267]},"properties":{"full_address":"西藏自治区日喀则市拉孜县芒普乡普村（普下自然村）"}},{"type":"Feature","geometry":{"type":"Point","coordinates":[86.031446,29.478455]},"properties":{"full_address":"西藏自治区日喀则市昂仁县切热乡龙玛村"}},{"type":"Feature","geometry":{"type":"Point","coordinates":[87.18314,29.26918]},"properties":{"full_address":"西藏自治区日喀则市昂仁县国道349卡嘎镇二级公安检查站往东150米路北"}},{"type":"Feature","geometry":{"type":"Point","coordinates":[86.725946,29.414938]},"properties":{"full_address":"西藏自治区日喀则市昂仁县桑桑镇茂运商务酒店"}},{"type":"Feature","geometry":{"type":"Point","coordinates":[88.70593,30.145357]},"properties":{"full_address":"西藏自治区日喀则市谢通门县娘热乡欧若村"}},{"type":"Feature","geometry":{"type":"Point","coordinates":[88.831219,30.045156]},"properties":{"full_address":"西藏自治区日喀则市谢通门县娘热乡果索村"}},{"type":"Feature","geometry":{"type":"Point","coordinates":[88.169146,30.207384]},"properties":{"full_address":"西藏自治区日喀则市谢通门县娘热乡卡嘎村"}},{"type":"Feature","geometry":{"type":"Point","coordinates":[89.232503,29.233448]},"properties":{"full_address":"西藏自治区日喀则市白朗县嘎东镇亚温村"}},{"type":"Feature","geometry":{"type":"Point","coordinates":[89.156942,29.199503]},"properties":{"full_address":"西藏自治区日喀则市白朗县嘎东镇热旦康萨村"}},{"type":"Feature","geometry":{"type":"Point","coordinates":[89.143905,29.171938]},"properties":{"full_address":"西藏自治区日喀则市白朗县巴扎乡巴扎村"}},{"type":"Feature","geometry":{"type":"Point","coordinates":[89.208646,29.016563]},"properties":{"full_address":"西藏自治区日喀则市白朗县曲奴乡萨嘎村"}},{"type":"Feature","geometry":{"type":"Point","coordinates":[89.946314,29.182371]},"properties":{"full_address":"西藏自治区日喀则市仁布县查巴乡查巴村查巴自然村"}},{"type":"Feature","geometry":{"type":"Point","coordinates":[89.841984,29.230933]},"properties":{"full_address":"西藏自治区日喀则市仁布县中国邮政集团有限公司西藏自治区仁布县分公司"}},{"type":"Feature","geometry":{"type":"Point","coordinates":[89.841984,29.230933]},"properties":{"full_address":"西藏自治区日喀则市仁布县新城小区"}},{"type":"Feature","geometry":{"type":"Point","coordinates":[89.841984,29.230933]},"properties":{"full_address":"西藏自治区日喀则市仁布县老中学小区"}},{"type":"Feature","geometry":{"type":"Point","coordinates":[89.664715,28.843074]},"properties":{"full_address":"西藏自治区日喀则市康马县南尼乡曲热村"}},{"type":"Feature","geometry":{"type":"Point","coordinates":[89.64944,28.711741]},"properties":{"full_address":"西藏自治区日喀则市康马县少岗乡少岗村夺底小组"}},{"type":"Feature","geometry":{"type":"Point","coordinates":[87.76887,28.363561]},"properties":{"full_address":"西藏自治区日喀则市定结县定结县电信局"}},{"type":"Feature","geometry":{"type":"Point","coordinates":[87.863403,28.174214]},"properties":{"full_address":"西藏自治区日喀则市定结县琼孜乡哲圭村第3栋居民房"}},{"type":"Feature","geometry":{"type":"Point","coordinates":[89.677654,28.555734]},"properties":{"full_address":"西藏自治区日喀则市仲巴县拉让乡:东至柴曲河桥，西至环城路与219国道交叉口，南至中石油加油站，北至柴曲河电站"}},{"type":"Feature","geometry":{"type":"Point","coordinates":[83.673416,29.993312]},"properties":{"full_address":"西藏自治区日喀则市仲巴县帕羊镇神山驿站:东至岗久村村委会，西至藏白玉加工厂，南至马泉河幸福桥，北至帕羊镇变电站"}},{"type":"Feature","geometry":{"type":"Point","coordinates":[83.345518,30.174228]},"properties":{"full_address":"西藏自治区日喀则市仲巴县霍尔巴检查站:东至纽河，西至贡桑村冬季草场，南至贡桑老村委会，北至贡桑新村"}},{"type":"Feature","geometry":{"type":"Point","coordinates":[88.907094,27.484806]},"properties":{"full_address":"西藏自治区日喀则市亚东县仓琼家庭旅馆"}},{"type":"Feature","geometry":{"type":"Point","coordinates":[88.850618,27.554367]},"properties":{"full_address":"西藏自治区日喀则市亚东县下司马镇下司马社区居委会"}},{"type":"Feature","geometry":{"type":"Point","coordinates":[88.929673,27.690571]},"properties":{"full_address":"西藏自治区日喀则市亚东县康布乡下康布村"}},{"type":"Feature","geometry":{"type":"Point","coordinates":[85.98042,28.156052]},"properties":{"full_address":"西藏自治区日喀则市聂拉木县充堆路遇见KTV"}},{"type":"Feature","geometry":{"type":"Point","coordinates":[85.982206,28.154184]},"properties":{"full_address":"西藏自治区日喀则市聂拉木县盛南宾馆"}},{"type":"Feature","geometry":{"type":"Point","coordinates":[85.98042,28.156052]},"properties":{"full_address":"西藏自治区日喀则市聂拉木县充堆路53-2"}},{"type":"Feature","geometry":{"type":"Point","coordinates":[85.983172,27.989329]},"properties":{"full_address":"西藏自治区日喀则市聂拉木县农业银行"}},{"type":"Feature","geometry":{"type":"Point","coordinates":[89.265319,29.104682]},"properties":{"full_address":"西藏自治区日喀则市聂拉木县粮食局"}},{"type":"Feature","geometry":{"type":"Point","coordinates":[85.982237,28.155186]},"properties":{"full_address":"西藏自治区日喀则市聂拉木县聂拉木县互惠互利超市"}},{"type":"Feature","geometry":{"type":"Point","coordinates":[86.140129,28.4172]},"properties":{"full_address":"西藏自治区日喀则市聂拉木县亚来乡来新村"}},{"type":"Feature","geometry":{"type":"Point","coordinates":[86.007601,28.23663]},"properties":{"full_address":"西藏自治区日喀则市聂拉木县聂拉木镇江岗村"}},{"type":"Feature","geometry":{"type":"Point","coordinates":[86.166991,28.451186]},"properties":{"full_address":"西藏自治区日喀则市聂拉木县亚来乡土龙村"}},{"type":"Feature","geometry":{"type":"Point","coordinates":[85.98042,28.156052]},"properties":{"full_address":"西藏自治区日喀则市聂拉木县充堆路"}},{"type":"Feature","geometry":{"type":"Point","coordinates":[85.978659,28.154206]},"properties":{"full_address":"西藏自治区日喀则市聂拉木县老阳光小区1栋1单元"}},{"type":"Feature","geometry":{"type":"Point","coordinates":[85.979298,28.157194]},"properties":{"full_address":"西藏自治区日喀则市聂拉木县聂拉木镇16-2"}},{"type":"Feature","geometry":{"type":"Point","coordinates":[84.877684,29.353044]},"properties":{"full_address":"西藏自治区日喀则市萨嘎县雄如乡布扎村"}},{"type":"Feature","geometry":{"type":"Point","coordinates":[84.850899,29.417317]},"properties":{"full_address":"西藏自治区日喀则市萨嘎县雄如乡嘎康村"}},{"type":"Feature","geometry":{"type":"Point","coordinates":[85.234315,29.328032]},"properties":{"full_address":"西藏自治区日喀则市萨嘎县加布村自建房18号"}},{"type":"Feature","geometry":{"type":"Point","coordinates":[88.463197,28.232566]},"properties":{"full_address":"西藏自治区日喀则市岗巴县岗巴镇加达村17号"}},{"type":"Feature","geometry":{"type":"Point","coordinates":[97.182261,31.136554]},"properties":{"full_address":"西藏自治区昌都市卡若区聚盛路156号二娃劳保店"}},{"type":"Feature","geometry":{"type":"Point","coordinates":[97.181359,31.135151]},"properties":{"full_address":"西藏自治区昌都市卡若区聚盛路昌庆街社区10号"}},{"type":"Feature","geometry":{"type":"Point","coordinates":[97.177256,31.129798]},"properties":{"full_address":"西藏自治区昌都市卡若区邦达街社区邦达路38号以及与之紧邻的建筑（含邦达路128号、邦达街266号及无门牌号建筑）"}},{"type":"Feature","geometry":{"type":"Point","coordinates":[96.914296,31.825842]},"properties":{"full_address":"西藏自治区昌都市卡若区嘎玛乡瓦孜行政村除高风险区外的其余自然村"}},{"type":"Feature","geometry":{"type":"Point","coordinates":[97.174552,31.137467]},"properties":{"full_address":"西藏自治区昌都市卡若区聚盛路176号"}},{"type":"Feature","geometry":{"type":"Point","coordinates":[97.179312,31.138259]},"properties":{"full_address":"西藏自治区昌都市卡若区茶马广场书亦烧仙草2号店"}},{"type":"Feature","geometry":{"type":"Point","coordinates":[97.182384,31.137493]},"properties":{"full_address":"西藏自治区昌都市卡若区第一综合农贸市场负2层"}},{"type":"Feature","geometry":{"type":"Point","coordinates":[97.180437,31.138507]},"properties":{"full_address":"西藏自治区昌都市卡若区达因卡华子蔬菜水果店"}},{"type":"Feature","geometry":{"type":"Point","coordinates":[97.179312,31.138259]},"properties":{"full_address":"西藏自治区昌都市卡若区茶马广场老友面馆（瑞庭酒店旁）"}},{"type":"Feature","geometry":{"type":"Point","coordinates":[97.180437,31.138507]},"properties":{"full_address":"西藏自治区昌都市卡若区达因卡廉租房小区除8号楼以外其他楼"}},{"type":"Feature","geometry":{"type":"Point","coordinates":[97.180437,31.138507]},"properties":{"full_address":"西藏自治区昌都市卡若区东路19号AAA爱车房美容店"}},{"type":"Feature","geometry":{"type":"Point","coordinates":[97.179312,31.138259]},"properties":{"full_address":"西藏自治区昌都市卡若区茶马广场济世堂大药房"}},{"type":"Feature","geometry":{"type":"Point","coordinates":[97.178604,31.135406]},"properties":{"full_address":"西藏自治区昌都市卡若区新丝路理发店"}},{"type":"Feature","geometry":{"type":"Point","coordinates":[97.180437,31.138507]},"properties":{"full_address":"西藏自治区昌都市卡若区李家炒货"}},{"type":"Feature","geometry":{"type":"Point","coordinates":[94.360144,29.663603]},"properties":{"full_address":"西藏自治区林芝市巴宜区水之缘桑拿浴足中心"}},{"type":"Feature","geometry":{"type":"Point","coordinates":[94.356352,29.674976]},"properties":{"full_address":"西藏自治区林芝市巴宜区双拥北路9号八一电厂小区7栋"}},{"type":"Feature","geometry":{"type":"Point","coordinates":[94.477744,29.449557]},"properties":{"full_address":"西藏自治区林芝市巴宜区林芝镇立定村"}},{"type":"Feature","geometry":{"type":"Point","coordinates":[94.377417,29.633605]},"properties":{"full_address":"西藏自治区林芝市巴宜区德吉小区"}},{"type":"Feature","geometry":{"type":"Point","coordinates":[94.377447,29.626388]},"properties":{"full_address":"西藏自治区林芝市巴宜区巴吉西路国家能源集团1栋"}},{"type":"Feature","geometry":{"type":"Point","coordinates":[94.074361,29.73031]},"properties":{"full_address":"西藏自治区林芝市巴宜区八一镇更张林场小区1-4栋、11-20栋"}},{"type":"Feature","geometry":{"type":"Point","coordinates":[94.383436,29.627587]},"properties":{"full_address":"西藏自治区林芝市巴宜区巴吉西路巴宜区幼儿园"}},{"type":"Feature","geometry":{"type":"Point","coordinates":[94.361929,29.663075]},"properties":{"full_address":"西藏自治区林芝市巴宜区工布老街B2号林芝柏栎荟舍酒店"}},{"type":"Feature","geometry":{"type":"Point","coordinates":[94.356022,29.660244]},"properties":{"full_address":"西藏自治区林芝市巴宜区福建路风情大酒店"}},{"type":"Feature","geometry":{"type":"Point","coordinates":[94.360805,29.662455]},"properties":{"full_address":"西藏自治区林芝市巴宜区工布老街B5栋林芝民生村镇银行"}},{"type":"Feature","geometry":{"type":"Point","coordinates":[95.775987,29.848688]},"properties":{"full_address":"西藏自治区林芝市波密县中学校内职工周转房5栋后平房"}},{"type":"Feature","geometry":{"type":"Point","coordinates":[93.071592,29.04421]},"properties":{"full_address":"西藏自治区林芝市朗县福州路福园藏餐厅"}},{"type":"Feature","geometry":{"type":"Point","coordinates":[91.767169,29.226085]},"properties":{"full_address":"西藏自治区山南市乃东区金盾苑小区"}},{"type":"Feature","geometry":{"type":"Point","coordinates":[91.774858,29.245078]},"properties":{"full_address":"西藏自治区山南市乃东区泽当新村小区"}},{"type":"Feature","geometry":{"type":"Point","coordinates":[91.761539,29.224904]},"properties":{"full_address":"西藏自治区山南市乃东区下洞嘎村自建房区域"}},{"type":"Feature","geometry":{"type":"Point","coordinates":[91.778025,29.239046]},"properties":{"full_address":"西藏自治区山南市乃东区藏源小区南区1、4、7栋"}},{"type":"Feature","geometry":{"type":"Point","coordinates":[91.769889,29.233731]},"properties":{"full_address":"西藏自治区山南市乃东区吉布林卡小区"}},{"type":"Feature","geometry":{"type":"Point","coordinates":[91.771649,29.241067]},"properties":{"full_address":"西藏自治区山南市乃东区市人民医院专家楼"}},{"type":"Feature","geometry":{"type":"Point","coordinates":[91.761539,29.224904]},"properties":{"full_address":"西藏自治区山南市乃东区格桑桥乃东警务站旁菜店"}},{"type":"Feature","geometry":{"type":"Point","coordinates":[91.771652,29.230819]},"properties":{"full_address":"西藏自治区山南市乃东区维也纳酒店门口好又多超市"}},{"type":"Feature","geometry":{"type":"Point","coordinates":[91.771927,29.228281]},"properties":{"full_address":"西藏自治区山南市乃东区乃东桥警务站旁赵林商行"}},{"type":"Feature","geometry":{"type":"Point","coordinates":[91.772946,29.192487]},"properties":{"full_address":"西藏自治区山南市乃东区乃东路胡氏男装"}},{"type":"Feature","geometry":{"type":"Point","coordinates":[91.767832,29.211503]},"properties":{"full_address":"西藏自治区山南市乃东区雅砻家园（万人小区）"}},{"type":"Feature","geometry":{"type":"Point","coordinates":[91.761539,29.224904]},"properties":{"full_address":"西藏自治区山南市乃东区捏雄花园1栋"}},{"type":"Feature","geometry":{"type":"Point","coordinates":[91.768414,29.210825]},"properties":{"full_address":"西藏自治区山南市乃东区援藏家园"}},{"type":"Feature","geometry":{"type":"Point","coordinates":[91.764599,29.238279]},"properties":{"full_address":"西藏自治区山南市乃东区平安小区门口匠人养生造型店"}},{"type":"Feature","geometry":{"type":"Point","coordinates":[91.761539,29.224904]},"properties":{"full_address":"西藏自治区山南市乃东区国道G349以南结莎居委会1组自建房区域"}},{"type":"Feature","geometry":{"type":"Point","coordinates":[91.762425,29.235983]},"properties":{"full_address":"西藏自治区山南市乃东区德吉小区及门口小卖部"}},{"type":"Feature","geometry":{"type":"Point","coordinates":[91.762903,29.225254]},"properties":{"full_address":"西藏自治区山南市乃东区泽当镇萨热村浩祥超市斜对面出租房区域"}},{"type":"Feature","geometry":{"type":"Point","coordinates":[91.776012,29.223343]},"properties":{"full_address":"西藏自治区山南市乃东区乃东居委会9组"}},{"type":"Feature","geometry":{"type":"Point","coordinates":[91.761539,29.224904]},"properties":{"full_address":"西藏自治区山南市乃东区鲁古仓藏餐馆"}},{"type":"Feature","geometry":{"type":"Point","coordinates":[91.761539,29.224904]},"properties":{"full_address":"西藏自治区山南市乃东区邮政职工宿舍隔壁欢聚缘藏餐馆"}},{"type":"Feature","geometry":{"type":"Point","coordinates":[91.75975,29.238445]},"properties":{"full_address":"西藏自治区山南市乃东区市公安局对面扎囊姐妹藏餐馆"}},{"type":"Feature","geometry":{"type":"Point","coordinates":[91.77375,29.2422]},"properties":{"full_address":"西藏自治区山南市乃东区龙马市场冲赛康二楼台球馆"}},{"type":"Feature","geometry":{"type":"Point","coordinates":[91.771281,29.232189]},"properties":{"full_address":"西藏自治区山南市乃东区泽当饭店院内茶楼"}},{"type":"Feature","geometry":{"type":"Point","coordinates":[91.769076,29.235692]},"properties":{"full_address":"西藏自治区山南市乃东区泽当老城区"}},{"type":"Feature","geometry":{"type":"Point","coordinates":[91.792316,29.249071]},"properties":{"full_address":"西藏自治区山南市乃东区雍布拉康藏药厂"}},{"type":"Feature","geometry":{"type":"Point","coordinates":[91.7601,29.23407]},"properties":{"full_address":"西藏自治区山南市乃东区市教育局旁雅砻康桑鲁古茶馆"}},{"type":"Feature","geometry":{"type":"Point","coordinates":[91.76852,29.23429]},"properties":{"full_address":"西藏自治区山南市乃东区俏夫人楼下香辣牛肉面"}},{"type":"Feature","geometry":{"type":"Point","coordinates":[91.768388,29.2395]},"properties":{"full_address":"西藏自治区山南市乃东区贡布路母婴坊"}},{"type":"Feature","geometry":{"type":"Point","coordinates":[91.762819,29.239259]},"properties":{"full_address":"西藏自治区山南市乃东区乃东桥附近警务站斜对面（扎西场地）"}},{"type":"Feature","geometry":{"type":"Point","coordinates":[91.761539,29.224904]},"properties":{"full_address":"西藏自治区山南市乃东区陈鲁突藏餐馆（乃东居委会附近）"}},{"type":"Feature","geometry":{"type":"Point","coordinates":[91.763978,29.228738]},"properties":{"full_address":"西藏自治区山南市乃东区香曲花园酒店核酸查验登记点"}},{"type":"Feature","geometry":{"type":"Point","coordinates":[91.768856,29.234798]},"properties":{"full_address":"西藏自治区山南市乃东区市住建局"}},{"type":"Feature","geometry":{"type":"Point","coordinates":[91.761335,29.229659]},"properties":{"full_address":"西藏自治区山南市乃东区民族路金指印象"}},{"type":"Feature","geometry":{"type":"Point","coordinates":[91.761539,29.224904]},"properties":{"full_address":"西藏自治区山南市乃东区浩川汽修厂"}},{"type":"Feature","geometry":{"type":"Point","coordinates":[91.752477,29.240685]},"properties":{"full_address":"西藏自治区山南市乃东区杜鹃苑商品房49号豫味卤面"}},{"type":"Feature","geometry":{"type":"Point","coordinates":[91.761677,29.229542]},"properties":{"full_address":"西藏自治区山南市乃东区斯迈时尚酒店"}},{"type":"Feature","geometry":{"type":"Point","coordinates":[90.98414,29.289455]},"properties":{"full_address":"西藏自治区山南市贡嘎县西藏幸福家园投资建设集团大院"}},{"type":"Feature","geometry":{"type":"Point","coordinates":[90.907504,29.292299]},"properties":{"full_address":"西藏自治区山南市贡嘎县贡嘎机场T3航站楼六号门汉堡王店"}},{"type":"Feature","geometry":{"type":"Point","coordinates":[90.98414,29.289455]},"properties":{"full_address":"西藏自治区山南市贡嘎县天天超市"}},{"type":"Feature","geometry":{"type":"Point","coordinates":[90.98414,29.289455]},"properties":{"full_address":"西藏自治区山南市贡嘎县民航老院兰苑集体宿舍"}},{"type":"Feature","geometry":{"type":"Point","coordinates":[91.92339,29.263092]},"properties":{"full_address":"西藏自治区山南市桑日县华新水泥厂"}},{"type":"Feature","geometry":{"type":"Point","coordinates":[91.68275,29.024435]},"properties":{"full_address":"西藏自治区山南市琼结县民政局"}},{"type":"Feature","geometry":{"type":"Point","coordinates":[91.683881,29.024625]},