{"type":"FeatureCollection","features":[{"type":"Feature","geometry":{"type":"Point","coordinates":[116.548533,39.948493]},"properties":{"full_address":"北京市朝阳区平房（地区）乡泓鑫家园7号楼"}},{"type":"Feature","geometry":{"type":"Point","coordinates":[116.52125,39.818833]},"properties":{"full_address":"北京市大兴区亦庄（地区）镇小康家园小区14号楼"}},{"type":"Feature","geometry":{"type":"Point","coordinates":[117.272106,39.111229]},"properties":{"full_address":"天津市天津市河东区上杭路街道芳水河畔家园19号楼、20号楼"}},{"type":"Feature","geometry":{"type":"Point","coordinates":[117.261423,39.103157]},"properties":{"full_address":"天津市天津市河东区中山门街道和悦家园2号楼，互助南里15号楼"}},{"type":"Feature","geometry":{"type":"Point","coordinates":[117.245925,39.110912]},"properties":{"full_address":"天津市天津市河东区大直沽街道文华里1号院16号楼"}},{"type":"Feature","geometry":{"type":"Point","coordinates":[117.227861,39.133995]},"properties":{"full_address":"天津市天津市河东区唐家口街道欣荣馨苑5号楼"}},{"type":"Feature","geometry":{"type":"Point","coordinates":[117.305241,39.093969]},"properties":{"full_address":"天津市天津市河东区二号桥街道福东里东区13号楼"}},{"type":"Feature","geometry":{"type":"Point","coordinates":[117.249381,39.088665]},"properties":{"full_address":"天津市天津市河东区富民路街道棉三四工房5号楼"}},{"type":"Feature","geometry":{"type":"Point","coordinates":[117.241999,39.147447]},"properties":{"full_address":"天津市天津市河东区常州道街道东惠家园4号楼，朝华园5号楼，常州里东区48号楼"}},{"type":"Feature","geometry":{"type":"Point","coordinates":[117.372181,39.178616]},"properties":{"full_address":"天津市天津市河东区二号桥街道龙峰馨园7号楼"}},{"type":"Feature","geometry":{"type":"Point","coordinates":[117.258714,39.084874]},"properties":{"full_address":"天津市天津市河东区富民路街道万隆滨河新苑43号楼"}},{"type":"Feature","geometry":{"type":"Point","coordinates":[117.25352,39.129323]},"properties":{"full_address":"天津市天津市河东区上杭路街道金湾公寓2号楼，中储栋境4号楼"}},{"type":"Feature","geometry":{"type":"Point","coordinates":[117.230277,39.123512]},"properties":{"full_address":"天津市天津市河东区大王庄街道十二经路四号院1号楼"}},{"type":"Feature","geometry":{"type":"Point","coordinates":[117.267528,39.117936]},"properties":{"full_address":"天津市天津市河东区上杭路街道第六大道区域（含第博雅园、陆典庭园、大洋嘉园、道俊华园、俊东公寓、俊东大厦）"}},{"type":"Feature","geometry":{"type":"Point","coordinates":[117.22875,39.07805]},"properties":{"full_address":"天津市天津市河西区尖山街五一家园小区8号楼"}},{"type":"Feature","geometry":{"type":"Point","coordinates":[117.258674,39.05614]},"properties":{"full_address":"天津市天津市河西区东海街华江二委1号楼1门至6门"}},{"type":"Feature","geometry":{"type":"Point","coordinates":[117.280931,39.066292]},"properties":{"full_address":"天津市天津市河西区柳林街雅致里17门至27门、35门至38门、51门至55门、62门至69门"}},{"type":"Feature","geometry":{"type":"Point","coordinates":[117.286066,39.060652]},"properties":{"full_address":"天津市天津市河西区柳林街宽福里18号楼66门至70门"}},{"type":"Feature","geometry":{"type":"Point","coordinates":[117.225089,39.034248]},"properties":{"full_address":"天津市天津市河西区梅江街天湾园2号楼"}},{"type":"Feature","geometry":{"type":"Point","coordinates":[117.258515,39.059563]},"properties":{"full_address":"天津市天津市河西区东海街九江里平房、枫林路北头公共厕所、热电厂宿舍12门"}},{"type":"Feature","geometry":{"type":"Point","coordinates":[117.2065,39.101997]},"properties":{"full_address":"天津市天津市河西区桃园街盛瑞公寓2号楼3门"}},{"type":"Feature","geometry":{"type":"Point","coordinates":[117.151787,39.126039]},"properties":{"full_address":"天津市天津市南开区万兴街苏堤西里小区1号楼1门"}},{"type":"Feature","geometry":{"type":"Point","coordinates":[117.160678,39.137706]},"properties":{"full_address":"天津市天津市南开区广开街宇正园小区1号楼1门"}},{"type":"Feature","geometry":{"type":"Point","coordinates":[117.195386,39.148313]},"properties":{"full_address":"天津市天津市河北区望海楼街道望海楼北里8号楼"}},{"type":"Feature","geometry":{"type":"Point","coordinates":[117.215448,39.181793]},"properties":{"full_address":"天津市天津市河北区铁东路街道曙光路17号增1号-增26号小二楼"}},{"type":"Feature","geometry":{"type":"Point","coordinates":[117.222342,39.151246]},"properties":{"full_address":"天津市天津市河北区王串场街道明溪里小区1号楼（8—10门）"}},{"type":"Feature","geometry":{"type":"Point","coordinates":[117.296401,39.111992]},"properties":{"full_address":"天津市天津市东丽区万新街好美嘉园小区6号楼"}},{"type":"Feature","geometry":{"type":"Point","coordinates":[117.306429,39.139556]},"properties":{"full_address":"天津市天津市东丽区万新街香邑国际小区6号楼"}},{"type":"Feature","geometry":{"type":"Point","coordinates":[117.29745,39.104694]},"properties":{"full_address":"天津市天津市东丽区新立街融春园小区8号楼"}},{"type":"Feature","geometry":{"type":"Point","coordinates":[117.294657,39.08538]},"properties":{"full_address":"天津市天津市东丽区万新街蓝天花园小区9号楼"}},{"type":"Feature","geometry":{"type":"Point","coordinates":[117.381069,39.180397]},"properties":{"full_address":"天津市天津市东丽区万新舒畅园小区2号楼"}},{"type":"Feature","geometry":{"type":"Point","coordinates":[117.317958,39.14625]},"properties":{"full_address":"天津市天津市东丽区华明街惠泽嘉园16号楼"}},{"type":"Feature","geometry":{"type":"Point","coordinates":[117.22772,39.02813]},"properties":{"full_address":"天津市天津市西青区大寺镇梨双公路北侧天津市近代福利气体厂"}},{"type":"Feature","geometry":{"type":"Point","coordinates":[117.253463,39.001197]},"properties":{"full_address":"天津市天津市西青区大寺镇津港公路西侧物资楼小区"}},{"type":"Feature","geometry":{"type":"Point","coordinates":[117.214269,39.002121]},"properties":{"full_address":"天津市天津市西青区大寺镇金龙鑫苑14号楼"}},{"type":"Feature","geometry":{"type":"Point","coordinates":[117.25013,39.0093]},"properties":{"full_address":"天津市天津市西青区大寺镇龙顺园6号楼"}},{"type":"Feature","geometry":{"type":"Point","coordinates":[117.212767,39.005901]},"properties":{"full_address":"天津市天津市西青区大寺镇金龙花园16—17号楼"}},{"type":"Feature","geometry":{"type":"Point","coordinates":[117.246919,39.02389]},"properties":{"full_address":"天津市天津市西青区大寺镇仁居鑫园小区7号楼"}},{"type":"Feature","geometry":{"type":"Point","coordinates":[117.239982,39.020208]},"properties":{"full_address":"天津市天津市西青区大寺镇任宝南里小区6号楼"}},{"type":"Feature","geometry":{"type":"Point","coordinates":[117.238702,39.029835]},"properties":{"full_address":"天津市天津市西青区大寺镇任河里小区6号楼"}},{"type":"Feature","geometry":{"type":"Point","coordinates":[117.114825,39.056543]},"properties":{"full_address":"天津市天津市西青区精武镇智达里小区3号楼"}},{"type":"Feature","geometry":{"type":"Point","coordinates":[117.264174,38.993058]},"properties":{"full_address":"天津市天津市西青区赤龙南街亲和良园小区2号楼"}},{"type":"Feature","geometry":{"type":"Point","coordinates":[117.197433,39.017436]},"properties":{"full_address":"天津市天津市西青区大寺镇金祥园13号楼"}},{"type":"Feature","geometry":{"type":"Point","coordinates":[117.25316,39.007981]},"properties":{"full_address":"天津市天津市西青区大寺镇龙腾花园3号楼"}},{"type":"Feature","geometry":{"type":"Point","coordinates":[117.239982,39.020208]},"properties":{"full_address":"天津市天津市西青区大寺镇天任北里小区13号楼"}},{"type":"Feature","geometry":{"type":"Point","coordinates":[117.002477,39.083447]},"properties":{"full_address":"天津市天津市西青区和木相处建材经营部（西青区大寺镇梨双路北侧梨双路69号3-107）"}},{"type":"Feature","geometry":{"type":"Point","coordinates":[117.111384,39.124025]},"properties":{"full_address":"天津市天津市西青区中北镇凯信佳园小区1号楼"}},{"type":"Feature","geometry":{"type":"Point","coordinates":[117.271269,39.047496]},"properties":{"full_address":"天津市天津市津南区双林街泓春园15号楼"}},{"type":"Feature","geometry":{"type":"Point","coordinates":[117.277005,39.029824]},"properties":{"full_address":"天津市天津市津南区双港镇常春藤花园北区71号楼"}},{"type":"Feature","geometry":{"type":"Point","coordinates":[117.26698,39.030494]},"properties":{"full_address":"天津市天津市津南区双港镇尚景园9号楼"}},{"type":"Feature","geometry":{"type":"Point","coordinates":[117.343132,38.94112]},"properties":{"full_address":"天津市天津市津南区八里台镇汇秀庭苑62号楼"}},{"type":"Feature","geometry":{"type":"Point","coordinates":[117.27083,39.03253]},"properties":{"full_address":"天津市天津市津南区双港镇天富园10号楼"}},{"type":"Feature","geometry":{"type":"Point","coordinates":[117.315308,39.045178]},"properties":{"full_address":"天津市天津市津南区双港镇棕榈苑32号楼"}},{"type":"Feature","geometry":{"type":"Point","coordinates":[117.351509,39.248933]},"properties":{"full_address":"天津市天津市北辰区西堤头镇刘快庄村永川小区1号楼、2号楼、3号楼、9号楼、10号楼、11号楼、20号楼、21号楼、22号楼"}},{"type":"Feature","geometry":{"type":"Point","coordinates":[114.515597,38.009291]},"properties":{"full_address":"河北省石家庄市裕华区建通街道盛邦花园一区"}},{"type":"Feature","geometry":{"type":"Point","coordinates":[114.520635,38.017653]},"properties":{"full_address":"河北省石家庄市裕华区裕华路街道青园小区"}},{"type":"Feature","geometry":{"type":"Point","coordinates":[114.505198,37.992366]},"properties":{"full_address":"河北省石家庄市裕华区裕翔街道新基业小区"}},{"type":"Feature","geometry":{"type":"Point","coordinates":[114.512856,37.989159]},"properties":{"full_address":"河北省石家庄市裕华区裕翔街道栗源新佳农综合批发市场"}},{"type":"Feature","geometry":{"type":"Point","coordinates":[114.524301,37.964526]},"properties":{"full_address":"河北省石家庄市栾城区楼底镇东尹村"}},{"type":"Feature","geometry":{"type":"Point","coordinates":[118.141661,39.828415]},"properties":{"full_address":"河北省唐山市丰润区燕山路街道金泰花园小区204楼"}},{"type":"Feature","geometry":{"type":"Point","coordinates":[118.145335,39.82582]},"properties":{"full_address":"河北省唐山市丰润区金桥小学（东校区）"}},{"type":"Feature","geometry":{"type":"Point","coordinates":[118.147606,39.831108]},"properties":{"full_address":"河北省唐山市丰润区浭阳街道金域华府小区10号楼"}},{"type":"Feature","geometry":{"type":"Point","coordinates":[118.112801,39.822259]},"properties":{"full_address":"河北省唐山市丰润区天赐良园小区2号楼"}},{"type":"Feature","geometry":{"type":"Point","coordinates":[118.037628,39.907437]},"properties":{"full_address":"河北省唐山市丰润区杨官林镇黄家屯村阳光小区108号楼"}},{"type":"Feature","geometry":{"type":"Point","coordinates":[115.429051,38.757624]},"properties":{"full_address":"河北省保定市清苑区白团乡西壁阳城村"}},{"type":"Feature","geometry":{"type":"Point","coordinates":[115.923848,39.474187]},"properties":{"full_address":"河北省保定市涿州市保定幼儿师范高等专科学校（涿州校区）"}},{"type":"Feature","geometry":{"type":"Point","coordinates":[117.952082,40.892476]},"properties":{"full_address":"河北省承德市高新区承德银行研发中心（武烈路189-2）"}},{"type":"Feature","geometry":{"type":"Point","coordinates":[117.952082,40.892476]},"properties":{"full_address":"河北省承德市高新区润园朗园小区朗园30号楼"}},{"type":"Feature","geometry":{"type":"Point","coordinates":[116.826839,40.043865]},"properties":{"full_address":"河北省廊坊市三河市嘉都小区31号楼"}},{"type":"Feature","geometry":{"type":"Point","coordinates":[119.029415,42.300176]},"properties":{"full_address":"内蒙古自治区赤峰市红山区高新技术产业开发区红山产业园蒙欣街1号和8号"}},{"type":"Feature","geometry":{"type":"Point","coordinates":[118.997983,42.292289]},"properties":{"full_address":"内蒙古自治区赤峰市红山区红山区东城街道绿景小区"}},{"type":"Feature","geometry":{"type":"Point","coordinates":[118.971557,42.289375]},"properties":{"full_address":"内蒙古自治区赤峰市红山区永巨街道药厂5号楼"}},{"type":"Feature","geometry":{"type":"Point","coordinates":[119.030595,42.305541]},"properties":{"full_address":"内蒙古自治区赤峰市红山区高新技术产业开发区红山产业园赤药路1号"}},{"type":"Feature","geometry":{"type":"Point","coordinates":[118.918053,42.28378]},"properties":{"full_address":"内蒙古自治区赤峰市松山区松州街道恒基馨居小区"}},{"type":"Feature","geometry":{"type":"Point","coordinates":[120.087736,43.881291]},"properties":{"full_address":"内蒙古自治区赤峰市阿鲁科尔沁旗欧沐沦街道和平巷与西市路交叉口东侧金领秀艺术培训学校所在的整栋楼"}},{"type":"Feature","geometry":{"type":"Point","coordinates":[120.0657,43.872299]},"properties":{"full_address":"内蒙古自治区赤峰市阿鲁科尔沁旗柴达木苏木连天草业有限公司办公及住宿场所"}},{"type":"Feature","geometry":{"type":"Point","coordinates":[120.070583,43.876778]},"properties":{"full_address":"内蒙古自治区赤峰市阿鲁科尔沁旗欧沐沦街道滨河花园小区"}},{"type":"Feature","geometry":{"type":"Point","coordinates":[120.09945,43.880971]},"properties":{"full_address":"内蒙古自治区赤峰市阿鲁科尔沁旗欧沐沦街道东市家园小区"}},{"type":"Feature","geometry":{"type":"Point","coordinates":[120.09899,43.878212]},"properties":{"full_address":"内蒙古自治区赤峰市阿鲁科尔沁旗欧沐沦街道东市场北段路东所有商铺"}},{"type":"Feature","geometry":{"type":"Point","coordinates":[120.0657,43.872299]},"properties":{"full_address":"内蒙古自治区赤峰市阿鲁科尔沁旗防疫站家属楼"}},{"type":"Feature","geometry":{"type":"Point","coordinates":[120.025636,43.926741]},"properties":{"full_address":"内蒙古自治区赤峰市阿鲁科尔沁旗荞麦塔拉玻璃厂"}},{"type":"Feature","geometry":{"type":"Point","coordinates":[120.096686,43.908431]},"properties":{"full_address":"内蒙古自治区赤峰市阿鲁科尔沁旗天山镇郊房身村二组"}},{"type":"Feature","geometry":{"type":"Point","coordinates":[117.452276,49.598734]},"properties":{"full_address":"内蒙古自治区呼伦贝尔市满洲里市湖西小区"}},{"type":"Feature","geometry":{"type":"Point","coordinates":[117.533684,49.565206]},"properties":{"full_address":"内蒙古自治区呼伦贝尔市满洲里市工业园区内老丁货场"}},{"type":"Feature","geometry":{"type":"Point","coordinates":[117.456204,49.581011]},"properties":{"full_address":"内蒙古自治区呼伦贝尔市满洲里市道南16栋130至137号及对面平房"}},{"type":"Feature","geometry":{"type":"Point","coordinates":[117.453074,49.598912]},"properties":{"full_address":"内蒙古自治区呼伦贝尔市满洲里市学子佳园全域及周边所有商铺"}},{"type":"Feature","geometry":{"type":"Point","coordinates":[117.467409,49.612952]},"properties":{"full_address":"内蒙古自治区呼伦贝尔市满洲里市城北小区"}},{"type":"Feature","geometry":{"type":"Point","coordinates":[101.055562,41.938874]},"properties":{"full_address":"内蒙古自治区阿拉善盟额济纳旗达来呼布镇土尔扈特社区太豪小区4号楼"}},{"type":"Feature","geometry":{"type":"Point","coordinates":[101.061884,41.971086]},"properties":{"full_address":"内蒙古自治区阿拉善盟额济纳旗达来呼布镇居延社区天赋玫瑰园6号楼"}},{"type":"Feature","geometry":{"type":"Point","coordinates":[101.047222,41.959892]},"properties":{"full_address":"内蒙古自治区阿拉善盟额济纳旗达来呼布镇居延社区马鬃山路嘉宸公寓5号1栋"}},{"type":"Feature","geometry":{"type":"Point","coordinates":[123.426424,41.797444]},"properties":{"full_address":"辽宁省沈阳市沈河区风雨坛街道进华社区义安小区的19号、19-1号、19-2号、19-4号"}},{"type":"Feature","geometry":{"type":"Point","coordinates":[123.396588,41.803919]},"properties":{"full_address":"辽宁省沈阳市铁西区霁虹街道晋斯华庭小区"}},{"type":"Feature","geometry":{"type":"Point","coordinates":[123.388383,41.804359]},"properties":{"full_address":"辽宁省沈阳市铁西区霁虹街道保利百合花园（北园）小区"}},{"type":"Feature","geometry":{"type":"Point","coordinates":[125.138713,46.581164]},"properties":{"full_address":"黑龙江省大庆市萨尔图区黎明街道富民街九区9-79号楼"}},{"type":"Feature","geometry":{"type":"Point","coordinates":[125.123955,46.580441]},"properties":{"full_address":"黑龙江省大庆市萨尔图区黎明街道纬二路水木华庭小区全域"}},{"type":"Feature","geometry":{"type":"Point","coordinates":[125.101231,46.59675]},"properties":{"full_address":"黑龙江省大庆市萨尔图区东风街道新星小区F组团H3号楼"}},{"type":"Feature","geometry":{"type":"Point","coordinates":[125.139979,46.557357]},"properties":{"full_address":"黑龙江省大庆市龙凤区龙政街道东城领秀华彩园B7号楼"}},{"type":"Feature","geometry":{"type":"Point","coordinates":[125.162068,46.545157]},"properties":{"full_address":"黑龙江省大庆市龙凤区湿地街道欣凤学城三期小区内全域"}},{"type":"Feature","geometry":{"type":"Point","coordinates":[125.11161,46.517048]},"properties":{"full_address":"黑龙江省大庆市龙凤区龙凤镇龙府小区全域"}},{"type":"Feature","geometry":{"type":"Point","coordinates":[125.136816,46.565092]},"properties":{"full_address":"黑龙江省大庆市龙凤区龙政街道唐人中心小区及周边商服全域"}},{"type":"Feature","geometry":{"type":"Point","coordinates":[125.117977,46.534987]},"properties":{"full_address":"黑龙江省大庆市龙凤区卧里屯街道铁路小区全域"}},{"type":"Feature","geometry":{"type":"Point","coordinates":[125.127579,46.540699]},"properties":{"full_address":"黑龙江省大庆市龙凤区龙政街道经纬壹号全域"}},{"type":"Feature","geometry":{"type":"Point","coordinates":[125.121023,46.54538]},"properties":{"full_address":"黑龙江省大庆市龙凤区三永街道三永街道办公楼全域"}},{"type":"Feature","geometry":{"type":"Point","coordinates":[125.1176,46.5481]},"properties":{"full_address":"黑龙江省大庆市龙凤区三永街道御湖湾尚品幼儿园全域"}},{"type":"Feature","geometry":{"type":"Point","coordinates":[130.360267,46.815368]},"properties":{"full_address":"黑龙江省佳木斯市向阳区龙海名苑D栋"}},{"type":"Feature","geometry":{"type":"Point","coordinates":[130.340134,46.79557]},"properties":{"full_address":"黑龙江省佳木斯市向阳区时代景城九号楼"}},{"type":"Feature","geometry":{"type":"Point","coordinates":[130.362288,46.819308]},"properties":{"full_address":"黑龙江省佳木斯市向阳区市委22号楼"}},{"type":"Feature","geometry":{"type":"Point","coordinates":[130.350915,46.801716]},"properties":{"full_address":"黑龙江省佳木斯市向阳区铭诗苑A座"}},{"type":"Feature","geometry":{"type":"Point","coordinates":[130.364488,46.803734]},"properties":{"full_address":"黑龙江省佳木斯市向阳区杏湖嘉苑"}},{"type":"Feature","geometry":{"type":"Point","coordinates":[130.368803,46.807333]},"properties":{"full_address":"黑龙江省佳木斯市向阳区金厦佳苑"}},{"type":"Feature","geometry":{"type":"Point","coordinates":[130.360882,46.799372]},"properties":{"full_address":"黑龙江省佳木斯市向阳区杏林人家"}},{"type":"Feature","geometry":{"type":"Point","coordinates":[130.372022,46.815901]},"properties":{"full_address":"黑龙江省佳木斯市前进区太阳市场57号楼"}},{"type":"Feature","geometry":{"type":"Point","coordinates":[130.390915,46.819903]},"properties":{"full_address":"黑龙江省佳木斯市前进区金港湾2期14号楼"}},{"type":"Feature","geometry":{"type":"Point","coordinates":[127.519319,50.234282]},"properties":{"full_address":"黑龙江省黑河市爱辉区花园街道博文社区华泰龙江嘉园小区(龙江路115—1号）及附属门市"}},{"type":"Feature","geometry":{"type":"Point","coordinates":[121.227232,31.022778]},"properties":{"full_address":"上海市上海市松江区方松街道南期昌路459弄江虹小区"}},{"type":"Feature","geometry":{"type":"Point","coordinates":[121.078068,30.989475]},"properties":{"full_address":"上海市上海市青浦区练塘镇蒸夏村西至西泾江、东至贞溪北路、南至小蒸港、北至小蒸后河的区域"}},{"type":"Feature","geometry":{"type":"Point","coordinates":[115.948324,26.405317]},"properties":{"full_address":"江西省赣州市宁都县竹笮乡鹅婆村南中组"}},{"type":"Feature","geometry":{"type":"Point","coordinates":[116.048957,26.465446]},"properties":{"full_address":"江西省赣州市宁都县梅江镇湖田村丁家陂小组"}},{"type":"Feature","geometry":{"type":"Point","coordinates":[116.021965,26.468166]},"properties":{"full_address":"江西省赣州市宁都县梅江镇三佰排村"}},{"type":"Feature","geometry":{"type":"Point","coordinates":[116.003001,26.47149]},"properties":{"full_address":"江西省赣州市宁都县梅江镇清华名府小区"}},{"type":"Feature","geometry":{"type":"Point","coordinates":[116.01287,26.477689]},"properties":{"full_address":"江西省赣州市宁都县梅江镇龙溪湾"}},{"type":"Feature","geometry":{"type":"Point","coordinates":[116.027267,26.470784]},"properties":{"full_address":"江西省赣州市宁都县梅江镇华隆首府"}},{"type":"Feature","geometry":{"type":"Point","coordinates":[116.007689,26.445226]},"properties":{"full_address":"江西省赣州市宁都县梅江镇东方丽都小区"}},{"type":"Feature","geometry":{"type":"Point","coordinates":[116.005531,26.441663]},"properties":{"full_address":"江西省赣州市宁都县梅江镇奥园广场"}},{"type":"Feature","geometry":{"type":"Point","coordinates":[116.029337,26.466362]},"properties":{"full_address":"江西省赣州市宁都县梅江沙窝村一组"}},{"type":"Feature","geometry":{"type":"Point","coordinates":[116.010963,26.479035]},"properties":{"full_address":"江西省赣州市宁都县博士源实验学校"}},{"type":"Feature","geometry":{"type":"Point","coordinates":[116.020637,26.474251]},"properties":{"full_address":"江西省赣州市宁都县梅江镇中山中路53号自建房"}},{"type":"Feature","geometry":{"type":"Point","coordinates":[116.01715,26.465328]},"properties":{"full_address":"江西省赣州市宁都县梅江镇文乡西路南门外36号自建房"}},{"type":"Feature","geometry":{"type":"Point","coordinates":[116.016352,26.471825]},"properties":{"full_address":"江西省赣州市宁都县梅江镇阳光都会"}},{"type":"Feature","geometry":{"type":"Point","coordinates":[116.021274,26.47628]},"properties":{"full_address":"江西省赣州市宁都县梅江镇中山北路2号自建房"}},{"type":"Feature","geometry":{"type":"Point","coordinates":[115.926128,26.561071]},"properties":{"full_address":"江西省赣州市宁都县梅江镇金盆形33号自建房"}},{"type":"Feature","geometry":{"type":"Point","coordinates":[116.021965,26.468166]},"properties":{"full_address":"江西省赣州市宁都县梅江镇凌云中大道22号自建房"}},{"type":"Feature","geometry":{"type":"Point","coordinates":[116.017667,26.465167]},"properties":{"full_address":"江西省赣州市宁都县梅江镇文乡西路2-4自建房"}},{"type":"Feature","geometry":{"type":"Point","coordinates":[116.009252,26.47785]},"properties":{"full_address":"江西省赣州市宁都县梅江镇刘坑村中心三组"}},{"type":"Feature","geometry":{"type":"Point","coordinates":[116.002492,26.479006]},"properties":{"full_address":"江西省赣州市宁都县梅江镇梅江中心小学旁边100米自建房"}},{"type":"Feature","geometry":{"type":"Point","coordinates":[116.021965,26.468166]},"properties":{"full_address":"江西省赣州市宁都县梅江镇田美路33栋自建房"}},{"type":"Feature","geometry":{"type":"Point","coordinates":[116.012588,26.463255]},"properties":{"full_address":"江西省赣州市宁都县梅江镇京都豪庭小区"}},{"type":"Feature","geometry":{"type":"Point","coordinates":[114.909202,25.838959]},"properties":{"full_address":"江西省赣州市经开区嘉年华小区"}},{"type":"Feature","geometry":{"type":"Point","coordinates":[115.404418,27.262735]},"properties":{"full_address":"江西省吉安市永丰县恩江镇营前村营前自然村"}},{"type":"Feature","geometry":{"type":"Point","coordinates":[115.404418,27.262735]},"properties":{"full_address":"江西省吉安市永丰县恩江镇营前村肖罗自然村"}},{"type":"Feature","geometry":{"type":"Point","coordinates":[115.420041,27.284539]},"properties":{"full_address":"江西省吉安市永丰县恩江镇岭上村雷公山自然村"}},{"type":"Feature","geometry":{"type":"Point","coordinates":[115.404819,27.309599]},"properties":{"full_address":"江西省吉安市永丰县佐龙乡塘边村塘边自然村"}},{"type":"Feature","geometry":{"type":"Point","coordinates":[115.404418,27.262735]},"properties":{"full_address":"江西省吉安市永丰县恩江镇营前村篡口自然村"}},{"type":"Feature","geometry":{"type":"Point","coordinates":[115.441005,27.30909]},"properties":{"full_address":"江西省吉安市永丰县恩江镇水南背村罗家自然村"}},{"type":"Feature","geometry":{"type":"Point","coordinates":[115.440131,27.327644]},"properties":{"full_address":"江西省吉安市永丰县恩江镇聂家村聂家自然村"}},{"type":"Feature","geometry":{"type":"Point","coordinates":[115.435485,27.322637]},"properties":{"full_address":"江西省吉安市永丰县恩江镇开吉社区曾盆岭"}},{"type":"Feature","geometry":{"type":"Point","coordinates":[115.416055,27.319987]},"properties":{"full_address":"江西省吉安市永丰县恩江镇君天御景湾"}},{"type":"Feature","geometry":{"type":"Point","coordinates":[115.424929,27.330177]},"properties":{"full_address":"江西省吉安市永丰县恩江镇恩江北路38号"}},{"type":"Feature","geometry":{"type":"Point","coordinates":[115.419837,27.320112]},"properties":{"full_address":"江西省吉安市永丰县恩江镇财富中央城10栋"}},{"type":"Feature","geometry":{"type":"Point","coordinates":[115.509645,27.429588]},"properties":{"full_address":"江西省吉安市永丰县潭城乡富山村富山自然村"}},{"type":"Feature","geometry":{"type":"Point","coordinates":[115.576956,27.433578]},"properties":{"full_address":"江西省吉安市永丰县沿陂镇水东村水东自然村"}},{"type":"Feature","geometry":{"type":"Point","coordinates":[115.412859,27.310772]},"properties":{"full_address":"江西省吉安市永丰县佐龙乡灵冈村水东桥自然村"}},{"type":"Feature","geometry":{"type":"Point","coordinates":[115.43509,27.295528]},"properties":{"full_address":"江西省吉安市永丰县恩江镇峰尚国际小区"}},{"type":"Feature","geometry":{"type":"Point","coordinates":[115.404418,27.262735]},"properties":{"full_address":"江西省吉安市永丰县恩江镇营前村龙源自然村"}},{"type":"Feature","geometry":{"type":"Point","coordinates":[115.429902,27.328623]},"properties":{"full_address":"江西省吉安市永丰县恩江镇绿海花园小区"}},{"type":"Feature","geometry":{"type":"Point","coordinates":[115.430904,27.328463]},"properties":{"full_address":"江西省吉安市永丰县恩江镇尹家坪社区商贸城"}},{"type":"Feature","geometry":{"type":"Point","coordinates":[115.669901,26.701834]},"properties":{"full_address":"江西省吉安市永丰县君埠乡君埠村大屋下自然村"}},{"type":"Feature","geometry":{"type":"Point","coordinates":[115.4238,27.306222]},"properties":{"full_address":"江西省吉安市永丰县佐龙乡南塘村姚家自然村"}},{"type":"Feature","geometry":{"type":"Point","coordinates":[115.368348,27.239082]},"properties":{"full_address":"江西省吉安市永丰县八江乡魏家村艾家自然村"}},{"type":"Feature","geometry":{"type":"Point","coordinates":[115.368348,27.239082]},"properties":{"full_address":"江西省吉安市永丰县八江乡魏家村魏家自然村"}},{"type":"Feature","geometry":{"type":"Point","coordinates":[115.418071,27.321491]},"properties":{"full_address":"江西省吉安市永丰县恩江镇天诚中央公馆2栋、3栋"}},{"type":"Feature","geometry":{"type":"Point","coordinates":[115.440785,27.319491]},"properties":{"full_address":"江西省吉安市永丰县恩江镇天保村39号、44号"}},{"type":"Feature","geometry":{"type":"Point","coordinates":[115.423963,27.324521]},"properties":{"full_address":"江西省吉安市永丰县恩江镇皇家商务宾馆"}},{"type":"Feature","geometry":{"type":"Point","coordinates":[115.418466,27.323201]},"properties":{"full_address":"江西省吉安市永丰县恩江镇鑫鸿苑6栋"}},{"type":"Feature","geometry":{"type":"Point","coordinates":[115.447571,27.306488]},"properties":{"full_address":"江西省吉安市永丰县恩江镇水南背水南背新村"}},{"type":"Feature","geometry":{"type":"Point","coordinates":[115.441005,27.30909]},"properties":{"full_address":"江西省吉安市永丰县恩江镇水南背村上程村"}},{"type":"Feature","geometry":{"type":"Point","coordinates":[115.456493,27.32845]},"properties":{"full_address":"江西省吉安市永丰县恩江镇石桥村圳下村"}},{"type":"Feature","geometry":{"type":"Point","coordinates":[115.425686,27.302758]},"properties":{"full_address":"江西省吉安市永丰县恩江镇鹭地滨江印象A区"}},{"type":"Feature","geometry":{"type":"Point","coordinates":[115.430904,27.328463]},"properties":{"full_address":"江西省吉安市永丰县恩江镇金桂苑"}},{"type":"Feature","geometry":{"type":"Point","coordinates":[115.436614,27.324949]},"properties":{"full_address":"江西省吉安市永丰县恩江镇检察院宿舍"}},{"type":"Feature","geometry":{"type":"Point","coordinates":[115.416302,27.325261]},"properties":{"full_address":"江西省吉安市永丰县恩江镇花园村岭上自然村"}},{"type":"Feature","geometry":{"type":"Point","coordinates":[115.416302,27.325261]},"properties":{"full_address":"江西省吉安市永丰县恩江镇花园村岭背自然村"}},{"type":"Feature","geometry":{"type":"Point","coordinates":[115.059335,27.125549]},"properties":{"full_address":"江西省吉安市永丰县恩江镇东湖社区东湖自然村"}},{"type":"Feature","geometry":{"type":"Point","coordinates":[115.417237,27.312355]},"properties":{"full_address":"江西省吉安市永丰县恩江镇百佳超市"}},{"type":"Feature","geometry":{"type":"Point","coordinates":[115.439606,27.28168]},"properties":{"full_address":"江西省吉安市永丰县恩江镇桥南大周家居建材市场2栋"}},{"type":"Feature","geometry":{"type":"Point","coordinates":[115.423807,27.342203]},"properties":{"full_address":"江西省吉安市永丰县坑田镇塘下村山内村"}},{"type":"Feature","geometry":{"type":"Point","coordinates":[115.386573,27.339045]},"properties":{"full_address":"江西省吉安市永丰县坑田镇坑田村新屋下村"}},{"type":"Feature","geometry":{"type":"Point","coordinates":[115.507206,27.417576]},"properties":{"full_address":"江西省吉安市永丰县潭城乡辋川村老孙山村"}},{"type":"Feature","geometry":{"type":"Point","coordinates":[115.4372,27.370956]},"properties":{"full_address":"江西省吉安市永丰县佐龙乡棱溪村早禾坑村"}},{"type":"Feature","geometry":{"type":"Point","coordinates":[115.408564,27.289885]},"properties":{"full_address":"江西省吉安市永丰县佐龙乡香山村李家村"}},{"type":"Feature","geometry":{"type":"Point","coordinates":[115.404819,27.309599]},"properties":{"full_address":"江西省吉安市永丰县佐龙乡塘边村老派村"}},{"type":"Feature","geometry":{"type":"Point","coordinates":[115.4238,27.306222]},"properties":{"full_address":"江西省吉安市永丰县佐龙乡南塘村塍背村"}},{"type":"Feature","geometry":{"type":"Point","coordinates":[115.4238,27.306222]},"properties":{"full_address":"江西省吉安市永丰县佐龙乡南塘村胡家边村"}},{"type":"Feature","geometry":{"type":"Point","coordinates":[115.4238,27.306222]},"properties":{"full_address":"江西省吉安市永丰县佐龙乡南塘村邓家村"}},{"type":"Feature","geometry":{"type":"Point","coordinates":[115.381415,27.303051]},"properties":{"full_address":"江西省吉安市永丰县佐龙乡路田村路田自然村"}},{"type":"Feature","geometry":{"type":"Point","coordinates":[115.383328,27.297734]},"properties":{"full_address":"江西省吉安市永丰县佐龙乡路田村芦江下村"}},{"type":"Feature","geometry":{"type":"Point","coordinates":[115.4117,27.308086]},"properties":{"full_address":"江西省吉安市永丰县佐龙乡和佳苑"}},{"type":"Feature","geometry":{"type":"Point","coordinates":[115.545576,27.2642]},"properties":{"full_address":"江西省吉安市永丰县七都乡邵家村墙背村"}},{"type":"Feature","geometry":{"type":"Point","coordinates":[115.563088,27.273151]},"properties":{"full_address":"江西省吉安市永丰县七都乡七都圩镇"}},{"type":"Feature","geometry":{"type":"Point","coordinates":[115.623185,26.796067]},"properties":{"full_address":"江西省吉安市永丰县上固乡上固乡暗坑村坪上村"}},{"type":"Feature","geometry":{"type":"Point","coordinates":[115.698411,27.06497]},"properties":{"full_address":"江西省吉安市永丰县陶唐乡园内村上屋村"}},{"type":"Feature","geometry":{"type":"Point","coordinates":[115.69816,27.066468]},"properties":{"full_address":"江西省吉安市永丰县陶唐乡南方水泥厂宿舍"}},{"type":"Feature","geometry":{"type":"Point","coordinates":[115.424719,27.327904]},"properties":{"full_address":"江西省吉安市永丰县恩江镇肖家村傅家坝自然村（北至永丰大道，西和南至跃进西路，东至恩江北路）"}},{"type":"Feature","geometry":{"type":"Point","coordinates":[115.430904,27.328463]},"properties":{"full_address":"江西省吉安市永丰县恩江镇城北制药二厂宿舍"}},{"type":"Feature","geometry":{"type":"Point","coordinates":[115.433566,27.323948]},"properties":{"full_address":"江西省吉安市永丰县恩江镇肖家村（北至永丰大道，南至崇文大道，西至欧阳修大道，东至跃进西路)"}},{"type":"Feature","geometry":{"type":"Point","coordinates":[115.430904,27.328463]},"properties":{"full_address":"江西省吉安市永丰县恩江镇平安苑2栋"}},{"type":"Feature","geometry":{"type":"Point","coordinates":[115.439045,27.316796]},"properties":{"full_address":"江西省吉安市永丰县恩江镇民主社区（北至崇文东大道、西至恩江南路、南至状元华府、东至永叔路）"}},{"type":"Feature","geometry":{"type":"Point","coordinates":[115.436504,27.324843]},"properties":{"full_address":"江西省吉安市永丰县恩江镇开吉社区开吉村"}},{"type":"Feature","geometry":{"type":"Point","coordinates":[115.439529,27.320784]},"properties":{"full_address":"江西省吉安市永丰县恩江镇地税局北京宿舍"}},{"type":"Feature","geometry":{"type":"Point","coordinates":[115.430788,27.319419]},"properties":{"full_address":"江西省吉安市永丰县恩江镇大园村（北至崇文大道、西至欧阳修南大道、南至祥和大道、东至恩江南大道)"}},{"type":"Feature","geometry":{"type":"Point","coordinates":[115.437873,27.320481]},"properties":{"full_address":"江西省吉安市永丰县恩江镇八一社区（北至跃进东路，西至恩江北路、南至崇文东大道、东至永叔路)"}},{"type":"Feature","geometry":{"type":"Point","coordinates":[115.426152,27.319584]},"properties":{"full_address":"江西省吉安市永丰县原水利局宿舍金丰大楼"}},{"type":"Feature","geometry":{"type":"Point","coordinates":[115.430904,27.328463]},"properties":{"full_address":"江西省吉安市永丰县恩江镇城南社区（北至平云大道，西至迎宾中大道，南至雁背岭自然村，东至雁背岭水库）"}},{"type":"Feature","geometry":{"type":"Point","coordinates":[115.648899,27.130633]},"properties":{"full_address":"江西省吉安市永丰县瑶田镇湖西村湖西街"}},{"type":"Feature","geometry":{"type":"Point","coordinates":[115.424246,27.317842]},"properties":{"full_address":"江西省吉安市永丰县恩江镇金田鑫城天娇苑1栋、5栋"}},{"type":"Feature","geometry":{"type":"Point","coordinates":[114.931593,27.022284]},"properties":{"full_address":"江西省吉安市经开区邻里中心"}},{"type":"Feature","geometry":{"type":"Point","coordinates":[114.928688,27.007857]},"properties":{"full_address":"江西省吉安市经开区幸福家园小区"}},{"type":"Feature","geometry":{"type":"Point","coordinates":[114.931593,27.022284]},"properties":{"full_address":"江西省吉安市经开区金安花苑"}},{"type":"Feature","geometry":{"type":"Point","coordinates":[114.92526,27.00773]},"properties":{"full_address":"江西省吉安市经开区德逸国际小区"}},{"type":"Feature","geometry":{"type":"Point","coordinates":[114.93002,27.016249]},"properties":{"full_address":"江西省吉安市经开区富临华府"}},{"type":"Feature","geometry":{"type":"Point","coordinates":[114.929432,27.004568]},"properties":{"full_address":"江西省吉安市经开区龙腾府邸小区"}},{"type":"Feature","geometry":{"type":"Point","coordinates":[120.415299,36.374479]},"properties":{"full_address":"山东省青岛市即墨区华山一路硕辉苑小区"}},{"type":"Feature","geometry":{"type":"Point","coordinates":[120.407411,36.375838]},"properties":{"full_address":"山东省青岛市即墨区长江二路188号岘山花城小区"}},{"type":"Feature","geometry":{"type":"Point","coordinates":[120.402279,36.40267]},"properties":{"full_address":"山东省青岛市即墨区通济街道办事处淮涉河一路899号店子社区"}},{"type":"Feature","geometry":{"type":"Point","coordinates":[120.419455,36.373876]},"properties":{"full_address":"山东省青岛市即墨区通济街道润发家园"}},{"type":"Feature","geometry":{"type":"Point","coordinates":[120.391322,36.389356]},"properties":{"full_address":"山东省青岛市即墨区通济街道陈家河小区"}},{"type":"Feature","geometry":{"type":"Point","coordinates":[120.391398,36.381124]},"properties":{"full_address":"山东省青岛市即墨区清华园小区"}},{"type":"Feature","geometry":{"type":"Point","coordinates":[120.439681,36.396586]},"properties":{"full_address":"山东省青岛市即墨区庄头村商住楼一区"}},{"type":"Feature","geometry":{"type":"Point","coordinates":[120.467569,36.397263]},"properties":{"full_address":"山东省青岛市即墨区通济街道永合花苑小区"}},{"type":"Feature","geometry":{"type":"Point","coordinates":[120.494032,36.399658]},"properties":{"full_address":"山东省青岛市即墨区潮海街道景瑞名都小区"}},{"type":"Feature","geometry":{"type":"Point","coordinates":[120.324422,36.360298]},"properties":{"full_address":"山东省青岛市即墨区大信街道大金家村"}},{"type":"Feature","geometry":{"type":"Point","coordinates":[120.357419,36.396102]},"properties":{"full_address":"山东省青岛市即墨区司家疃三村商业楼西区"}},{"type":"Feature","geometry":{"type":"Point","coordinates":[120.421273,36.391745]},"properties":{"full_address":"山东省青岛市即墨区通济街道同济馨园"}},{"type":"Feature","geometry":{"type":"Point","coordinates":[120.432624,36.374]},"properties":{"full_address":"山东省青岛市即墨区通济街道辛家庄"}},{"type":"Feature","geometry":{"type":"Point","coordinates":[120.434198,36.394996]},"properties":{"full_address":"山东省青岛市即墨区通济街道隆福名居小区"}},{"type":"Feature","geometry":{"type":"Point","coordinates":[120.340161,36.381407]},"properties":{"full_address":"山东省青岛市即墨区大信街道聚信社区官路村"}},{"type":"Feature","geometry":{"type":"Point","coordinates":[120.453655,36.533721]},"properties":{"full_address":"山东省青岛市即墨区灵山街道孙家旺疃村"}},{"type":"Feature","geometry":{"type":"Point","coordinates":[120.418642,36.452358]},"properties":{"full_address":"山东省青岛市即墨区北安街道周集网格"}},{"type":"Feature","geometry":{"type":"Point","coordinates":[115.067152,33.408357]},"properties":{"full_address":"河南省周口市沈丘县沈丘县北城办事处小辛营行政村"}},{"type":"Feature","geometry":{"type":"Point","coordinates":[115.077206,33.392635]},"properties":{"full_address":"河南省周口市沈丘县沈丘县槐店回族镇金田市"}},{"type":"Feature","geometry":{"type":"Point","coordinates":[109.485392,30.276544]},"properties":{"full_address":"湖北省恩施土家族苗族自治州恩施市舞阳坝街道金凤苑小区"}},{"type":"Feature","geometry":{"type":"Point","coordinates":[109.495619,30.294139]},"properties":{"full_address":"湖北省恩施土家族苗族自治州恩施市舞阳坝街道恩施职业技术学院主校区"}},{"type":"Feature","geometry":{"type":"Point","coordinates":[109.496397,30.288922]},"properties":{"full_address":"湖北省恩施土家族苗族自治州恩施市舞阳坝街道恩施职业技术学院南校区"}},{"type":"Feature","geometry":{"type":"Point","coordinates":[109.476228,30.298439]},"properties":{"full_address":"湖北省恩施土家族苗族自治州恩施市小渡船街道盛世家园B栋二单元"}},{"type":"Feature","geometry":{"type":"Point","coordinates":[109.48612,30.288942]},"properties":{"full_address":"湖北省恩施土家族苗族自治州恩施市小渡船街道大桥路二巷12号"}},{"type":"Feature","geometry":{"type":"Point","coordinates":[109.480353,30.289449]},"properties":{"full_address":"湖北省恩施土家族苗族自治州恩施市小渡船街道航空花园至一方购物广场（大桥路住建局路口至民族路交界处）区域"}},{"type":"Feature","geometry":{"type":"Point","coordinates":[109.483201,30.290172]},"properties":{"full_address":"湖北省恩施土家族苗族自治州恩施市小渡船街道大桥路5巷"}},{"type":"Feature","geometry":{"type":"Point","coordinates":[109.47372,30.292469]},"properties":{"full_address":"湖北省恩施土家族苗族自治州恩施市小渡船街道工农路4巷100号楼"}},{"type":"Feature","geometry":{"type":"Point","coordinates":[109.47297,30.282751]},"properties":{"full_address":"湖北省恩施土家族苗族自治州恩施市小渡船街道黔龙一号二期"}},{"type":"Feature","geometry":{"type":"Point","coordinates":[109.478318,30.26098]},"properties":{"full_address":"湖北省恩施土家族苗族自治州恩施市六角亭街道恩施市东方医院"}},{"type":"Feature","geometry":{"type":"Point","coordinates":[109.484822,30.318056]},"properties":{"full_address":"湖北省恩施土家族苗族自治州恩施市六角亭街道松树坪还建小区"}},{"type":"Feature","geometry":{"type":"Point","coordinates":[109.473878,30.265268]},"properties":{"full_address":"湖北省恩施土家族苗族自治州恩施市六角亭街道首府壹品小区7栋"}},{"type":"Feature","geometry":{"type":"Point","coordinates":[109.482049,30.315081]},"properties":{"full_address":"湖北省恩施土家族苗族自治州恩施市金子坝街道红庙老粮店宿舍"}},{"type":"Feature","geometry":{"type":"Point","coordinates":[109.48831,30.294695]},"properties":{"full_address":"湖北省恩施土家族苗族自治州恩施市金子坝街道凤凰路夷水仙居3栋2单元"}},{"type":"Feature","geometry":{"type":"Point","coordinates":[109.486183,30.263502]},"properties":{"full_address":"湖北省恩施土家族苗族自治州恩施市金子坝街道东风大道137号"}},{"type":"Feature","geometry":{"type":"Point","coordinates":[109.482122,30.315528]},"properties":{"full_address":"湖北省恩施土家族苗族自治州恩施市金子坝街道施州大道怡隆苑小区"}},{"type":"Feature","geometry":{"type":"Point","coordinates":[109.498765,30.29879]},"properties":{"full_address":"湖北省恩施土家族苗族自治州恩施市金子坝街道柑子槽小区1期"}},{"type":"Feature","geometry":{"type":"Point","coordinates":[109.498383,30.309596]},"properties":{"full_address":"湖北省恩施土家族苗族自治州恩施市金子坝街道万福国际小区及商贸城"}},{"type":"Feature","geometry":{"type":"Point","coordinates":[109.49024,30.341308]},"properties":{"full_address":"湖北省恩施土家族苗族自治州恩施市金子坝街道万金汇小区1号楼"}},{"type":"Feature","geometry":{"type":"Point","coordinates":[109.518571,30.279749]},"properties":{"full_address":"湖北省恩施土家族苗族自治州恩施市七里坪街道七里新城1栋1单元"}},{"type":"Feature","geometry":{"type":"Point","coordinates":[109.375704,30.090954]},"properties":{"full_address":"湖北省恩施土家族苗族自治州恩施市芭蕉侗族乡黄连溪村杉树湾组"}},{"type":"Feature","geometry":{"type":"Point","coordinates":[109.728742,30.193666]},"properties":{"full_address":"湖北省恩施土家族苗族自治州恩施市新塘乡前坪村小溪组"}},{"type":"Feature","geometry":{"type":"Point","coordinates":[109.669346,30.246028]},"properties":{"full_address":"湖北省恩施土家族苗族自治州恩施市三岔镇恩施大清江景区游客中心"}},{"type":"Feature","geometry":{"type":"Point","coordinates":[114.140771,22.541484]},"properties":{"full_address":"广东省深圳市罗湖区黄贝街道新秀社区秀南街89号新芙楼"}},{"type":"Feature","geometry":{"type":"Point","coordinates":[114.05472,22.56476]},"properties":{"full_address":"广东省深圳市福田区梅林街道上梅林新村第22栋-第25栋、第34栋-第37栋、第186栋、第187栋、第202栋-第205栋、第220栋-第222栋"}},{"type":"Feature","geometry":{"type":"Point","coordinates":[114.083115,22.537349]},"properties":{"full_address":"广东省深圳市福田区福田街道福华路21号福侨大厦A座、B座，福华路23号福田外贸大厦"}},{"type":"Feature","geometry":{"type":"Point","coordinates":[114.048176,22.512361]},"properties":{"full_address":"广东省深圳市福田区福保街道益田村第52栋1单元"}},{"type":"Feature","geometry":{"type":"Point","coordinates":[113.679223,22.807985]},"properties":{"full_address":"广东省东莞市沙田镇海腾国际码头员工宿舍"}},{"type":"Feature","geometry":{"type":"Point","coordinates":[113.632027,22.885998]},"properties":{"full_address":"广东省东莞市沙田镇西太隆村北至伟升鞋材厂、东至华美路、南至就兴路（韵达快递门前）、西至西太隆河沿河道路合围区域及兴洲路53号以南周边住宅"}},{"type":"Feature","geometry":{"type":"Point","coordinates":[107.851748,21.681767]},"properties":{"full_address":"广西壮族自治区防城港市防城区那良镇那良社区（含径口组、茶山组、酒铺组）"}},{"type":"Feature","geometry":{"type":"Point","coordinates":[108.353499,21.769212]},"properties":{"full_address":"广西壮族自治区防城港市防城区荣光社区（含朝堂组、淡中组、墩敬组、二屋组）"}},{"type":"Feature","geometry":{"type":"Point","coordinates":[107.849443,21.781573]},"properties":{"full_address":"广西壮族自治区防城港市防城区大村村林屋组"}},{"type":"Feature","geometry":{"type":"Point","coordinates":[107.907465,21.725115]},"properties":{"full_address":"广西壮族自治区防城港市防城区大勉村桥踏组"}},{"type":"Feature","geometry":{"type":"Point","coordinates":[109.518379,18.290796]},"properties":{"full_address":"海南省三亚市吉阳区南新居荣兴万利城小区"}},{"type":"Feature","geometry":{"type":"Point","coordinates":[109.528674,18.222447]},"properties":{"full_address":"海南省三亚市吉阳区大东海社区1号港湾城广百家超市"}},{"type":"Feature","geometry":{"type":"Point","coordinates":[110.405802,18.805637]},"properties":{"full_address":"海南省省直辖县级行政单位万宁市万城镇裕光社区"}},{"type":"Feature","geometry":{"type":"Point","coordinates":[110.39690030749756,18.794540311668133]},"properties":{"full_address":"海南省省直辖县级行政单位万宁市万城镇东方社区的高田村、义德小区"}},{"type":"Feature","geometry":{"type":"Point","coordinates":[110.39959,18.796179]},"properties":{"full_address":"海南省省直辖县级行政单位万宁市万城镇镇南社区"}},{"type":"Feature","geometry":{"type":"Point","coordinates":[110.392006,18.791536]},"properties":{"full_address":"海南省省直辖县级行政单位万宁市万城镇西门社区（西门批发市场、东至文明南路，南至仙桃小区围墙，西至万明街，北至西门西街交叉路口）"}},{"type":"Feature","geometry":{"type":"Point","coordinates":[110.402769,18.799145]},"properties":{"full_address":"海南省省直辖县级行政单位万宁市万城镇朝阳社区（东至朝阳街，南至朝阳街，西至镇南街，北至解放路）"}},{"type":"Feature","geometry":{"type":"Point","coordinates":[110.38941946020536,18.79520727631787]},"properties":{"full_address":"海南省省直辖县级行政单位万宁市万城镇万隆社区（华侨街、万隆街）"}},{"type":"Feature","geometry":{"type":"Point","coordinates":[110.376935,18.789939]},"properties":{"full_address":"海南省省直辖县级行政单位万宁市万城镇丰园社区（东至水渠，南至红专西路，西至丰南南路，北至人民西路）"}},{"type":"Feature","geometry":{"type":"Point","coordinates":[110.385056,18.802166]},"properties":{"full_address":"海南省省直辖县级行政单位万宁市万城镇仁里社区上灶村"}},{"type":"Feature","geometry":{"type":"Point","coordinates":[105.843409,30.194743]},"properties":{"full_address":"重庆市重庆市潼南区桂林街道北城丽都小区第10栋"}},{"type":"Feature","geometry":{"type":"Point","coordinates":[105.841858,30.19626]},"properties":{"full_address":"重庆市重庆市潼南区桂林街道上城华府小区第19栋"}},{"type":"Feature","geometry":{"type":"Point","coordinates":[105.804163,30.184151]},"properties":{"full_address":"重庆市重庆市潼南区大佛街道石院街130号"}},{"type":"Feature","geometry":{"type":"Point","coordinates":[105.8333,30.178771]},"properties":{"full_address":"重庆市重庆市潼南区梓潼街道外滩国际城一期第6栋"}},{"type":"Feature","geometry":{"type":"Point","coordinates":[104.104464,30.64096]},"properties":{"full_address":"四川省成都市锦江区牛市口街道钢管厂一区（除外成都锦江瑞康医院），包含底商"}},{"type":"Feature","geometry":{"type":"Point","coordinates":[104.10237,30.64328]},"properties":{"full_address":"四川省成都市锦江区牛市口街道大田坎街95号院1-3栋，含1栋底商"}},{"type":"Feature","geometry":{"type":"Point","coordinates":[104.094919,30.637146]},"properties":{"full_address":"四川省成都市锦江区牛市口街道朝阳名宅，包含底商"}},{"type":"Feature","geometry":{"type":"Point","coordinates":[104.095818,30.636943]},"properties":{"full_address":"四川省成都市锦江区牛市口街道朝阳逸景，包含底商"}},{"type":"Feature","geometry":{"type":"Point","coordinates":[104.103625,30.644821]},"properties":{"full_address":"四川省成都市锦江区牛市口街道蜀都花园，包含底商"}},{"type":"Feature","geometry":{"type":"Point","coordinates":[104.038066,30.645082]},"properties":{"full_address":"四川省成都市武侯区浆洗街街道大石南路1号院"}},{"type":"Feature","geometry":{"type":"Point","coordinates":[104.027652,30.631635]},"properties":{"full_address":"四川省成都市武侯区红牌楼街道佳灵路33号优地B区"}},{"type":"Feature","geometry":{"type":"Point","coordinates":[104.02772,30.643781]},"properties":{"full_address":"四川省成都市武侯区浆洗街街道双楠1区（含底商）"}},{"type":"Feature","geometry":{"type":"Point","coordinates":[104.030871,30.648416]},"properties":{"full_address":"四川省成都市武侯区浆洗街街道金地花园东区西区（含底商）"}},{"type":"Feature","geometry":{"type":"Point","coordinates":[104.059241,30.644715]},"properties":{"full_address":"四川省成都市武侯区浆洗街街道百花东街与大石南路交界口至百花东街与百吉街交界口道路临街两侧楼栋（含底商）"}},{"type":"Feature","geometry":{"type":"Point","coordinates":[103.999664,30.632113]},"properties":{"full_address":"四川省成都市武侯区簇锦街道顺和街2号兴元丽园B区（含底商）"}},{"type":"Feature","geometry":{"type":"Point","coordinates":[104.128028,30.68367]},"properties":{"full_address":"四川省成都市成华区二仙桥街道交大·归谷建设派及底商(仙韵一路66号)"}},{"type":"Feature","geometry":{"type":"Point","coordinates":[104.125968,30.684883]},"properties":{"full_address":"四川省成都市成华区二仙桥街道泰博理想城2期及底商（仙韵巷66号)"}},{"type":"Feature","geometry":{"type":"Point","coordinates":[104.125968,30.684883]},"properties":{"full_address":"四川省成都市成华区二仙桥街道泰博理想城1期及底商（仙韵二路33号)"}},{"type":"Feature","geometry":{"type":"Point","coordinates":[104.159838,30.682397]},"properties":{"full_address":"四川省成都市成华区二仙桥街道蜀道紫瑞府二期项目宿舍（民兴二路)"}},{"type":"Feature","geometry":{"type":"Point","coordinates":[104.159838,30.682397]},"properties":{"full_address":"四川省成都市成华区二仙桥街道禾创文创产业园项目宿舍（民兴二路 )"}},{"type":"Feature","geometry":{"type":"Point","coordinates":[104.159838,30.682397]},"properties":{"full_address":"四川省成都市成华区二仙桥街道华润租住房项目宿舍、仙韵三路、四路项目宿舍、合信K101项目宿舍(民兴二路)"}},{"type":"Feature","geometry":{"type":"Point","coordinates":[104.122563,30.719797]},"properties":{"full_address":"四川省成都市成华区二仙桥街道中车配套幼儿园及养老院项目宿舍（二仙桥西北路17号)"}},{"type":"Feature","geometry":{"type":"Point","coordinates":[104.259846,30.548248]},"properties":{"full_address":"四川省成都市龙泉驿区龙泉街道燎原南路25号航天乙四区"}},{"type":"Feature","geometry":{"type":"Point","coordinates":[105.398266,28.843581]},"properties":{"full_address":"四川省泸州市江阳区邻玉街道天堂村"}},{"type":"Feature","geometry":{"type":"Point","coordinates":[105.062813,29.575253]},"properties":{"full_address":"四川省内江市市中区马鞍山加油站及员工宿舍（含底层商铺）"}},{"type":"Feature","geometry":{"type":"Point","coordinates":[105.064752,29.583583]},"properties":{"full_address":"四川省内江市市中区甘泉寺花鸟市场"}},{"type":"Feature","geometry":{"type":"Point","coordinates":[105.0702,29.57488]},"properties":{"full_address":"四川省内江市市中区黄桷井商城"}},{"type":"Feature","geometry":{"type":"Point","coordinates":[105.063392,29.574306]},"properties":{"full_address":"四川省内江市市中区和平村菜市场（含底层商铺）及牌楼街道原派出所与对面居民区（含底层商铺）"}},{"type":"Feature","geometry":{"type":"Point","coordinates":[105.07192,29.584219]},"properties":{"full_address":"四川省内江市市中区世纪滨江1期（含底层商铺）"}},{"type":"Feature","geometry":{"type":"Point","coordinates":[105.070615,29.581899]},"properties":{"full_address":"四川省内江市市中区新宇大厦（含底层商铺）"}},{"type":"Feature","geometry":{"type":"Point","coordinates":[105.057524,29.581008]},"properties":{"full_address":"四川省内江市市中区玉溪路左右两侧居民区及底层商铺"}},{"type":"Feature","geometry":{"type":"Point","coordinates":[105.057746,29.574221]},"properties":{"full_address":"四川省内江市市中区环城路与和平街交汇处至环城路与新华路交汇处的居民区及底层商铺"}},{"type":"Feature","geometry":{"type":"Point","coordinates":[105.067752,29.572843]},"properties":{"full_address":"四川省内江市市中区交通路左右两侧居民区及底层商铺"}},{"type":"Feature","geometry":{"type":"Point","coordinates":[105.066456,29.582793]},"properties":{"full_address":"四川省内江市市中区上南街干休所中院"}},{"type":"Feature","geometry":{"type":"Point","coordinates":[105.084321,29.55]},"properties":{"full_address":"四川省内江市市中区万里大街高坝电厂家属区"}},{"type":"Feature","geometry":{"type":"Point","coordinates":[105.062507,29.574846]},"properties":{"full_address":"四川省内江市市中区和平街康盛路"}},{"type":"Feature","geometry":{"type":"Point","coordinates":[105.068768,29.582436]},"properties":{"full_address":"四川省内江市市中区交通路福利巷48号、劳动巷196号"}},{"type":"Feature","geometry":{"type":"Point","coordinates":[105.060019,29.578751]},"properties":{"full_address":"四川省内江市市中区玉溪街道新华路337号"}},{"type":"Feature","geometry":{"type":"Point","coordinates":[105.067142,29.575948]},"properties":{"full_address":"四川省内江市市中区牌楼街道棬子路木材公司181号"}},{"type":"Feature","geometry":{"type":"Point","coordinates":[105.067083,29.576794]},"properties":{"full_address":"四川省内江市市中区牌楼街道马鞍山社区机床厂7舍"}},{"type":"Feature","geometry":{"type":"Point","coordinates":[105.061571,29.577376]},"properties":{"full_address":"四川省内江市市中区玉溪街道新华路新华苑"}},{"type":"Feature","geometry":{"type":"Point","coordinates":[105.065861,29.584259]},"properties":{"full_address":"四川省内江市市中区城西街道公园社区复兴巷劳动村"}},{"type":"Feature","geometry":{"type":"Point","coordinates":[105.043595,29.573044]},"properties":{"full_address":"四川省内江市市中区乐贤街道金德花园"}},{"type":"Feature","geometry":{"type":"Point","coordinates":[105.043291,29.576171]},"properties":{"full_address":"四川省内江市市中区金科时代中心"}},{"type":"Feature","geometry":{"type":"Point","coordinates":[105.055546,29.569113]},"properties":{"full_address":"四川省内江市市中区牌楼街道南屏街南巷"}},{"type":"Feature","geometry":{"type":"Point","coordinates":[105.057353,29.580624]},"properties":{"full_address":"四川省内江市市中区玉溪街道新华路西一巷"}},{"type":"Feature","geometry":{"type":"Point","coordinates":[105.057645,29.568805]},"properties":{"full_address":"四川省内江市市中区沱江花园"}},{"type":"Feature","geometry":{"type":"Point","coordinates":[104.931174,29.51615]},"properties":{"full_address":"四川省内江市市中区永安镇尚腾新村"}},{"type":"Feature","geometry":{"type":"Point","coordinates":[105.052626,29.578458]},"properties":{"full_address":"四川省内江市市中区玉溪街道工商大楼"}},{"type":"Feature","geometry":{"type":"Point","coordinates":[105.093844,29.540678]},"properties":{"full_address":"四川省内江市市中区金科中央公园城"}},{"type":"Feature","geometry":{"type":"Point","coordinates":[105.065409,29.58059]},"properties":{"full_address":"四川省内江市市中区广场路左右两侧居民区及底层商铺"}},{"type":"Feature","geometry":{"type":"Point","coordinates":[105.065284,29.582088]},"properties":{"full_address":"四川省内江市市中区新华维港城"}},{"type":"Feature","geometry":{"type":"Point","coordinates":[105.04468,29.581899]},"properties":{"full_address":"四川省内江市市中区壕子口路21-312号"}},{"type":"Feature","geometry":{"type":"Point","coordinates":[105.064465,29.574829]},"properties":{"full_address":"四川省内江市市中区和平街左右两侧居民区及底层商铺"}},{"type":"Feature","geometry":{"type":"Point","coordinates":[105.053601,29.577851]},"properties":{"full_address":"四川省内江市市中区玉溪街道邱家嘴菜市场"}},{"type":"Feature","geometry":{"type":"Point","coordinates":[105.046176,29.57639]},"properties":{"full_address":"四川省内江市市中区玉溪街道脚盆田岗盛商业广场"}},{"type":"Feature","geometry":{"type":"Point","coordinates":[105.030152,29.556607]},"properties":{"full_address":"四川省内江市市中区乐贤街道太子路全域居民区（含商铺）"}},{"type":"Feature","geometry":{"type":"Point","coordinates":[105.065615,29.587969]},"properties":{"full_address":"四川省内江市市中区桂湖街73号"}},{"type":"Feature","geometry":{"type":"Point","coordinates":[105.072333,29.579102]},"properties":{"full_address":"四川省内江市市中区滨江东路399号鹭湾半岛1期"}},{"type":"Feature","geometry":{"type":"Point","coordinates":[105.055913,29.580428]},"properties":{"full_address":"四川省内江市市中区玉溪街道玉环巷"}},{"type":"Feature","geometry":{"type":"Point","coordinates":[105.051777,29.576688]},"properties":{"full_address":"四川省内江市市中区玉溪路晏安路138号"}},{"type":"Feature","geometry":{"type":"Point","coordinates":[105.053826,29.577567]},"properties":{"full_address":"四川省内江市市中区晏家湾菜市场"}},{"type":"Feature","geometry":{"type":"Point","coordinates":[105.048552,29.568696]},"properties":{"full_address":"四川省内江市市中区甜城国际社区"}},{"type":"Feature","geometry":{"type":"Point","coordinates":[105.061479,29.567518]},"properties":{"full_address":"四川省内江市市中区南环路、环城路、腾飞路（含水韵天城）、江宁街（含家兴苑）合围区域"}},{"type":"Feature","geometry":{"type":"Point","coordinates":[105.035086,29.5638]},"properties":{"full_address":"四川省内江市市中区乐贤街道新光社区（含前进社区）"}},{"type":"Feature","geometry":{"type":"Point","coordinates":[105.051777,29.576688]},"properties":{"full_address":"四川省内江市市中区乐贤街道晏安路和乐雅居"}},{"type":"Feature","geometry":{"type":"Point","coordinates":[105.056372,29.578944]},"properties":{"full_address":"四川省内江市市中区翔龙路一巷"}},{"type":"Feature","geometry":{"type":"Point","coordinates":[105.066453,29.577409]},"properties":{"full_address":"四川省内江市市中区南山佳苑"}},{"type":"Feature","geometry":{"type":"Point","coordinates":[105.041069,29.57366]},"properties":{"full_address":"四川省内江市市中区内江九中（含家属宿舍）"}},{"type":"Feature","geometry":{"type":"Point","coordinates":[105.061769,29.580837]},"properties":{"full_address":"四川省内江市市中区甘泉寺社区"}},{"type":"Feature","geometry":{"type":"Point","coordinates":[105.060879,29.580288]},"properties":{"full_address":"四川省内江市市中区玉带街104号"}},{"type":"Feature","geometry":{"type":"Point","coordinates":[105.067838,29.581418]},"properties":{"full_address":"四川省内江市市中区交通路福利巷16号、38号（含新菜市场）"}},{"type":"Feature","geometry":{"type":"Point","coordinates":[105.065277,29.581007]},"properties":{"full_address":"四川省内江市市中区上南街220号"}},{"type":"Feature","geometry":{"type":"Point","coordinates":[105.061246,29.575341]},"properties":{"full_address":"四川省内江市市中区新华路揽景苑"}},{"type":"Feature","geometry":{"type":"Point","coordinates":[105.068599,29.573104]},"properties":{"full_address":"四川省内江市市中区交通路大盛现代城"}},{"type":"Feature","geometry":{"type":"Point","coordinates":[104.99000942929145,29.52902049666217]},"properties":{"full_address":"四川省内江市市中区智茂路66号（含白马物流园旁安置房）"}},{"type":"Feature","geometry":{"type":"Point","coordinates":[105.05708,29.57276]},"properties":{"full_address":"四川省内江市市中区牌楼街道沱鞍路5组"}},{"type":"Feature","geometry":{"type":"Point","coordinates":[105.076029,29.600839]},"properties":{"full_address":"四川省内江市东兴区平安路工商所家属楼（含底层商铺）"}},{"type":"Feature","geometry":{"type":"Point","coordinates":[105.054903,29.609099]},"properties":{"full_address":"四川省内江市东兴区邦泰国际公馆东区"}},{"type":"Feature","geometry":{"type":"Point","coordinates":[105.047634,29.599764]},"properties":{"full_address":"四川省内江市东兴区五星小区"}},{"type":"Feature","geometry":{"type":"Point","coordinates":[105.060171,29.603702]},"properties":{"full_address":"四川省内江市东兴区西林花园小区"}},{"type":"Feature","geometry":{"type":"Point","coordinates":[105.150171,29.525175]},"properties":{"full_address":"四川省内江市东兴区郭北镇亢家村"}},{"type":"Feature","geometry":{"type":"Point","coordinates":[105.081481,29.593173]},"properties":{"full_address":"四川省内江市东兴区龙观小区"}},{"type":"Feature","geometry":{"type":"Point","coordinates":[105.072539,29.596381]},"properties":{"full_address":"四川省内江市东兴区天和新城2期"}},{"type":"Feature","geometry":{"type":"Point","coordinates":[105.094195,29.740034]},"properties":{"full_address":"四川省内江市东兴区双才镇贾家新街86号"}},{"type":"Feature","geometry":{"type":"Point","coordinates":[105.043863,29.59875]},"properties":{"full_address":"四川省内江市东兴区西林街道龙湾半岛1期（含底层商铺）"}},{"type":"Feature","geometry":{"type":"Point","coordinates":[105.183917,29.683532]},"properties":{"full_address":"四川省内江市东兴区田家镇正子村"}},{"type":"Feature","geometry":{"type":"Point","coordinates":[105.054605,29.594539]},"properties":{"full_address":"四川省内江市东兴区西林街道桐梓小区一期"}},{"type":"Feature","geometry":{"type":"Point","coordinates":[105.066134,29.593522]},"properties":{"full_address":"四川省内江市东兴区西林街道新坝小区"}},{"type":"Feature","geometry":{"type":"Point","coordinates":[105.042804,29.604014]},"properties":{"full_address":"四川省内江市东兴区电力小区"}},{"type":"Feature","geometry":{"type":"Point","coordinates":[105.091711,29.502066]},"properties":{"full_address":"四川省内江市东兴区椑木镇农贸市场、老邮电局对面全部居民房"}},{"type":"Feature","geometry":{"type":"Point","coordinates":[105.042933,29.599]},"properties":{"full_address":"四川省内江市东兴区兰桂一号"}},{"type":"Feature","geometry":{"type":"Point","coordinates":[105.172512,29.51073]},"properties":{"full_address":"四川省内江市东兴区郭北镇青台村"}},{"type":"Feature","geometry":{"type":"Point","coordinates":[105.140878,29.548693]},"properties":{"full_address":"四川省内江市东兴区郭北镇郭家村"}},{"type":"Feature","geometry":{"type":"Point","coordinates":[105.153551,29.643485]},"properties":{"full_address":"四川省内江市东兴区田家镇三元村"}},{"type":"Feature","geometry":{"type":"Point","coordinates":[105.137822,29.491642]},"properties":{"full_address":"四川省内江市东兴区椑木镇椑南大冲村"}},{"type":"Feature","geometry":{"type":"Point","coordinates":[105.049633,29.606116]},"properties":{"full_address":"四川省内江市东兴区汉安天地"}},{"type":"Feature","geometry":{"type":"Point","coordinates":[105.072987,29.589861]},"properties":{"full_address":"四川省内江市东兴区望江花园"}},{"type":"Feature","geometry":{"type":"Point","coordinates":[105.053898,29.611082]},"properties":{"full_address":"四川省内江市东兴区邦泰国际公馆西区"}},{"type":"Feature","geometry":{"type":"Point","coordinates":[105.091711,29.502066]},"properties":{"full_address":"四川省内江市东兴区椑木镇石桥中路"}},{"type":"Feature","geometry":{"type":"Point","coordinates":[105.298585,29.723706]},"properties":{"full_address":"四川省内江市东兴区白合镇报恩寺村"}},{"type":"Feature","geometry":{"type":"Point","coordinates":[105.151637,29.493202]},"properties":{"full_address":"四川省内江市东兴区椑木镇河口村"}},{"type":"Feature","geometry":{"type":"Point","coordinates":[105.073884,29.594711]},"properties":{"full_address":"四川省内江市东兴区龙都路81号"}},{"type":"Feature","geometry":{"type":"Point","coordinates":[105.345967,29.746682]},"properties":{"full_address":"四川省内江市东兴区杨家镇"}},{"type":"Feature","geometry":{"type":"Point","coordinates":[105.091659,29.504526]},"properties":{"full_address":"四川省内江市东兴区椑木镇石桥南路66号-82号欣鑫苑（含底商）"}},{"type":"Feature","geometry":{"type":"Point","coordinates":[105.090238,29.506985]},"properties":{"full_address":"四川省内江市东兴区椑木镇玉屏街"}},{"type":"Feature","geometry":{"type":"Point","coordinates":[105.079464,29.597766]},"properties":{"full_address":"四川省内江市东兴区新江街道国光社区"}},{"type":"Feature","geometry":{"type":"Point","coordinates":[105.070073,29.593368]},"properties":{"full_address":"四川省内江市东兴区中兴佳苑"}},{"type":"Feature","geometry":{"type":"Point","coordinates":[105.048646,29.602045]},"properties":{"full_address":"四川省内江市东兴区邦泰国际社区御峰1号门小区、2号门小区"}},{"type":"Feature","geometry":{"type":"Point","coordinates":[105.102758,29.51189]},"properties":{"full_address":"四川省内江市东兴区椑木镇光荣村"}},{"type":"Feature","geometry":{"type":"Point","coordinates":[105.04461,29.57689]},"properties":{"full_address":"四川省内江市经开区西浦官邸"}},{"type":"Feature","geometry":{"type":"Point","coordinates":[105.041028,29.579004]},"properties":{"full_address":"四川省内江市经开区松山南路春天公园城"}},{"type":"Feature","geometry":{"type":"Point","coordinates":[104.949926,29.57683]},"properties":{"full_address":"四川省内江市经开区靖民镇石桥村"}},{"type":"Feature","geometry":{"type":"Point","coordinates":[105.012362,29.568594]},"properties":{"full_address":"四川省内江市经开区汉渝小区"}},{"type":"Feature","geometry":{"type":"Point","coordinates":[105.018446,29.583853]},"properties":{"full_address":"四川省内江市经开区巨腾工业园"}},{"type":"Feature","geometry":{"type":"Point","coordinates":[105.043117,29.582845]},"properties":{"full_address":"四川省内江市经开区壕子口路543号1幢"}},{"type":"Feature","geometry":{"type":"Point","coordinates":[105.039559,29.589438]},"properties":{"full_address":"四川省内江市经开区壕子口街道圣江路19号贤山家园小区"}},{"type":"Feature","geometry":{"type":"Point","coordinates":[105.039022,29.592031]},"properties":{"full_address":"四川省内江市经开区壕子口路与圣江路交汇处至铁站街与爱心老年公寓路口到内江市第六人民医院后门与圣江路合围区域（不含内江市第六人民医院门诊部、急诊、住院部）"}},{"type":"Feature","geometry":{"type":"Point","coordinates":[105.070606,29.604565]},"properties":{"full_address":"四川省内江市高新区能力路193号"}},{"type":"Feature","geometry":{"type":"Point","coordinates":[105.101944,29.606424]},"properties":{"full_address":"四川省内江市高新区远达御庭学府"}},{"type":"Feature","geometry":{"type":"Point","coordinates":[105.081872,29.604247]},"properties":{"full_address":"四川省内江市高新区传化广场锦园"}},{"type":"Feature","geometry":{"type":"Point","coordinates":[104.644534,28.758563]},"properties":{"full_address":"四川省宜宾市翠屏区西郊街道滨江国际B区"}},{"type":"Feature","geometry":{"type":"Point","coordinates":[104.644534,28.758563]},"properties":{"full_address":"四川省宜宾市翠屏区西郊街道滨江国际A区"}},{"type":"Feature","geometry":{"type":"Point","coordinates":[104.644534,28.758563]},"properties":{"full_address":"四川省宜宾市翠屏区合江门街道东楼街33号5栋"}},{"type":"Feature","geometry":{"type":"Point","coordinates":[104.623919,28.769358]},"properties":{"full_address":"四川省宜宾市翠屏区合江门街道刘臣街34号"}},{"type":"Feature","geometry":{"type":"Point","coordinates":[104.622897,28.771287]},"properties":{"full_address":"四川省宜宾市翠屏区合江门街道刘臣街114号"}},{"type":"Feature","geometry":{"type":"Point","coordinates":[104.644534,28.758563]},"properties":{"full_address":"四川省宜宾市翠屏区合江门街道北大街96号"}},{"type":"Feature","geometry":{"type":"Point","coordinates":[104.611934,28.758446]},"properties":{"full_address":"四川省宜宾市翠屏区大观楼街道沿江路311号小区"}},{"type":"Feature","geometry":{"type":"Point","coordinates":[104.596571,28.756907]},"properties":{"full_address":"四川省宜宾市翠屏区西郊街道苗圃路63号长锋公司"}},{"type":"Feature","geometry":{"type":"Point","coordinates":[104.608544,28.758093]},"properties":{"full_address":"四川省宜宾市翠屏区西郊街道苗圃路127号"}},{"type":"Feature","geometry":{"type":"Point","coordinates":[104.644534,28.758563]},"properties":{"full_address":"四川省宜宾市翠屏区西郊街道省建四公司"}},{"type":"Feature","geometry":{"type":"Point","coordinates":[104.620812,28.770745]},"properties":{"full_address":"四川省宜宾市翠屏区合江门街道刘臣街"}},{"type":"Feature","geometry":{"type":"Point","coordinates":[104.644534,28.758563]},"properties":{"full_address":"四川省宜宾市翠屏区白花镇和平街"}},{"type":"Feature","geometry":{"type":"Point","coordinates":[104.620812,28.770745]},"properties":{"full_address":"四川省宜宾市翠屏区刘臣街片区：北至拱星街、南至二医院、西至石坝街、东至春畅街"}},{"type":"Feature","geometry":{"type":"Point","coordinates":[104.644534,28.758563]},"properties":{"full_address":"四川省宜宾市翠屏区真武路片区：北至岷江桥南桥头，南至盐水溪，北至真武路，西至翠屏山"}},{"type":"Feature","geometry":{"type":"Point","coordinates":[104.620587,28.768561]},"properties":{"full_address":"四川省宜宾市翠屏区蒲草田片区：北至岷江桥南桥头、南至北浩巷、西至北操场、东至蜀南大道中段北大街"}},{"type":"Feature","geometry":{"type":"Point","coordinates":[104.621941,28.767832]},"properties":{"full_address":"四川省宜宾市翠屏区鲁家园菜市场片区：北至北浩巷、南至正气巷、西至鲁家园、东至东至蜀南大道中段北大街"}},{"type":"Feature","geometry":{"type":"Point","coordinates":[104.531539,28.691106]},"properties":{"full_address":"四川省宜宾市翠屏区大观楼街道建设路51号"}},{"type":"Feature","geometry":{"type":"Point","coordinates":[104.622238,28.769836]},"properties":{"full_address":"四川省宜宾市翠屏区合江门街道刘臣街14号2栋"}},{"type":"Feature","geometry":{"type":"Point","coordinates":[104.620812,28.770745]},"properties":{"full_address":"四川省宜宾市翠屏区二医院总院片区:北至刘臣街、南至二医院围界内、西至北大街、东至东浩街"}},{"type":"Feature","geometry":{"type":"Point","coordinates":[104.613877,28.75796]},"properties":{"full_address":"四川省宜宾市翠屏区建设路片区:北至慈善路与西郊路、西南至沿江路、东至建设路"}},{"type":"Feature","geometry":{"type":"Point","coordinates":[104.61599,28.750061]},"properties":{"full_address":"四川省宜宾市翠屏区西郊批发市场片区:东北至沿江路与银龙路、西南至中坝桥北引桥、西北至苗圃路、东南至翠柏路"}},{"type":"Feature","geometry":{"type":"Point","coordinates":[104.616506,28.742303]},"properties":{"full_address":"四川省宜宾市叙州区赵场街道鑫菁英小区"}},{"type":"Feature","geometry":{"type":"Point","coordinates":[104.647429,28.76034]},"properties":{"full_address":"四川省宜宾市叙州区南岸街道龙润国际小区"}},{"type":"Feature","geometry":{"type":"Point","coordinates":[104.545253,28.720819]},"properties":{"full_address":"四川省宜宾市叙州区柏溪街道拉菲好望山1期2栋"}},{"type":"Feature","geometry":{"type":"Point","coordinates":[104.546804,28.697156]},"properties":{"full_address":"四川省宜宾市叙州区柏溪街道拉菲一期好望山小区"}},{"type":"Feature","geometry":{"type":"Point","coordinates":[104.653858,28.750437]},"properties":{"full_address":"四川省宜宾市叙州区赵场街道山水原著原香岭小区"}},{"type":"Feature","geometry":{"type":"Point","coordinates":[107.507002,31.200335]},"properties":{"full_address":"四川省达州市达川区三里坪街道花溪社区"}},{"type":"Feature","geometry":{"type":"Point","coordinates":[107.501891,31.19633]},"properties":{"full_address":"四川省达州市达川区翠屏街道石家湾社区恒大青年城"}},{"type":"Feature","geometry":{"type":"Point","coordinates":[107.503936,31.195298]},"properties":{"full_address":"四川省达州市达川区翠屏街道新南社区达司驾校"}},{"type":"Feature","geometry":{"type":"Point","coordinates":[102.217506,31.901859]},"properties":{"full_address":"四川省阿坝藏族羌族自治州马尔康市马尔康镇州人民医院家属生活区域"}},{"type":"Feature","geometry":{"type":"Point","coordinates":[106.678413,26.555518]},"properties":{"full_address":"贵州省贵阳市南明区花果园L2区10栋"}},{"type":"Feature","geometry":{"type":"Point","coordinates":[106.680266,26.573744]},"properties":{"full_address":"贵州省贵阳市南明区花果园W1区13栋"}},{"type":"Feature","geometry":{"type":"Point","coordinates":[106.691393,26.567992]},"properties":{"full_address":"贵州省贵阳市南明区花果园B南区8栋"}},{"type":"Feature","geometry":{"type":"Point","coordinates":[106.69224,26.569781]},"properties":{"full_address":"贵州省贵阳市南明区花果园B南区10栋"}},{"type":"Feature","geometry":{"type":"Point","coordinates":[106.688993,26.570711]},"properties":{"full_address":"贵州省贵阳市南明区花果园E区3栋"}},{"type":"Feature","geometry":{"type":"Point","coordinates":[106.68823,26.56977]},"properties":{"full_address":"贵州省贵阳市南明区花果园E区5栋"}},{"type":"Feature","geometry":{"type":"Point","coordinates":[106.684128,26.55735]},"properties":{"full_address":"贵州省贵阳市南明区花果园J区7栋"}},{"type":"Feature","geometry":{"type":"Point","coordinates":[106.680612,26.556383]},"properties":{"full_address":"贵州省贵阳市南明区花果园K区5栋"}},{"type":"Feature","geometry":{"type":"Point","coordinates":[106.677859,26.555085]},"properties":{"full_address":"贵州省贵阳市南明区花果园L2区9栋"}},{"type":"Feature","geometry":{"type":"Point","coordinates":[106.683238,26.558919]},"properties":{"full_address":"贵州省贵阳市南明区花果园M区8栋"}},{"type":"Feature","geometry":{"type":"Point","coordinates":[106.67271,26.55829]},"properties":{"full_address":"贵州省贵阳市南明区花果园Q区3栋"}},{"type":"Feature","geometry":{"type":"Point","coordinates":[106.674872,26.562889]},"properties":{"full_address":"贵州省贵阳市南明区花果园Q区8栋"}},{"type":"Feature","geometry":{"type":"Point","coordinates":[106.675231,26.56258]},"properties":{"full_address":"贵州省贵阳市南明区花果园Q区9栋"}},{"type":"Feature","geometry":{"type":"Point","coordinates":[106.674347,26.562258]},"properties":{"full_address":"贵州省贵阳市南明区花果园Q区10栋"}},{"type":"Feature","geometry":{"type":"Point","coordinates":[106.668069,26.553284]},"properties":{"full_address":"贵州省贵阳市南明区花果园S3区2栋"}},{"type":"Feature","geometry":{"type":"Point","coordinates":[106.678474,26.565826]},"properties":{"full_address":"贵州省贵阳市南明区花果园V区11栋"}},{"type":"Feature","geometry":{"type":"Point","coordinates":[106.705097,26.557766]},"properties":{"full_address":"贵州省贵阳市南明区飞行街113号"}},{"type":"Feature","geometry":{"type":"Point","coordinates":[106.678053,26.554718]},"properties":{"full_address":"贵州省贵阳市南明区花果园L2区11栋"}},{"type":"Feature","geometry":{"type":"Point","coordinates":[106.693668,26.569034]},"properties":{"full_address":"贵州省贵阳市南明区花果园B南区4栋"}},{"type":"Feature","geometry":{"type":"Point","coordinates":[106.671537,26.566239]},"properties":{"full_address":"贵州省贵阳市南明区花果园U区2栋"}},{"type":"Feature","geometry":{"type":"Point","coordinates":[106.679394,26.567269]},"properties":{"full_address":"贵州省贵阳市南明区花果园V区13栋"}},{"type":"Feature","geometry":{"type":"Point","coordinates":[106.668069,26.553284]},"properties":{"full_address":"贵州省贵阳市南明区花果园S3区4栋"}},{"type":"Feature","geometry":{"type":"Point","coordinates":[106.70736,26.552673]},"properties":{"full_address":"贵州省贵阳市南明区大理石路41号"}},{"type":"Feature","geometry":{"type":"Point","coordinates":[106.679391,26.560327]},"properties":{"full_address":"贵州省贵阳市南明区花果园L1区7栋"}},{"type":"Feature","geometry":{"type":"Point","coordinates":[106.67083,26.566681]},"properties":{"full_address":"贵州省贵阳市南明区花果园U区11栋"}},{"type":"Feature","geometry":{"type":"Point","coordinates":[106.69224,26.569781]},"properties":{"full_address":"贵州省贵阳市南明区花果园一期小区"}},{"type":"Feature","geometry":{"type":"Point","coordinates":[106.683913,26.567714]},"properties":{"full_address":"贵州省贵阳市南明区花果园一期美兴佳超市"}},{"type":"Feature","geometry":{"type":"Point","coordinates":[106.68876,26.570062]},"properties":{"full_address":"贵州省贵阳市南明区铂翎汇艺术中心"}},{"type":"Feature","geometry":{"type":"Point","coordinates":[106.681882,26.575255]},"properties":{"full_address":"贵州省贵阳市云岩区花果园W2区12栋"}},{"type":"Feature","geometry":{"type":"Point","coordinates":[106.775606,26.590074]},"properties":{"full_address":"贵州省贵阳市云岩区甜蜜小镇2组团4栋"}},{"type":"Feature","geometry":{"type":"Point","coordinates":[106.765983,26.589595]},"properties":{"full_address":"贵州省贵阳市云岩区未来方舟D3组团3栋"}},{"type":"Feature","geometry":{"type":"Point","coordinates":[106.754315,26.597089]},"properties":{"full_address":"贵州省贵阳市云岩区未来方舟D9组团4栋"}},{"type":"Feature","geometry":{"type":"Point","coordinates":[106.754315,26.597089]},"properties":{"full_address":"贵州省贵阳市云岩区未来方舟D15组团2栋"}},{"type":"Feature","geometry":{"type":"Point","coordinates":[106.756174,26.597383]},"properties":{"full_address":"贵州省贵阳市云岩区未来方舟F7组团2栋"}},{"type":"Feature","geometry":{"type":"Point","coordinates":[106.710352,26.611826]},"properties":{"full_address":"贵州省贵阳市云岩区宅吉路688号"}},{"type":"Feature","geometry":{"type":"Point","coordinates":[106.717565,26.603389]},"properties":{"full_address":"贵州省贵阳市云岩区沙河花园4栋"}},{"type":"Feature","geometry":{"type":"Point","coordinates":[106.729074,26.600244]},"properties":{"full_address":"贵州省贵阳市云岩区大营坡煤窑寨"}},{"type":"Feature","geometry":{"type":"Point","coordinates":[106.671661,26.603485]},"properties":{"full_address":"贵州省贵阳市云岩区恒大帝景25栋"}},{"type":"Feature","geometry":{"type":"Point","coordinates":[106.72032,26.60454]},"properties":{"full_address":"贵州省贵阳市云岩区中大国际A2栋"}},{"type":"Feature","geometry":{"type":"Point","coordinates":[106.720809,26.58577]},"properties":{"full_address":"贵州省贵阳市云岩区宝山北路199号"}},{"type":"Feature","geometry":{"type":"Point","coordinates":[106.72467,26.57975]},"properties":{"full_address":"贵州省贵阳市云岩区宝山北路与警苑社区外围、东山巷的合围区域"}},{"type":"Feature","geometry":{"type":"Point","coordinates":[106.705412,26.576526]},"properties":{"full_address":"贵州省贵阳市云岩区浣纱路与罗汉营路、市西河河道的合围区域"}},{"type":"Feature","geometry":{"type":"Point","coordinates":[106.746143,26.582107]},"properties":{"full_address":"贵州省贵阳市云岩区万科玲珑湾别墅区"}},{"type":"Feature","geometry":{"type":"Point","coordinates":[106.706737,26.583502]},"properties":{"full_address":"贵州省贵阳市云岩区紫林庵交易路67号"}},{"type":"Feature","geometry":{"type":"Point","coordinates":[106.690602,26.578062]},"properties":{"full_address":"贵州省贵阳市云岩区二桥路与松山路、省机电学校、云贵山山头公园的合围区域"}},{"type":"Feature","geometry":{"type":"Point","coordinates":[106.708091,26.586534]},"properties":{"full_address":"贵州省贵阳市云岩区人民大道与永乐路、中华北路、黔灵西路的合围区域"}},{"type":"Feature","geometry":{"type":"Point","coordinates":[106.705167,26.571956]},"properties":{"full_address":"贵州省贵阳市云岩区大营路与百花山路、直通车学校外围沿狮子山山体的合围区域"}},{"type":"Feature","geometry":{"type":"Point","coordinates":[106.642506,26.586898]},"properties":{"full_address":"贵州省贵阳市云岩区马王路与百花大道路口至蒙特卡尼小区的连片区域"}},{"type":"Feature","geometry":{"type":"Point","coordinates":[106.708091,26.586534]},"properties":{"full_address":"贵州省贵阳市云岩区中华北路与延安中路、人民大道、黔灵西路的合围区域"}},{"type":"Feature","geometry":{"type":"Point","coordinates":[106.722287,26.609868]},"properties":{"full_address":"贵州省贵阳市云岩区中环路北段与万江路、红岩新村合围的黄山冲新村组与黄山冲二组、红岩组10-79号的连片区域"}},{"type":"Feature","geometry":{"type":"Point","coordinates":[106.673558,26.573665]},"properties":{"full_address":"贵州省贵阳市云岩区贝地卢加诺与贝地领航连片区域"}},{"type":"Feature","geometry":{"type":"Point","coordinates":[106.73958970811545,26.588979900809708]},"properties":{"full_address":"贵州省贵阳市云岩区东山路以南的西瓜村片区"}},{"type":"Feature","geometry":{"type":"Point","coordinates":[106.696924,26.587578]},"properties":{"full_address":"贵州省贵阳市云岩区北京西路与枣山路、英烈路、双峰路的合围区域"}},{"type":"Feature","geometry":{"type":"Point","coordinates":[106.71385,26.59445]},"properties":{"full_address":"贵州省贵阳市云岩区北京路与宝山北路、新印厂路、友谊路、沙河街与贵医附院外围围墙的合围区域"}},{"type":"Feature","geometry":{"type":"Point","coordinates":[106.736782,26.617837]},"properties":{"full_address":"贵州省贵阳市云岩区北京路与贵州医科大外围围墙、博泰华庭外围围墙与新添大道南段辅路的合围区域"}},{"type":"Feature","geometry":{"type":"Point","coordinates":[106.667919,26.576616]},"properties":{"full_address":"贵州省贵阳市云岩区甲秀南路与杨家山、改茶路、金马国际、水晶苑外围、星辰国际外围的合围区域"}},{"type":"Feature","geometry":{"type":"Point","coordinates":[106.65707,26.61781]},"properties":{"full_address":"贵州省贵阳市云岩区白云大道与公安分局外围、光明桂花园外围合围区域"}},{"type":"Feature","geometry":{"type":"Point","coordinates":[106.691472,26.588361]},"properties":{"full_address":"贵州省贵阳市云岩区白云大道与鑫园围墙、公安分局外围、北京西路、肿瘤医院外围的合围区域"}},{"type":"Feature","geometry":{"type":"Point","coordinates":[106.699035,26.574895]},"properties":{"full_address":"贵州省贵阳市云岩区老卫校外围与花溪大道北段、新隆福至如意巷10号的合围区域"}},{"type":"Feature","geometry":{"type":"Point","coordinates":[106.705311,26.582196]},"properties":{"full_address":"贵州省贵阳市云岩区延安中路与瑞金北路、黔灵西路、人民大道的合围区域"}},{"type":"Feature","geometry":{"type":"Point","coordinates":[106.652593,26.571055]},"properties":{"full_address":"贵州省贵阳市云岩区后坝路与贵园御景外围、五里冲路、改茶大道的合围区域"}},{"type":"Feature","geometry":{"type":"Point","coordinates":[106.652593,26.571055]},"properties":{"full_address":"贵州省贵阳市云岩区后坝路与贵园御景外围、长昆铁路、檀溪谷外围的合围区域"}},{"type":"Feature","geometry":{"type":"Point","coordinates":[106.726006,26.593536]},"properties":{"full_address":"贵州省贵阳市云岩区旭东路与巫峰苑、北京东路、百峰巷狮子路及周边的合围区域"}},{"type":"Feature","geometry":{"type":"Point","coordinates":[106.729837,26.584915]},"properties":{"full_address":"贵州省贵阳市云岩区旭东路与巫峰路、扶风路、东山电视塔、龙砚东山外围、螺蛳山路的合围区域"}},{"type":"Feature","geometry":{"type":"Point","coordinates":[106.733516,26.58924]},"properties":{"full_address":"贵州省贵阳市云岩区扶风路与东山路、东山怡景苑外围、实验三中外围的合围区域"}},{"type":"Feature","geometry":{"type":"Point","coordinates":[106.710881,26.613682]},"properties":{"full_address":"贵州省贵阳市云岩区丽景阳天与兴和家园片区"}},{"type":"Feature","geometry":{"type":"Point","coordinates":[106.663759,26.568658]},"properties":{"full_address":"贵州省贵阳市云岩区改茶大道与枫丹白鹭外围、白鹭洲外围、改茶路的合围区域"}},{"type":"Feature","geometry":{"type":"Point","coordinates":[106.691978,26.582271]},"properties":{"full_address":"贵州省贵阳市云岩区英烈路与双峰路、省计量检测院、海马冲路的合围区域"}},{"type":"Feature","geometry":{"type":"Point","coordinates":[106.690602,26.578062]},"properties":{"full_address":"贵州省贵阳市云岩区松山路与市林业绿化局建设工程处、云贵山山头公园、省机电学校外围的合围区域"}},{"type":"Feature","geometry":{"type":"Point","coordinates":[106.642804,26.58241]},"properties":{"full_address":"贵州省贵阳市云岩区金关巷与沿蒙特卡尼和水映山城围墙、金钟河、马王路、数博大道黎苏路的合围区域"}},{"type":"Feature","geometry":{"type":"Point","coordinates":[106.64230693744344,26.58569541200658]},"properties":{"full_address":"贵州省贵阳市云岩区金关路与数博大道黎苏路、百花大道的合围区域"}},{"type":"Feature","geometry":{"type":"Point","coordinates":[106.735312,26.585509]},"properties":{"full_address":"贵州省贵阳市云岩区实验三中以北与扶风东路、百花山、北京东路、渔安新城、东山路、东山怡景苑外围的合围区域"}},{"type":"Feature","geometry":{"type":"Point","coordinates":[106.71312,26.588466]},"properties":{"full_address":"贵州省贵阳市云岩区陕西路与黔灵西路、中华北路、中华路87号农业银行外围至陕西路109号外围的合围区域"}},{"type":"Feature","geometry":{"type":"Point","coordinates":[106.700176,26.58549]},"properties":{"full_address":"贵州省贵阳市云岩区威清路与山林路、延安巷、延安北巷的合围区域"}},{"type":"Feature","geometry":{"type":"Point","coordinates":[106.721862,26.585539]},"properties":{"full_address":"贵州省贵阳市云岩区狮子路与百峰巷、北京东路、宝山北路的合围区域（除市五医）"}},{"type":"Feature","geometry":{"type":"Point","coordinates":[106.719574,26.581693]},"properties":{"full_address":"贵州省贵阳市云岩区莲花巷片区"}},{"type":"Feature","geometry":{"type":"Point","coordinates":[106.68922,26.585376]},"properties":{"full_address":"贵州省贵阳市云岩区海马冲路与省计量测试院外围、黔灵山、头桥路的合围区域"}},{"type":"Feature","geometry":{"type":"Point","coordinates":[106.699979,26.580457]},"properties":{"full_address":"贵州省贵阳市云岩区浣纱路与市西河道、市西高架桥的合围区域（除龙门渔港小区外）"}},{"type":"Feature","geometry":{"type":"Point","coordinates":[106.70515,26.575497]},"properties":{"full_address":"贵州省贵阳市云岩区浣纱路与市西路商业街、瑞金南路、芦花巷2号、市妇幼保健院外围的合围区域"}},{"type":"Feature","geometry":{"type":"Point","coordinates":[106.702747,26.580706]},"properties":{"full_address":"贵州省贵阳市云岩区浣纱路与延安西路、新建路、市西河道的合围区域"}},{"type":"Feature","geometry":{"type":"Point","coordinates":[106.697124,26.583213]},"properties":{"full_address":"贵州省贵阳市云岩区黄金路与头桥路、枣山路的合围区域"}},{"type":"Feature","geometry":{"type":"Point","coordinates":[106.724426,26.604594]},"properties":{"full_address":"贵州省贵阳市云岩区梧桐雅苑片区"}},{"type":"Feature","geometry":{"type":"Point","coordinates":[106.711397,26.606161]},"properties":{"full_address":"贵州省贵阳市云岩区麻冲路与宅吉路、银通山庄外围、观山东路的合围区域"}},{"type":"Feature","geometry":{"type":"Point","coordinates":[106.713836,26.607618]},"properties":{"full_address":"贵州省贵阳市云岩区鹿冲关路与半边街、永安寺街、太乙巷、宅吉路的合围区域"}},{"type":"Feature","geometry":{"type":"Point","coordinates":[106.706541,26.590691]},"properties":{"full_address":"贵州省贵阳市云岩区瑞金北路与北京路、人民大道、环城北路的合围区域"}},{"type":"Feature","geometry":{"type":"Point","coordinates":[106.708091,26.586534]},"properties":{"full_address":"贵州省贵阳市云岩区瑞金北路与环城北路、人民大道、黔灵西路的合围区域"}},{"type":"Feature","geometry":{"type":"Point","coordinates":[106.719431,26.604537]},"properties":{"full_address":"贵州省贵阳市云岩区酱菜厂宿舍区的连片区域"}},{"type":"Feature","geometry":{"type":"Point","coordinates":[106.704967,26.579013]},"properties":{"full_address":"贵州省贵阳市云岩区新建路与市西河道、延安西路、瑞金中路、市西高架桥路的合围区域"}},{"type":"Feature","geometry":{"type":"Point","coordinates":[106.727707,26.608453]},"properties":{"full_address":"贵州省贵阳市云岩区万科翡翠传奇区域"}},{"type":"Feature","geometry":{"type":"Point","coordinates":[106.712903,26.608007]},"properties":{"full_address":"贵州省贵阳市云岩区开磷宅吉花园小区"}},{"type":"Feature","geometry":{"type":"Point","coordinates":[106.754315,26.597089]},"properties":{"full_address":"贵州省贵阳市云岩区未来方舟D15组团5栋"}},{"type":"Feature","geometry":{"type":"Point","coordinates":[106.751932,26.595221]},"properties":{"full_address":"贵州省贵阳市云岩区未来方舟H4组团1栋"}},{"type":"Feature","geometry":{"type":"Point","coordinates":[106.722434,26.587704]},"properties":{"full_address":"贵州省贵阳市云岩区贵州师范大学宝山校区"}},{"type":"Feature","geometry":{"type":"Point","coordinates":[106.72043514074224,26.603093229934576]},"properties":{"full_address":"贵州省贵阳市云岩区银佳花园小区"}},{"type":"Feature","geometry":{"type":"Point","coordinates":[106.775582,26.590237]},"properties":{"full_address":"贵州省贵阳市云岩区甜蜜小镇11组团"}},{"type":"Feature","geometry":{"type":"Point","coordinates":[106.775582,26.590237]},"properties":{"full_address":"贵州省贵阳市云岩区甜蜜小镇南组团"}},{"type":"Feature","geometry":{"type":"Point","coordinates":[106.734616,26.615716]},"properties":{"full_address":"贵州省贵阳市云岩区新添大道284号顺兴花园小区"}},{"type":"Feature","geometry":{"type":"Point","coordinates":[106.599619,26.454338]},"properties":{"full_address":"贵州省贵阳市花溪区石板镇一村"}},{"type":"Feature","geometry":{"type":"Point","coordinates":[106.60075,26.457311]},"properties":{"full_address":"贵州省贵阳市花溪区石板镇二村"}},{"type":"Feature","geometry":{"type":"Point","coordinates":[106.612904,26.471106]},"properties":{"full_address":"贵州省贵阳市花溪区石板镇西部花园小区"}},{"type":"Feature","geometry":{"type":"Point","coordinates":[106.611273,26.448263]},"properties":{"full_address":"贵州省贵阳市花溪区石板镇镇山村"}},{"type":"Feature","geometry":{"type":"Point","coordinates":[106.617667,26.460991]},"properties":{"full_address":"贵州省贵阳市花溪区石板镇云凹村云凹花园"}},{"type":"Feature","geometry":{"type":"Point","coordinates":[106.636139,26.40163]},"properties":{"full_address":"贵州省贵阳市花溪区恒大文化旅游城13-15组团"}},{"type":"Feature","geometry":{"type":"Point","coordinates":[106.671242,26.464]},"properties":{"full_address":"贵州省贵阳市花溪区贵州民族大学融通公寓"}},{"type":"Feature","geometry":{"type":"Point","coordinates":[106.67261,26.471302]},"properties":{"full_address":"贵州省贵阳市花溪区贵阳市民族中学B栋"}},{"type":"Feature","geometry":{"type":"Point","coordinates":[106.546316,26.486827]},"properties":{"full_address":"贵州省贵阳市花溪区麦坪镇麦坪村3组"}},{"type":"Feature","geometry":{"type":"Point","coordinates":[106.677572,26.496279]},"properties":{"full_address":"贵州省贵阳市花溪区腾龙湾A3区4栋"}},{"type":"Feature","geometry":{"type":"Point","coordinates":[106.698623,26.517448]},"properties":{"full_address":"贵州省贵阳市花溪区淮河路大坡村老年广场旁1栋"}},{"type":"Feature","geometry":{"type":"Point","coordinates":[106.526466,26.453239]},"properties":{"full_address":"贵州省贵阳市花溪区湖潮乡星湖社区23栋"}},{"type":"Feature","geometry":{"type":"Point","coordinates":[106.543611,26.391666]},"properties":{"full_address":"贵州省贵阳市花溪区湖潮乡磊庄村4组"}},{"type":"Feature","geometry":{"type":"Point","coordinates":[106.67261,26.471302]},"properties":{"full_address":"贵州省贵阳市花溪区贵阳市民族中学A栋"}},{"type":"Feature","geometry":{"type":"Point","coordinates":[106.703066,26.514613]},"properties":{"full_address":"贵州省贵阳市花溪区黄埔国际16栋住宅区"}},{"type":"Feature","geometry":{"type":"Point","coordinates":[106.701739,26.510256]},"properties":{"full_address":"贵州省贵阳市花溪区永红小区107栋"}},{"type":"Feature","geometry":{"type":"Point","coordinates":[106.638631,26.379989]},"properties":{"full_address":"贵州省贵阳市花溪区花溪大学城思雅路8号"}},{"type":"Feature","geometry":{"type":"Point","coordinates":[106.701305,26.522213]},"properties":{"full_address":"贵州省贵阳市花溪区长城嘉苑1单元楼栋"}},{"type":"Feature","geometry":{"type":"Point","coordinates":[106.632734,26.472739]},"properties":{"full_address":"贵州省贵阳市花溪区石板镇合朋村"}},{"type":"Feature","geometry":{"type":"Point","coordinates":[106.61899,26.482389]},"properties":{"full_address":"贵州省贵阳市花溪区石板镇羊龙村"}},{"type":"Feature","geometry":{"type":"Point","coordinates":[106.627286,26.467978]},"properties":{"full_address":"贵州省贵阳市花溪区石板镇花鱼井村"}},{"type":"Feature","geometry":{"type":"Point","coordinates":[106.590501,26.450511]},"properties":{"full_address":"贵州省贵阳市花溪区石板镇隆昌村"}},{"type":"Feature","geometry":{"type":"Point","coordinates":[106.633445,26.489571]},"properties":{"full_address":"贵州省贵阳市花溪区石板镇摆勺村"}},{"type":"Feature","geometry":{"type":"Point","coordinates":[106.666334,26.435801]},"properties":{"full_address":"贵州省贵阳市花溪区青岩镇南山苑小区A区1-10栋"}},{"type":"Feature","geometry":{"type":"Point","coordinates":[106.666334,26.435801]},"properties":{"full_address":"贵州省贵阳市花溪区青岩镇南山苑小区B区1-13栋"}},{"type":"Feature","geometry":{"type":"Point","coordinates":[106.720757,26.293869]},"properties":{"full_address":"贵州省贵阳市花溪区孟关乡涟江化工厂家属区19-21、31栋"}},{"type":"Feature","geometry":{"type":"Point","coordinates":[106.611637,26.464398]},"properties":{"full_address":"贵州省贵阳市花溪区贵阳地利农产品物流园"}},{"type":"Feature","geometry":{"type":"Point","coordinates":[106.655274,26.415979]},"properties":{"full_address":"贵州省贵阳市花溪区美的国宾府一期高层A1-A10栋"}},{"type":"Feature","geometry":{"type":"Point","coordinates":[106.655274,26.415979]},"properties":{"full_address":"贵州省贵阳市花溪区美的国宾府二期高层A11-A18栋"}},{"type":"Feature","geometry":{"type":"Point","coordinates":[106.655274,26.415979]},"properties":{"full_address":"贵州省贵阳市花溪区美的国宾府三期高层A53栋、A55-A63栋"}},{"type":"Feature","geometry":{"type":"Point","coordinates":[106.635792,26.401898]},"properties":{"full_address":"贵州省贵阳市花溪区恒大文化旅游城10组团1-18栋"}},{"type":"Feature","geometry":{"type":"Point","coordinates":[106.636139,26.40163]},"properties":{"full_address":"贵州省贵阳市花溪区恒大文化旅游城6组团1-25栋"}},{"type":"Feature","geometry":{"type":"Point","coordinates":[106.635592,26.404163]},"properties":{"full_address":"贵州省贵阳市花溪区恒大文化旅游城8组团1-10栋"}},{"type":"Feature","geometry":{"type":"Point","coordinates":[106.535804,26.458825]},"properties":{"full_address":"贵州省贵阳市花溪区湖潮乡元方村"}},{"type":"Feature","geometry":{"type":"Point","coordinates":[106.55125,26.4015]},"properties":{"full_address":"贵州省贵阳市花溪区富贵安康小镇B5栋"}},{"type":"Feature","geometry":{"type":"Point","coordinates":[106.55125,26.4015]},"properties":{"full_address":"贵州省贵阳市花溪区富贵安康小镇B6栋"}},{"type":"Feature","geometry":{"type":"Point","coordinates":[106.55125,26.4015]},"properties":{"full_address":"贵州省贵阳市花溪区富贵安康小镇B7栋"}},{"type":"Feature","geometry":{"type":"Point","coordinates":[106.55125,26.4015]},"properties":{"full_address":"贵州省贵阳市花溪区富贵安康小镇B8栋"}},{"type":"Feature","geometry":{"type":"Point","coordinates":[106.55125,26.4015]},"properties":{"full_address":"贵州省贵阳市花溪区富贵安康小镇B9栋"}},{"type":"Feature","geometry":{"type":"Point","coordinates":[106.729277,26.388853]},"properties":{"full_address":"贵州省贵阳市花溪区碧桂园贵阳1号玺苑2-7栋"}},{"type":"Feature","geometry":{"type":"Point","coordinates":[106.729277,26.388853]},"properties":{"full_address":"贵州省贵阳市花溪区碧桂园贵阳1号鼎园18-23栋"}},{"type":"Feature","geometry":{"type":"Point","coordinates":[106.729277,26.388853]},"properties":{"full_address":"贵州省贵阳市花溪区碧桂园贵阳1号馨园H7-H11栋"}},{"type":"Feature","geometry":{"type":"Point","coordinates":[106.744864,26.307011]},"properties":{"full_address":"贵州省贵阳市花溪区黔陶乡骑龙村1-6组"}},{"type":"Feature","geometry":{"type":"Point","coordinates":[106.816922,26.662572]},"properties":{"full_address":"贵州省贵阳市乌当区洛湾村委会周边1-6组区域"}},{"type":"Feature","geometry":{"type":"Point","coordinates":[106.205327,26.65891]},"properties":{"full_address":"贵州省贵阳市清镇市犁倭镇犁倭村杨家院组1号-8号区域（东至307省道,南至安置小区道路，西至孟庆富家站废弃养鸡房，北至杨家院空旷农田的合围区域）"}},{"type":"Feature","geometry":{"type":"Point","coordinates":[106.370524,27.516399]},"properties":{"full_address":"贵州省遵义市播州区泮水镇永安社区聚城名都2栋1单元"}},{"type":"Feature","geometry":{"type":"Point","coordinates":[106.335039,27.503132]},"properties":{"full_address":"贵州省遵义市播州区泮水镇遵金村民兴组众合利建材有限公司"}},{"type":"Feature","geometry":{"type":"Point","coordinates":[106.335039,27.503132]},"properties":{"full_address":"贵州省遵义市播州区泮水镇遵金村民兴组63号"}},{"type":"Feature","geometry":{"type":"Point","coordinates":[106.335039,27.503132]},"properties":{"full_address":"贵州省遵义市播州区泮水镇遵金村民兴组131号"}},{"type":"Feature","geometry":{"type":"Point","coordinates":[106.103803,26.629643]},"properties":{"full_address":"贵州省毕节市织金县马场镇陈家寨村"}},{"type":"Feature","geometry":{"type":"Point","coordinates":[106.06132,26.606263]},"properties":{"full_address":"贵州省毕节市织金县马场镇大陌村"}},{"type":"Feature","geometry":{"type":"Point","coordinates":[106.099528,26.612336]},"properties":{"full_address":"贵州省毕节市织金县马场镇过弓村"}},{"type":"Feature","geometry":{"type":"Point","coordinates":[106.085829,26.644492]},"properties":{"full_address":"贵州省毕节市织金县马场镇鸡场坝村"}},{"type":"Feature","geometry":{"type":"Point","coordinates":[106.115181,26.656631]},"properties":{"full_address":"贵州省毕节市织金县马场镇龙井村"}},{"type":"Feature","geometry":{"type":"Point","coordinates":[106.066529,26.616089]},"properties":{"full_address":"贵州省毕节市织金县马场镇台子村"}},{"type":"Feature","geometry":{"type":"Point","coordinates":[106.061486,26.588942]},"properties":{"full_address":"贵州省毕节市织金县马场镇文丰村"}},{"type":"Feature","geometry":{"type":"Point","coordinates":[106.127963,26.626526]},"properties":{"full_address":"贵州省毕节市织金县马场镇中心村"}},{"type":"Feature","geometry":{"type":"Point","coordinates":[106.110143,26.603181]},"properties":{"full_address":"贵州省毕节市织金县马场镇小河村"}},{"type":"Feature","geometry":{"type":"Point","coordinates":[106.113956,26.646297]},"properties":{"full_address":"贵州省毕节市织金县马场镇营上村"}},{"type":"Feature","geometry":{"type":"Point","coordinates":[106.141117,26.624029]},"properties":{"full_address":"贵州省毕节市织金县马场镇关上村"}},{"type":"Feature","geometry":{"type":"Point","coordinates":[106.072547,26.586784]},"properties":{"full_address":"贵州省毕节市织金县马场镇布底村"}},{"type":"Feature","geometry":{"type":"Point","coordinates":[106.07476,26.638348]},"properties":{"full_address":"贵州省毕节市织金县马场镇马家屯村"}},{"type":"Feature","geometry":{"type":"Point","coordinates":[106.085575,26.628254]},"properties":{"full_address":"贵州省毕节市织金县马场镇马场村"}},{"type":"Feature","geometry":{"type":"Point","coordinates":[106.039034,26.541212]},"properties":{"full_address":"贵州省毕节市织金县猫场镇齐心村"}},{"type":"Feature","geometry":{"type":"Point","coordinates":[106.017339,26.534112]},"properties":{"full_address":"贵州省毕节市织金县猫场镇新寨村"}},{"type":"Feature","geometry":{"type":"Point","coordinates":[105.96679,26.526483]},"properties":{"full_address":"贵州省毕节市织金县猫场镇国江村"}},{"type":"Feature","geometry":{"type":"Point","coordinates":[106.04314,26.53954]},"properties":{"full_address":"贵州省毕节市织金县猫场镇和平村"}},{"type":"Feature","geometry":{"type":"Point","coordinates":[106.000776,26.529955]},"properties":{"full_address":"贵州省毕节市织金县猫场镇四甲村"}},{"type":"Feature","geometry":{"type":"Point","coordinates":[106.022453,26.520879]},"properties":{"full_address":"贵州省毕节市织金县猫场镇川硐村"}},{"type":"Feature","geometry":{"type":"Point","coordinates":[106.03072,26.545865]},"properties":{"full_address":"贵州省毕节市织金县猫场镇石板村"}},{"type":"Feature","geometry":{"type":"Point","coordinates":[106.061251,26.552744]},"properties":{"full_address":"贵州省毕节市织金县猫场镇大水田村"}},{"type":"Feature","geometry":{"type":"Point","coordinates":[106.124886,26.668366]},"properties":{"full_address":"贵州省毕节市织金县自强乡坡头村"}},{"type":"Feature","geometry":{"type":"Point","coordinates":[106.095312,26.681959]},"properties":{"full_address":"贵州省毕节市织金县自强乡堰塘村"}},{"type":"Feature","geometry":{"type":"Point","coordinates":[106.10961,26.687993]},"properties":{"full_address":"贵州省毕节市织金县自强乡自强村"}},{"type":"Feature","geometry":{"type":"Point","coordinates":[106.017665,26.500668]},"properties":{"full_address":"贵州省毕节市织金县上坪寨乡上水村"}},{"type":"Feature","geometry":{"type":"Point","coordinates":[106.039741,26.63335]},"properties":{"full_address":"贵州省毕节市织金县牛场镇坪山村"}},{"type":"Feature","geometry":{"type":"Point","coordinates":[105.816419,26.822244]},"properties":{"full_address":"贵州省毕节市织金县八步街道马坎社区"}},{"type":"Feature","geometry":{"type":"Point","coordinates":[106.040025,26.533625]},"properties":{"full_address":"贵州省毕节市织金县猫场镇高克村"}},{"type":"Feature","geometry":{"type":"Point","coordinates":[105.989597,26.502346]},"properties":{"full_address":"贵州省毕节市织金县猫场镇岩脚村"}},{"type":"Feature","geometry":{"type":"Point","coordinates":[106.046193,26.554009]},"properties":{"full_address":"贵州省毕节市织金县猫场镇大寨村"}},{"type":"Feature","geometry":{"type":"Point","coordinates":[106.134057,26.588668]},"properties":{"full_address":"贵州省毕节市织金县猫场镇二甲村"}},{"type":"Feature","geometry":{"type":"Point","coordinates":[106.118081,26.532696]},"properties":{"full_address":"贵州省毕节市织金县猫场镇光明村"}},{"type":"Feature","geometry":{"type":"Point","coordinates":[106.056078,26.566574]},"properties":{"full_address":"贵州省毕节市织金县猫场镇龙潭村"}},{"type":"Feature","geometry":{"type":"Point","coordinates":[106.058853,26.52341]},"properties":{"full_address":"贵州省毕节市织金县猫场镇窑上村"}},{"type":"Feature","geometry":{"type":"Point","coordinates":[106.083819,26.529598]},"properties":{"full_address":"贵州省毕节市织金县猫场镇补花村"}},{"type":"Feature","geometry":{"type":"Point","coordinates":[105.984523,26.460498]},"properties":{"full_address":"贵州省毕节市织金县猫场镇白云村"}},{"type":"Feature","geometry":{"type":"Point","coordinates":[105.986785,26.509234]},"properties":{"full_address":"贵州省毕节市织金县猫场镇凤平村"}},{"type":"Feature","geometry":{"type":"Point","coordinates":[106.091867,26.566709]},"properties":{"full_address":"贵州省毕节市织金县猫场镇煤厂村"}},{"type":"Feature","geometry":{"type":"Point","coordinates":[106.13152,26.574418]},"properties":{"full_address":"贵州省毕节市织金县猫场镇沙坝村"}},{"type":"Feature","geometry":{"type":"Point","coordinates":[106.103048,26.668668]},"properties":{"full_address":"贵州省毕节市织金县自强乡二坪村"}},{"type":"Feature","geometry":{"type":"Point","coordinates":[106.129286,26.700595]},"properties":{"full_address":"贵州省毕节市织金县自强乡化落村"}},{"type":"Feature","geometry":{"type":"Point","coordinates":[106.114974,26.713986]},"properties":{"full_address":"贵州省毕节市织金县自强乡桥上村"}},{"type":"Feature","geometry":{"type":"Point","coordinates":[106.137185,26.703067]},"properties":{"full_address":"贵州省毕节市织金县自强乡支东村"}},{"type":"Feature","geometry":{"type":"Point","coordinates":[106.133708,26.686373]},"properties":{"full_address":"贵州省毕节市织金县自强乡菜坝村"}},{"type":"Feature","geometry":{"type":"Point","coordinates":[106.004818,26.681314]},"properties":{"full_address":"贵州省毕节市织金县化起镇老乌山村"}},{"type":"Feature","geometry":{"type":"Point","coordinates":[106.01359,26.702115]},"properties":{"full_address":"贵州省毕节市织金县化起镇化起村"}},{"type":"Feature","geometry":{"type":"Point","coordinates":[105.966267,26.686489]},"properties":{"full_address":"贵州省毕节市织金县化起镇塘边村"}},{"type":"Feature","geometry":{"type":"Point","coordinates":[106.025061,26.666464]},"properties":{"full_address":"贵州省毕节市织金县化起镇大坪子村"}},{"type":"Feature","geometry":{"type":"Point","coordinates":[106.052297,26.475363]},"properties":{"full_address":"贵州省毕节市织金县上坪寨乡八寨村"}},{"type":"Feature","geometry":{"type":"Point","coordinates":[106.034761,26.489698]},"properties":{"full_address":"贵州省毕节市织金县上坪寨乡坡脚村"}},{"type":"Feature","geometry":{"type":"Point","coordinates":[106.073249,26.495172]},"properties":{"full_address":"贵州省毕节市织金县上坪寨乡建明村"}},{"type":"Feature","geometry":{"type":"Point","coordinates":[106.072953,26.471462]},"properties":{"full_address":"贵州省毕节市织金县上坪寨乡双明村"}},{"type":"Feature","geometry":{"type":"Point","coordinates":[106.09706,26.486162]},"properties":{"full_address":"贵州省毕节市织金县上坪寨乡五甲村"}},{"type":"Feature","geometry":{"type":"Point","coordinates":[106.00539,26.719569]},"properties":{"full_address":"贵州省毕节市织金县上坪寨乡中山村"}},{"type":"Feature","geometry":{"type":"Point","coordinates":[105.992695,26.607853]},"properties":{"full_address":"贵州省毕节市织金县牛场镇大坝村"}},{"type":"Feature","geometry":{"type":"Point","coordinates":[106.005112,26.569086]},"properties":{"full_address":"贵州省毕节市织金县牛场镇垭垅村"}},{"type":"Feature","geometry":{"type":"Point","coordinates":[106.014887,26.621679]},"properties":{"full_address":"贵州省毕节市织金县牛场镇群光村"}},{"type":"Feature","geometry":{"type":"Point","coordinates":[106.087323,26.802817]},"properties":{"full_address":"贵州省毕节市织金县牛场镇群建社区"}},{"type":"Feature","geometry":{"type":"Point","coordinates":[106.028168,26.61653]},"properties":{"full_address":"贵州省毕节市织金县牛场镇群营村"}},{"type":"Feature","geometry":{"type":"Point","coordinates":[106.013723,26.623451]},"properties":{"full_address":"贵州省毕节市织金县牛场镇群裕村"}},{"type":"Feature","geometry":{"type":"Point","coordinates":[105.943813,26.603314]},"properties":{"full_address":"贵州省毕节市织金县牛场镇沙沟村"}},{"type":"Feature","geometry":{"type":"Point","coordinates":[105.98443,26.618135]},"properties":{"full_address":"贵州省毕节市织金县牛场镇水营村"}},{"type":"Feature","geometry":{"type":"Point","coordinates":[105.95268,26.600973]},"properties":{"full_address":"贵州省毕节市织金县牛场镇塘房村"}},{"type":"Feature","geometry":{"type":"Point","coordinates":[105.816419,26.822244]},"properties":{"full_address":"贵州省毕节市织金县八步街道八步社区"}},{"type":"Feature","geometry":{"type":"Point","coordinates":[105.79841,26.793807]},"properties":{"full_address":"贵州省毕节市织金县八步街道利民社区"}},{"type":"Feature","geometry":{"type":"Point","coordinates":[105.817873,26.817821]},"properties":{"full_address":"贵州省毕节市织金县八步街道沙冲社区"}},{"type":"Feature","geometry":{"type":"Point","coordinates":[105.805978,26.799167]},"properties":{"full_address":"贵州省毕节市织金县八步街道山脚社区"}},{"type":"Feature","geometry":{"type":"Point","coordinates":[105.820712,26.826804]},"properties":{"full_address":"贵州省毕节市织金县八步街道田坝社区"}},{"type":"Feature","geometry":{"type":"Point","coordinates":[105.765313,26.798687]},"properties":{"full_address":"贵州省毕节市织金县八步街道新利社区"}},{"type":"Feature","geometry":{"type":"Point","coordinates":[105.80414,26.842954]},"properties":{"full_address":"贵州省毕节市织金县八步街道院墙社区"}},{"type":"Feature","geometry":{"type":"Point","coordinates":[105.854609,26.856212]},"properties":{"full_address":"贵州省毕节市织金县八步街道支都社区"}},{"type":"Feature","geometry":{"type":"Point","coordinates":[106.113989,26.560078]},"properties":{"full_address":"贵州省毕节市织金县猫场镇三甲村"}},{"type":"Feature","geometry":{"type":"Point","coordinates":[105.9403,26.527308]},"properties":{"full_address":"贵州省毕节市织金县猫场镇云峰村"}},{"type":"Feature","geometry":{"type":"Point","coordinates":[106.091604,26.49076]},"properties":{"full_address":"贵州省毕节市织金县上坪寨乡青峰村"}},{"type":"Feature","geometry":{"type":"Point","coordinates":[105.963357,26.622093]},"properties":{"full_address":"贵州省毕节市织金县牛场镇高山村"}},{"type":"Feature","geometry":{"type":"Point","coordinates":[106.011291,26.62297]},"properties":{"full_address":"贵州省毕节市织金县牛场镇群兴村"}},{"type":"Feature","geometry":{"type":"Point","coordinates":[106.004817,26.660559]},"properties":{"full_address":"贵州省毕节市织金县化起镇龙家坝村"}},{"type":"Feature","geometry":{"type":"Point","coordinates":[105.980424,26.659246]},"properties":{"full_address":"贵州省毕节市织金县化起镇老鹰村"}},{"type":"Feature","geometry":{"type":"Point","coordinates":[105.99892,26.707501]},"properties":{"full_address":"贵州省毕节市织金县化起镇果底村"}},{"type":"Feature","geometry":{"type":"Point","coordinates":[105.985308,26.678979]},"properties":{"full_address":"贵州省毕节市织金县化起镇雄鹰村"}},{"type":"Feature","geometry":{"type":"Point","coordinates":[97.880018,23.999972]},"properties":{"full_address":"云南省德宏傣族景颇族自治州瑞丽市勐卯街道卯相社区景成花园小区（瑞丽大道499号）4栋"}},{"type":"Feature","geometry":{"type":"Point","coordinates":[97.852324,23.993103]},"properties":{"full_address":"云南省德宏傣族景颇族自治州瑞丽市勐卯街道卯相社区竹林雅苑小区（广拉路18号）13栋"}},{"type":"Feature","geometry":{"type":"Point","coordinates":[91.12862,29.648511]},"properties":{"full_address":"西藏自治区拉萨市城关区鲁固社区朵森格路以东（老城区）"}},{"type":"Feature","geometry":{"type":"Point","coordinates":[91.137433,29.641667]},"properties":{"full_address":"西藏自治区拉萨市城关区林廓东路1巷3号水利局小区"}},{"type":"Feature","geometry":{"type":"Point","coordinates":[91.134564,29.646085]},"properties":{"full_address":"西藏自治区拉萨市城关区生态园路嚓荣、中国银联西藏分公司"}},{"type":"Feature","geometry":{"type":"Point","coordinates":[91.121863,29.650633]},"properties":{"full_address":"西藏自治区拉萨市城关区拉萨百货职工小区"}},{"type":"Feature","geometry":{"type":"Point","coordinates":[91.127935,29.60737]},"properties":{"full_address":"西藏自治区拉萨市城关区文创园区慈觉林员工公寓小区"}},{"type":"Feature","geometry":{"type":"Point","coordinates":[91.155745,29.666153]},"properties":{"full_address":"西藏自治区拉萨市城关区加荣社区"}},{"type":"Feature","geometry":{"type":"Point","coordinates":[91.134504,29.651852]},"properties":{"full_address":"西藏自治区拉萨市城关区冲赛康社区"}},{"type":"Feature","geometry":{"type":"Point","coordinates":[91.130543,29.65265]},"properties":{"full_address":"西藏自治区拉萨市城关区丹杰林社区（朵森格路中段以东）"}},{"type":"Feature","geometry":{"type":"Point","coordinates":[91.100535,29.668551]},"properties":{"full_address":"西藏自治区拉萨市城关区功德林街道拉鲁社区"}},{"type":"Feature","geometry":{"type":"Point","coordinates":[91.078353,29.644964]},"properties":{"full_address":"西藏自治区拉萨市城关区金珠西路街道八一社区"}},{"type":"Feature","geometry":{"type":"Point","coordinates":[91.13529,29.64676]},"properties":{"full_address":"西藏自治区拉萨市城关区绕赛社区（江苏路以北）"}},{"type":"Feature","geometry":{"type":"Point","coordinates":[91.132813,29.652227]},"properties":{"full_address":"西藏自治区拉萨市城关区夏萨苏社区"}},{"type":"Feature","geometry":{"type":"Point","coordinates":[91.129227,29.66972]},"properties":{"full_address":"西藏自治区拉萨市城关区幸福苑二区"}},{"type":"Feature","geometry":{"type":"Point","coordinates":[91.136698,29.66346]},"properties":{"full_address":"西藏自治区拉萨市城关区扎细街道雄嘎社区"}},{"type":"Feature","geometry":{"type":"Point","coordinates":[91.119249,29.694817]},"properties":{"full_address":"西藏自治区拉萨市城关区娘热街道仁钦蔡村"}},{"type":"Feature","geometry":{"type":"Point","coordinates":[91.090364,29.605123]},"properties":{"full_address":"西藏自治区拉萨市堆龙德庆区经开区人才公寓"}},{"type":"Feature","geometry":{"type":"Point","coordinates":[91.069043,29.625942]},"properties":{"full_address":"西藏自治区拉萨市堆龙德庆区拉萨之窗及其周围（除拉萨之窗）"}},{"type":"Feature","geometry":{"type":"Point","coordinates":[91.085088,29.616424]},"properties":{"full_address":"西藏自治区拉萨市堆龙德庆区海亮一期及其周边（除南苑、响冲小区、海亮颇章小区、亚洲湾水汇度假酒店外的其他区域）"}},{"type":"Feature","geometry":{"type":"Point","coordinates":[107.609588,34.318926]},"properties":{"full_address":"陕西省宝鸡市岐山县蔡家坡镇大森超市（西三路店）"}},{"type":"Feature","geometry":{"type":"Point","coordinates":[107.607345,34.318264]},"properties":{"full_address":"陕西省宝鸡市岐山县蔡家坡镇陕九二区"}},{"type":"Feature","geometry":{"type":"Point","coordinates":[110.266856,33.708911]},"properties":{"full_address":"陕西省商洛市丹凤县商镇桃园社区四组片区（东至王柏栋路，西至小河，南至老312国道，北至宁西铁路西合段）"}},{"type":"Feature","geometry":{"type":"Point","coordinates":[104.919724,33.392509]},"properties":{"full_address":"甘肃省陇南市武都区城关镇梁园社区西至二号路、北至财庙巷巷道与中坝一巷交界处、南至中坝二巷巷道与中坝三巷巷道交界处、东至中坝二巷巷道"}},{"type":"Feature","geometry":{"type":"Point","coordinates":[104.967086,33.466315]},"properties":{"full_address":"甘肃省陇南市武都区马街镇官堆村三社、四社"}},{"type":"Feature","geometry":{"type":"Point","coordinates":[104.923678,33.395851]},"properties":{"full_address":"甘肃省陇南市武都区梁园社区东至梁园路、南至恒泰巷、西至东堤路、北至西关街"}},{"type":"Feature","geometry":{"type":"Point","coordinates":[104.928009,33.380423]},"properties":{"full_address":"甘肃省陇南市武都区润泽苑小区"}},{"type":"Feature","geometry":{"type":"Point","coordinates":[104.926337,33.392211]},"properties":{"full_address":"甘肃省陇南市武都区尖沟坝西巷1号"}},{"type":"Feature","geometry":{"type":"Point","coordinates":[104.938345,33.380544]},"properties":{"full_address":"甘肃省陇南市武都区城关镇教场社区东至建行巷，南至北山东路，西至巴将军巷，北至林业局家属院"}},{"type":"Feature","geometry":{"type":"Point","coordinates":[104.927224,33.397367]},"properties":{"full_address":"甘肃省陇南市武都区城关镇西关社区郭家沟79号所在区域"}},{"type":"Feature","geometry":{"type":"Point","coordinates":[103.207806,35.59059]},"properties":{"full_address":"甘肃省临夏回族自治州临夏市八坊街道坝口社区铁家寺巷平房区域"}},{"type":"Feature","geometry":{"type":"Point","coordinates":[103.215409,35.596968]},"properties":{"full_address":"甘肃省临夏回族自治州临夏市城南街道青年社区天成嘉苑D-7栋"}},{"type":"Feature","geometry":{"type":"Point","coordinates":[103.252991,35.62031]},"properties":{"full_address":"甘肃省临夏回族自治州临夏市东区街道令牌锦绣华府26号楼二单元"}},{"type":"Feature","geometry":{"type":"Point","coordinates":[103.214368,35.599989]},"properties":{"full_address":"甘肃省临夏回族自治州临夏市城南街道庆胜社区大河家园6号楼、9号楼"}},{"type":"Feature","geometry":{"type":"Point","coordinates":[103.208718,35.596606]},"properties":{"full_address":"甘肃省临夏回族自治州临夏市东关街道二社社区下菜市房产局家属楼"}},{"type":"Feature","geometry":{"type":"Point","coordinates":[94.824916,36.42912]},"properties":{"full_address":"青海省海西蒙古族藏族自治州格尔木市郭勒木德镇众祥村"}},{"type":"Feature","geometry":{"type":"Point","coordinates":[87.677836,43.771849]},"properties":{"full_address":"新疆维吾尔自治区乌鲁木齐市天山区红雁街道那拉提街454号香悦湾二期"}},{"type":"Feature","geometry":{"type":"Point","coordinates":[87.625083,43.766976]},"properties":{"full_address":"新疆维吾尔自治区乌鲁木齐市天山区胜利路街道边瑞社区"}},{"type":"Feature","geometry":{"type":"Point","coordinates":[87.627206,43.770823]},"properties":{"full_address":"新疆维吾尔自治区乌鲁木齐市天山区南湾街街道延安路社区"}},{"type":"Feature","geometry":{"type":"Point","coordinates":[87.621851,43.769286]},"properties":{"full_address":"新疆维吾尔自治区乌鲁木齐市天山区胜利路街道新东街社区162号广汇胜利小区"}},{"type":"Feature","geometry":{"type":"Point","coordinates":[87.615709,43.795153]},"properties":{"full_address":"新疆维吾尔自治区乌鲁木齐市天山区胜利路街道新东街社区30号房产科家属院"}},{"type":"Feature","geometry":{"type":"Point","coordinates":[87.657381,43.81327]},"properties":{"full_address":"新疆维吾尔自治区乌鲁木齐市天山区翠泉路片区翠东社区清泉小区"}},{"type":"Feature","geometry":{"type":"Point","coordinates":[87.649858,43.810969]},"properties":{"full_address":"新疆维吾尔自治区乌鲁木齐市天山区碱泉街街道方圆社区虹桥二街38号方苑小区"}},{"type":"Feature","geometry":{"type":"Point","coordinates":[87.615797,43.775484]},"properties":{"full_address":"新疆维吾尔自治区乌鲁木齐市天山区团结路街道皇城社区地贸小区、外贸小区、领馆巷南社区农业厅家属院"}},{"type":"Feature","geometry":{"type":"Point","coordinates":[87.619711,43.769906]},"properties":{"full_address":"新疆维吾尔自治区乌鲁木齐市天山区胜利路街道新东街社区新东街42号自治区胸科医院家属院"}},{"type":"Feature","geometry":{"type":"Point","coordinates":[87.619407,43.777047]},"properties":{"full_address":"新疆维吾尔自治区乌鲁木齐市天山区团结路街道团结社区团结路410号团结路家属院"}},{"type":"Feature","geometry":{"type":"Point","coordinates":[87.614025,43.777398]},"properties":{"full_address":"新疆维吾尔自治区乌鲁木齐市天山区团结路街道领馆巷北社区胜利路63号文化大院"}},{"type":"Feature","geometry":{"type":"Point","coordinates":[87.616636,43.797224]},"properties":{"full_address":"新疆维吾尔自治区乌鲁木齐市天山区大小西门街道红旗路社区民主路前巷53号院"}},{"type":"Feature","geometry":{"type":"Point","coordinates":[87.65561,43.775924]},"properties":{"full_address":"新疆维吾尔自治区乌鲁木齐市天山区幸福路街道幸福城市花园社区金沙滩南二巷西幸福城市花园七期50号楼、53号楼、55号楼"}},{"type":"Feature","geometry":{"type":"Point","coordinates":[87.622012,43.786139]},"properties":{"full_address":"新疆维吾尔自治区乌鲁木齐市天山区二道桥街道宽北巷社区建中小区"}},{"type":"Feature","geometry":{"type":"Point","coordinates":[87.57672,43.67401]},"properties":{"full_address":"新疆维吾尔自治区乌鲁木齐市天山区红雁街道乌拉泊社区"}},{"type":"Feature","geometry":{"type":"Point","coordinates":[87.677836,43.771849]},"properties":{"full_address":"新疆维吾尔自治区乌鲁木齐市天山区红雁街道东大梁社区那拉提街454号香悦湾一期"}},{"type":"Feature","geometry":{"type":"Point","coordinates":[87.650056,43.763139]},"properties":{"full_address":"新疆维吾尔自治区乌鲁木齐市天山区红雁街道东大梁社区东大梁和顺三期C区、D区"}},{"type":"Feature","geometry":{"type":"Point","coordinates":[87.648202,43.779463]},"properties":{"full_address":"新疆维吾尔自治区乌鲁木齐市天山区幸福路街道宏大社区大湾北路360号幸福花园4期32号楼、34号楼、36号楼、37号楼、38号楼"}},{"type":"Feature","geometry":{"type":"Point","coordinates":[87.61938,43.781029]},"properties":{"full_address":"新疆维吾尔自治区乌鲁木齐市天山区二道桥福寿巷社区天池路30号家属院"}},{"type":"Feature","geometry":{"type":"Point","coordinates":[87.614566,43.794949]},"properties":{"full_address":"新疆维吾尔自治区乌鲁木齐市天山区大小西门街道红旗路社区新生巷133号自建房"}},{"type":"Feature","geometry":{"type":"Point","coordinates":[87.627207,43.775274]},"properties":{"full_address":"新疆维吾尔自治区乌鲁木齐市天山区团结路街道中泉街南社区团结路709号宏汇苑小区"}},{"type":"Feature","geometry":{"type":"Point","coordinates":[87.640464,43.766613]},"properties":{"full_address":"新疆维吾尔自治区乌鲁木齐市天山区幸福路街道职大社区大湾北路东六巷文体中心工地"}},{"type":"Feature","geometry":{"type":"Point","coordinates":[87.621507,43.781059]},"properties":{"full_address":"新疆维吾尔自治区乌鲁木齐市天山区二道桥街道固原巷社区和平南路一巷104号宁夏湾小区"}},{"type":"Feature","geometry":{"type":"Point","coordinates":[87.620707,43.748786]},"properties":{"full_address":"新疆维吾尔自治区乌鲁木齐市天山区赛马场街道水上乐园社区十七户路229号天山康居苑一期"}},{"type":"Feature","geometry":{"type":"Point","coordinates":[87.629511,43.771834]},"properties":{"full_address":"新疆维吾尔自治区乌鲁木齐市天山区南湾街街道波斯坦巷社区玖久艺景小区"}},{"type":"Feature","geometry":{"type":"Point","coordinates":[87.642433,43.783729]},"properties":{"full_address":"新疆维吾尔自治区乌鲁木齐市天山区和平路街道三山社区体育馆路556号院"}},{"type":"Feature","geometry":{"type":"Point","coordinates":[87.627979,43.778191]},