{"type":"FeatureCollection","features":[{"type":"Feature","geometry":{"type":"Point","coordinates":[116.550581,39.950246]},"properties":{"full_address":"北京市朝阳区东坝（地区）乡高杨树北里11号楼2单元"}},{"type":"Feature","geometry":{"type":"Point","coordinates":[116.529909,40.008214]},"properties":{"full_address":"北京市朝阳区崔各庄（地区）乡京旺家园1区9号楼"}},{"type":"Feature","geometry":{"type":"Point","coordinates":[116.557963,39.910652]},"properties":{"full_address":"北京市朝阳区三间房（地区）乡中国传媒大学北苑餐厅、 40号楼、 南苑餐厅、 22号楼"}},{"type":"Feature","geometry":{"type":"Point","coordinates":[116.299613,39.863219]},"properties":{"full_address":"北京市丰台区丰台街道东大街6号院12号楼其他单元、10号楼"}},{"type":"Feature","geometry":{"type":"Point","coordinates":[116.315824,39.950937]},"properties":{"full_address":"北京市海淀区紫竹院街道中央民族大学附属中学本部除女生宿舍楼以外的其他区域"}},{"type":"Feature","geometry":{"type":"Point","coordinates":[116.661075,39.965074]},"properties":{"full_address":"北京市通州区宋庄镇富豪村除956号、998号、999号、1000号区域外的其他区域"}},{"type":"Feature","geometry":{"type":"Point","coordinates":[117.259505,39.140623]},"properties":{"full_address":"天津市天津市河东区向阳楼街道星河花园（2号楼、4号楼除外）"}},{"type":"Feature","geometry":{"type":"Point","coordinates":[117.22264,39.061546]},"properties":{"full_address":"天津市天津市河西区梅江街梧桐公寓小区"}},{"type":"Feature","geometry":{"type":"Point","coordinates":[117.227206,39.034877]},"properties":{"full_address":"天津市天津市河西区梅江街天湖园37号楼"}},{"type":"Feature","geometry":{"type":"Point","coordinates":[117.240075,39.038403]},"properties":{"full_address":"天津市天津市河西区太湖路街秀江园一期（柏翠园）11号楼"}},{"type":"Feature","geometry":{"type":"Point","coordinates":[117.223701,39.034088]},"properties":{"full_address":"天津市天津市河西区梅江街天湾园1、5、7号楼"}},{"type":"Feature","geometry":{"type":"Point","coordinates":[117.237273,39.039843]},"properties":{"full_address":"天津市天津市河西区太湖路街爱湖里10号楼"}},{"type":"Feature","geometry":{"type":"Point","coordinates":[117.230126,39.0978]},"properties":{"full_address":"天津市天津市河西区挂甲寺街名仕达花园除8号楼之外的区域"}},{"type":"Feature","geometry":{"type":"Point","coordinates":[117.239233,39.092083]},"properties":{"full_address":"天津市天津市河西区挂甲寺街景兴西里、景兴里全域（除垃圾转运站）"}},{"type":"Feature","geometry":{"type":"Point","coordinates":[117.237497,39.095322]},"properties":{"full_address":"天津市天津市河西区挂甲寺街美宁公寓（除高风险区域外）、排水大楼合围区域"}},{"type":"Feature","geometry":{"type":"Point","coordinates":[117.133568,39.141717]},"properties":{"full_address":"天津市天津市南开区向阳路街云阳里小区（除1号楼5门、6门外）"}},{"type":"Feature","geometry":{"type":"Point","coordinates":[117.181894,39.06634]},"properties":{"full_address":"天津市天津市南开区体育中心街阳光壹佰小区北区7号楼4门"}},{"type":"Feature","geometry":{"type":"Point","coordinates":[117.1613,39.144505]},"properties":{"full_address":"天津市天津市红桥区铃铛阁街南头窑大楼42-45门"}},{"type":"Feature","geometry":{"type":"Point","coordinates":[117.283108,39.123248]},"properties":{"full_address":"天津市天津市东丽区万新街万隆花园小区除高风险以外区域"}},{"type":"Feature","geometry":{"type":"Point","coordinates":[117.290927,39.006737]},"properties":{"full_address":"天津市天津市津南区双新街欣悦佳园21号楼"}},{"type":"Feature","geometry":{"type":"Point","coordinates":[117.27545,39.020763]},"properties":{"full_address":"天津市天津市津南区双港镇普泰花园11号楼"}},{"type":"Feature","geometry":{"type":"Point","coordinates":[117.187071,39.217571]},"properties":{"full_address":"天津市天津市北辰区普东街秋怡家园小区7号楼"}},{"type":"Feature","geometry":{"type":"Point","coordinates":[117.350625,39.246105]},"properties":{"full_address":"天津市天津市北辰区青（广）源街荣翔园小区12号楼"}},{"type":"Feature","geometry":{"type":"Point","coordinates":[117.776904,40.95381]},"properties":{"full_address":"河北省承德市双滦区锦绣城一区除11号楼以外的区域"}},{"type":"Feature","geometry":{"type":"Point","coordinates":[119.462113,42.608993]},"properties":{"full_address":"内蒙古自治区赤峰市松山区哈拉道口镇太平沟村沙里勿苏自然村"}},{"type":"Feature","geometry":{"type":"Point","coordinates":[119.512194,42.609659]},"properties":{"full_address":"内蒙古自治区赤峰市松山区哈拉道口镇川宝地村川宝地自然村"}},{"type":"Feature","geometry":{"type":"Point","coordinates":[119.582019,42.62457]},"properties":{"full_address":"内蒙古自治区赤峰市松山区哈拉道口镇横牌子村四牌子自然村"}},{"type":"Feature","geometry":{"type":"Point","coordinates":[119.582019,42.62457]},"properties":{"full_address":"内蒙古自治区赤峰市松山区哈拉道口镇横牌子村前南台子自然村"}},{"type":"Feature","geometry":{"type":"Point","coordinates":[119.5767,42.531752]},"properties":{"full_address":"内蒙古自治区赤峰市松山区哈拉道口镇波罗和硕村山头自然村"}},{"type":"Feature","geometry":{"type":"Point","coordinates":[119.470165,42.475296]},"properties":{"full_address":"内蒙古自治区赤峰市松山区太平地镇六分地村"}},{"type":"Feature","geometry":{"type":"Point","coordinates":[118.924246,42.273449]},"properties":{"full_address":"内蒙古自治区赤峰市松山区玉龙大街以北、契丹大街以南、松洲路以东、松城路以西整个片区除三个高风险区以外的区域"}},{"type":"Feature","geometry":{"type":"Point","coordinates":[118.929019,42.268288]},"properties":{"full_address":"内蒙古自治区赤峰市松山区松洲街道天王商务楼"}},{"type":"Feature","geometry":{"type":"Point","coordinates":[118.93418,42.28548]},"properties":{"full_address":"内蒙古自治区赤峰市松山区振兴街道永业广场"}},{"type":"Feature","geometry":{"type":"Point","coordinates":[119.343347,42.431247]},"properties":{"full_address":"内蒙古自治区赤峰市松山区安庆镇小北道村馨安小区"}},{"type":"Feature","geometry":{"type":"Point","coordinates":[119.653932,42.730888]},"properties":{"full_address":"内蒙古自治区赤峰市翁牛特旗乌敦套海镇红湖家园"}},{"type":"Feature","geometry":{"type":"Point","coordinates":[119.659349,42.732368]},"properties":{"full_address":"内蒙古自治区赤峰市翁牛特旗乌敦套海镇瑞海家园"}},{"type":"Feature","geometry":{"type":"Point","coordinates":[119.017597,42.935484]},"properties":{"full_address":"内蒙古自治区赤峰市翁牛特旗吉祥家园小区"}},{"type":"Feature","geometry":{"type":"Point","coordinates":[119.017597,42.935484]},"properties":{"full_address":"内蒙古自治区赤峰市翁牛特旗农业小区"}},{"type":"Feature","geometry":{"type":"Point","coordinates":[119.019687,42.940332]},"properties":{"full_address":"内蒙古自治区赤峰市翁牛特旗国税小区1号、2号、3号、4号楼"}},{"type":"Feature","geometry":{"type":"Point","coordinates":[119.016018,42.940028]},"properties":{"full_address":"内蒙古自治区赤峰市翁牛特旗车站小区"}},{"type":"Feature","geometry":{"type":"Point","coordinates":[119.00658,42.936188]},"properties":{"full_address":"内蒙古自治区赤峰市翁牛特旗开发办家属楼"}},{"type":"Feature","geometry":{"type":"Point","coordinates":[119.015848,42.941167]},"properties":{"full_address":"内蒙古自治区赤峰市翁牛特旗玉龙公馆"}},{"type":"Feature","geometry":{"type":"Point","coordinates":[119.016196,42.941418]},"properties":{"full_address":"内蒙古自治区赤峰市翁牛特旗邮电小区"}},{"type":"Feature","geometry":{"type":"Point","coordinates":[119.016016,42.941711]},"properties":{"full_address":"内蒙古自治区赤峰市翁牛特旗邮政小区"}},{"type":"Feature","geometry":{"type":"Point","coordinates":[119.015422,42.942174]},"properties":{"full_address":"内蒙古自治区赤峰市翁牛特旗金地人家5号楼"}},{"type":"Feature","geometry":{"type":"Point","coordinates":[119.015473,42.939576]},"properties":{"full_address":"内蒙古自治区赤峰市翁牛特旗玉龙家园"}},{"type":"Feature","geometry":{"type":"Point","coordinates":[119.025422,42.930424]},"properties":{"full_address":"内蒙古自治区赤峰市翁牛特旗乌丹第一幼儿园东侧平房区"}},{"type":"Feature","geometry":{"type":"Point","coordinates":[118.999735,42.939248]},"properties":{"full_address":"内蒙古自治区赤峰市翁牛特旗民政家园"}},{"type":"Feature","geometry":{"type":"Point","coordinates":[119.000123,42.937821]},"properties":{"full_address":"内蒙古自治区赤峰市翁牛特旗兴和家园小区"}},{"type":"Feature","geometry":{"type":"Point","coordinates":[118.998215,42.940216]},"properties":{"full_address":"内蒙古自治区赤峰市翁牛特旗天和盛景小区"}},{"type":"Feature","geometry":{"type":"Point","coordinates":[117.452477,49.590885]},"properties":{"full_address":"内蒙古自治区呼伦贝尔市满洲里市口岸双子座"}},{"type":"Feature","geometry":{"type":"Point","coordinates":[117.448082,49.583089]},"properties":{"full_address":"内蒙古自治区呼伦贝尔市满洲里市南区街道站前小区及周边商铺"}},{"type":"Feature","geometry":{"type":"Point","coordinates":[117.439032,49.600389]},"properties":{"full_address":"内蒙古自治区呼伦贝尔市满洲里市宏业小区"}},{"type":"Feature","geometry":{"type":"Point","coordinates":[111.98563,43.658064]},"properties":{"full_address":"内蒙古自治区锡林郭勒盟二连浩特市迎宾路东铁路职工活动中心所在区域"}},{"type":"Feature","geometry":{"type":"Point","coordinates":[111.977943,43.65317]},"properties":{"full_address":"内蒙古自治区锡林郭勒盟二连浩特市铁路办公楼"}},{"type":"Feature","geometry":{"type":"Point","coordinates":[116.063667,43.944167]},"properties":{"full_address":"内蒙古自治区锡林郭勒盟锡林浩特市大业金河湾B区"}},{"type":"Feature","geometry":{"type":"Point","coordinates":[116.065901,43.942026]},"properties":{"full_address":"内蒙古自治区锡林郭勒盟锡林浩特市大业金河湾D区"}},{"type":"Feature","geometry":{"type":"Point","coordinates":[116.061952,43.938945]},"properties":{"full_address":"内蒙古自治区锡林郭勒盟锡林浩特市南方小镇小区"}},{"type":"Feature","geometry":{"type":"Point","coordinates":[116.10715,43.964987]},"properties":{"full_address":"内蒙古自治区锡林郭勒盟锡林浩特市幸福社区小区"}},{"type":"Feature","geometry":{"type":"Point","coordinates":[116.096464,43.958625]},"properties":{"full_address":"内蒙古自治区锡林郭勒盟锡林浩特市长安丽景小区"}},{"type":"Feature","geometry":{"type":"Point","coordinates":[116.099189,43.949954]},"properties":{"full_address":"内蒙古自治区锡林郭勒盟锡林浩特市玉玺小区"}},{"type":"Feature","geometry":{"type":"Point","coordinates":[116.109495,43.961153]},"properties":{"full_address":"内蒙古自治区锡林郭勒盟锡林浩特市公园首府小区"}},{"type":"Feature","geometry":{"type":"Point","coordinates":[116.086017,43.927285]},"properties":{"full_address":"内蒙古自治区锡林郭勒盟锡林浩特市都市上苑小区"}},{"type":"Feature","geometry":{"type":"Point","coordinates":[116.107063,43.932285]},"properties":{"full_address":"内蒙古自治区锡林郭勒盟锡林浩特市万泰家园"}},{"type":"Feature","geometry":{"type":"Point","coordinates":[116.103649,43.934393]},"properties":{"full_address":"内蒙古自治区锡林郭勒盟锡林浩特市理想家园小区"}},{"type":"Feature","geometry":{"type":"Point","coordinates":[116.066722,43.918701]},"properties":{"full_address":"内蒙古自治区锡林郭勒盟锡林浩特市城上城小区"}},{"type":"Feature","geometry":{"type":"Point","coordinates":[116.044258,43.913998]},"properties":{"full_address":"内蒙古自治区锡林郭勒盟锡林浩特市方悦名都A区"}},{"type":"Feature","geometry":{"type":"Point","coordinates":[116.053522,43.920278]},"properties":{"full_address":"内蒙古自治区锡林郭勒盟锡林浩特市方悦名都D区"}},{"type":"Feature","geometry":{"type":"Point","coordinates":[116.063497,43.910066]},"properties":{"full_address":"内蒙古自治区锡林郭勒盟锡林浩特市鑫泰苑小区"}},{"type":"Feature","geometry":{"type":"Point","coordinates":[116.096672,43.952335]},"properties":{"full_address":"内蒙古自治区锡林郭勒盟锡林浩特市康盛嘉苑小区"}},{"type":"Feature","geometry":{"type":"Point","coordinates":[116.077806,43.923931]},"properties":{"full_address":"内蒙古自治区锡林郭勒盟锡林浩特市广达欣城小区"}},{"type":"Feature","geometry":{"type":"Point","coordinates":[116.112065,43.947463]},"properties":{"full_address":"内蒙古自治区锡林郭勒盟锡林浩特市额办小区"}},{"type":"Feature","geometry":{"type":"Point","coordinates":[116.086032,43.933411]},"properties":{"full_address":"内蒙古自治区锡林郭勒盟锡林浩特市康裕新苑小区"}},{"type":"Feature","geometry":{"type":"Point","coordinates":[116.065052,43.920037]},"properties":{"full_address":"内蒙古自治区锡林郭勒盟锡林浩特市富丽华庭小区"}},{"type":"Feature","geometry":{"type":"Point","coordinates":[116.064547,43.915543]},"properties":{"full_address":"内蒙古自治区锡林郭勒盟锡林浩特市溪林湾小区"}},{"type":"Feature","geometry":{"type":"Point","coordinates":[116.077469,43.952523]},"properties":{"full_address":"内蒙古自治区锡林郭勒盟锡林浩特市紫藤花园小区"}},{"type":"Feature","geometry":{"type":"Point","coordinates":[116.086032,43.933411]},"properties":{"full_address":"内蒙古自治区锡林郭勒盟锡林浩特市信合小区"}},{"type":"Feature","geometry":{"type":"Point","coordinates":[123.398357,41.805857]},"properties":{"full_address":"辽宁省沈阳市铁西区霁虹街道富云花都小区"}},{"type":"Feature","geometry":{"type":"Point","coordinates":[121.651876,38.898134]},"properties":{"full_address":"辽宁省大连市中山区葵英街道文明巷（39-42号）"}},{"type":"Feature","geometry":{"type":"Point","coordinates":[121.650735,38.886199]},"properties":{"full_address":"辽宁省大连市中山区桃源街道长利巷21号和根深巷8号"}},{"type":"Feature","geometry":{"type":"Point","coordinates":[121.642149,38.887025]},"properties":{"full_address":"辽宁省大连市西岗区八一路街道桃山社区三环街25号"}},{"type":"Feature","geometry":{"type":"Point","coordinates":[121.593,38.937661]},"properties":{"full_address":"辽宁省大连市西岗区香炉礁街道金海社区香水湾5号"}},{"type":"Feature","geometry":{"type":"Point","coordinates":[123.286507,40.225761]},"properties":{"full_address":"辽宁省鞍山市岫岩满族自治县雅河街道办事处于岭村"}},{"type":"Feature","geometry":{"type":"Point","coordinates":[123.284943,40.229902]},"properties":{"full_address":"辽宁省鞍山市岫岩满族自治县雅河街道办事处洪家堡村"}},{"type":"Feature","geometry":{"type":"Point","coordinates":[123.278177,40.286878]},"properties":{"full_address":"辽宁省鞍山市岫岩满族自治县阜昌街道办事处福润家园小区"}},{"type":"Feature","geometry":{"type":"Point","coordinates":[125.348634,43.839251]},"properties":{"full_address":"吉林省长春市南关区鸿城街道卫星花园17栋"}},{"type":"Feature","geometry":{"type":"Point","coordinates":[125.302081,43.793921]},"properties":{"full_address":"吉林省长春市南关区幸福乡吉森漫桦林二期9栋"}},{"type":"Feature","geometry":{"type":"Point","coordinates":[125.299789,43.944239]},"properties":{"full_address":"吉林省长春市宽城区柳影街道新月市场楼B2栋"}},{"type":"Feature","geometry":{"type":"Point","coordinates":[125.271197,43.855239]},"properties":{"full_address":"吉林省长春市朝阳区湖西街道领秀朝阳上院23栋"}},{"type":"Feature","geometry":{"type":"Point","coordinates":[125.487103,43.871647]},"properties":{"full_address":"吉林省长春市二道区长春市传染病医院B栋"}},{"type":"Feature","geometry":{"type":"Point","coordinates":[125.289797,43.888579]},"properties":{"full_address":"吉林省长春市绿园区普阳街道朝阳小区5区5栋"}},{"type":"Feature","geometry":{"type":"Point","coordinates":[125.303524,43.918224]},"properties":{"full_address":"吉林省长春市绿园区青年路街道风华新苑小区3号楼"}},{"type":"Feature","geometry":{"type":"Point","coordinates":[125.660809,43.532061]},"properties":{"full_address":"吉林省长春市双阳区云山街道城市嘉园二期（除66号楼以外区域）"}},{"type":"Feature","geometry":{"type":"Point","coordinates":[125.671886,43.528497]},"properties":{"full_address":"吉林省长春市双阳区云山街道石桥社区葡京市场"}},{"type":"Feature","geometry":{"type":"Point","coordinates":[125.208786,43.85444]},"properties":{"full_address":"吉林省长春市汽车经济技术开发区49街区19栋"}},{"type":"Feature","geometry":{"type":"Point","coordinates":[125.431355,43.888335]},"properties":{"full_address":"吉林省长春市经开区东方广场街道聚宝家园9栋"}},{"type":"Feature","geometry":{"type":"Point","coordinates":[126.70479,45.729418]},"properties":{"full_address":"黑龙江省哈尔滨市香坊区果园星城小区C区"}},{"type":"Feature","geometry":{"type":"Point","coordinates":[126.704861,45.72538]},"properties":{"full_address":"黑龙江省哈尔滨市香坊区延福街159号悦惠购超市"}},{"type":"Feature","geometry":{"type":"Point","coordinates":[127.328109,46.640634]},"properties":{"full_address":"黑龙江省哈尔滨市巴彦县天增镇庆胜村半步道屯"}},{"type":"Feature","geometry":{"type":"Point","coordinates":[123.205323,47.338665]},"properties":{"full_address":"黑龙江省齐齐哈尔市龙江县世纪九鼎小区4号楼、6—10号楼"}},{"type":"Feature","geometry":{"type":"Point","coordinates":[125.01132,46.584006]},"properties":{"full_address":"黑龙江省大庆市萨尔图区萨尔图街道萨环东路九龙达汽配城小区"}},{"type":"Feature","geometry":{"type":"Point","coordinates":[125.003171,46.577707]},"properties":{"full_address":"黑龙江省大庆市萨尔图区萨尔图街道萨环东路以南、勤奋南路以西、南一路以北、萨大北路以东建材市场、陶瓷大市场、石材市场所属区域"}},{"type":"Feature","geometry":{"type":"Point","coordinates":[125.106441,46.596359]},"properties":{"full_address":"黑龙江省大庆市萨尔图区东风街道东风新村新星小区A组团（不含一区1-14号楼）"}},{"type":"Feature","geometry":{"type":"Point","coordinates":[125.161004,46.617912]},"properties":{"full_address":"黑龙江省大庆市萨尔图区（高新区）黎明街道博学大街滨州华府小区（除22号楼裙房4号商服外）"}},{"type":"Feature","geometry":{"type":"Point","coordinates":[125.130808,46.610154]},"properties":{"full_address":"黑龙江省大庆市萨尔图区（高新区）黎明街道学伟大街沿湖城翠江湾A座"}},{"type":"Feature","geometry":{"type":"Point","coordinates":[125.123955,46.580441]},"properties":{"full_address":"黑龙江省大庆市萨尔图区（高新区）黎明街道纬二路水木华庭小区（除1号楼、2号楼、10号楼外）"}},{"type":"Feature","geometry":{"type":"Point","coordinates":[125.123578,46.592079]},"properties":{"full_address":"黑龙江省大庆市萨尔图区东安街道东安新村三区东安小区（不含3-38号楼）"}},{"type":"Feature","geometry":{"type":"Point","coordinates":[125.121001,46.618135]},"properties":{"full_address":"黑龙江省大庆市萨尔图区格林街道唐宁杰座小区09号楼"}},{"type":"Feature","geometry":{"type":"Point","coordinates":[125.128242,46.626964]},"properties":{"full_address":"黑龙江省大庆市萨尔图区格林街道兰德华府小区5号楼"}},{"type":"Feature","geometry":{"type":"Point","coordinates":[125.126266,46.577579]},"properties":{"full_address":"黑龙江省大庆市萨尔图区（高新区）黎明街道东风路维也纳音乐花园南郡（不含A03号楼）"}},{"type":"Feature","geometry":{"type":"Point","coordinates":[125.16186,46.594789]},"properties":{"full_address":"黑龙江省大庆市萨尔图区（高新区）黎明街道博学大街新城御景B区（不含B01号楼、B13号楼）"}},{"type":"Feature","geometry":{"type":"Point","coordinates":[125.041354,46.602054]},"properties":{"full_address":"黑龙江省大庆市萨尔图区友谊街道团结大街西侧平房区（大庆利安汽车修理厂对面）"}},{"type":"Feature","geometry":{"type":"Point","coordinates":[125.14616,46.568744]},"properties":{"full_address":"黑龙江省大庆市萨尔图区（高新区）黎明街道创业新街宝利丰大厦"}},{"type":"Feature","geometry":{"type":"Point","coordinates":[125.141947,46.557775]},"properties":{"full_address":"黑龙江省大庆市萨尔图区（高新区）黎明街道阳光大街花蔓溪谷小区24号楼"}},{"type":"Feature","geometry":{"type":"Point","coordinates":[125.111416,46.606798]},"properties":{"full_address":"黑龙江省大庆市萨尔图区绿园街道北辰一区1-44号楼"}},{"type":"Feature","geometry":{"type":"Point","coordinates":[125.10019,46.602059]},"properties":{"full_address":"黑龙江省大庆市萨尔图区东风街道东风新村新星小区E组团内高风险区域以外其他区域"}},{"type":"Feature","geometry":{"type":"Point","coordinates":[125.115627,46.601515]},"properties":{"full_address":"黑龙江省大庆市萨尔图区东风街道东风新村新源小区B组团内高风险区域以外其他区域"}},{"type":"Feature","geometry":{"type":"Point","coordinates":[125.161362,46.589081]},"properties":{"full_address":"黑龙江省大庆市萨尔图区（高新区）黎明街道博学大街联想科技城小区（不含B7号楼、C5号楼及周边商服、B2号楼、B3号楼、C2号楼及周边商服）"}},{"type":"Feature","geometry":{"type":"Point","coordinates":[125.121514,46.586437]},"properties":{"full_address":"黑龙江省大庆市萨尔图区东风街道东风社区卫生服务中心"}},{"type":"Feature","geometry":{"type":"Point","coordinates":[125.120165,46.605059]},"properties":{"full_address":"黑龙江省大庆市萨尔图区东安街道安惠小区E组团5-20号楼"}},{"type":"Feature","geometry":{"type":"Point","coordinates":[125.09476,46.594248]},"properties":{"full_address":"黑龙江省大庆市萨尔图区（高新区）黎明街道新阳路丽都佳苑3号楼、4号楼"}},{"type":"Feature","geometry":{"type":"Point","coordinates":[125.027769,46.601347]},"properties":{"full_address":"黑龙江省大庆市萨尔图区会战街道利民苑小区（不含9号楼）"}},{"type":"Feature","geometry":{"type":"Point","coordinates":[124.916647,46.634319]},"properties":{"full_address":"黑龙江省大庆市萨尔图区（高新区）黎明街道新发街兴荣工业园厂房周边围栏以内区域（含厂房西侧办公楼）"}},{"type":"Feature","geometry":{"type":"Point","coordinates":[125.118259,46.616575]},"properties":{"full_address":"黑龙江省大庆市萨尔图区绿园街道百湖花园小区（不含A07号楼）"}},{"type":"Feature","geometry":{"type":"Point","coordinates":[125.097949,46.602135]},"properties":{"full_address":"黑龙江省大庆市萨尔图区绿园街道益民小区（不含11号楼）"}},{"type":"Feature","geometry":{"type":"Point","coordinates":[125.127304,46.594009]},"properties":{"full_address":"黑龙江省大庆市萨尔图区东安街道广源步行街B5商服"}},{"type":"Feature","geometry":{"type":"Point","coordinates":[125.126669,46.585546]},"properties":{"full_address":"黑龙江省大庆市萨尔图区（高新区）黎明街道建设路水岸家园（不含1号楼）"}},{"type":"Feature","geometry":{"type":"Point","coordinates":[125.173382,46.566905]},"properties":{"full_address":"黑龙江省大庆市萨尔图区（高新区）黎明街道阳光东街融公馆小区（不含18号楼）"}},{"type":"Feature","geometry":{"type":"Point","coordinates":[125.106512,46.598914]},"properties":{"full_address":"黑龙江省大庆市萨尔图区东风街道新源小区E组团（不含2-9号楼）"}},{"type":"Feature","geometry":{"type":"Point","coordinates":[125.101077,46.594705]},"properties":{"full_address":"黑龙江省大庆市萨尔图区东风街道文华小区（不含8-4号楼）"}},{"type":"Feature","geometry":{"type":"Point","coordinates":[125.132199,46.606753]},"properties":{"full_address":"黑龙江省大庆市萨尔图区（高新区）黎明街道学伟大街沿湖城御景湾（不含C座）"}},{"type":"Feature","geometry":{"type":"Point","coordinates":[125.190894,46.59244]},"properties":{"full_address":"黑龙江省大庆市萨尔图区（高新区）黎明街道新发街以东、新航路以南、禾丰路以北、翔安大街以西合围区域内高风险区域以外其他区域"}},{"type":"Feature","geometry":{"type":"Point","coordinates":[125.12131,46.62044]},"properties":{"full_address":"黑龙江省大庆市萨尔图区格林街道香逸名苑小区三期（除3号楼、8号楼外）"}},{"type":"Feature","geometry":{"type":"Point","coordinates":[125.106441,46.596359]},"properties":{"full_address":"黑龙江省大庆市萨尔图区东风街道东风新村新星小区A组团（除1-1号楼、1-3号楼外）"}},{"type":"Feature","geometry":{"type":"Point","coordinates":[125.128509,46.624688]},"properties":{"full_address":"黑龙江省大庆市萨尔图区东安街道东风新村安惠小区A组团（不含3-13号楼）"}},{"type":"Feature","geometry":{"type":"Point","coordinates":[125.14705,46.565503]},"properties":{"full_address":"黑龙江省大庆市萨尔图区（高新区）黎明街道安萨路玖玺首府小区（不含Y10号楼）"}},{"type":"Feature","geometry":{"type":"Point","coordinates":[125.145966,46.570153]},"properties":{"full_address":"黑龙江省大庆市萨尔图区（高新区）黎明街道新科路融创中央学府小区（不含10号楼）"}},{"type":"Feature","geometry":{"type":"Point","coordinates":[125.117805,46.58812]},"properties":{"full_address":"黑龙江省大庆市萨尔图区东安街道府明小区（新村七区）"}},{"type":"Feature","geometry":{"type":"Point","coordinates":[125.127805,46.620281]},"properties":{"full_address":"黑龙江省大庆市萨尔图区格林街道格林小镇小区二期内高风险区域以外其他区域"}},{"type":"Feature","geometry":{"type":"Point","coordinates":[125.136994,46.57791]},"properties":{"full_address":"黑龙江省大庆市萨尔图区（高新区）黎明街道富民街天贺小区内高风险区域以外其他区域"}},{"type":"Feature","geometry":{"type":"Point","coordinates":[125.122312,46.620644]},"properties":{"full_address":"黑龙江省大庆市萨尔图区格林街道香逸名苑小区一二期（除A3号楼、B3号楼、B5号楼外）"}},{"type":"Feature","geometry":{"type":"Point","coordinates":[125.099163,46.578353]},"properties":{"full_address":"黑龙江省大庆市萨尔图区万宝街道奥维馨苑小区含周边商服（不含201栋楼、213号楼、223号楼）"}},{"type":"Feature","geometry":{"type":"Point","coordinates":[125.144549,46.567611]},"properties":{"full_address":"黑龙江省大庆市萨尔图区大庆市萨尔图区（高新区）黎明街道兴顺路8号OYO圣豪泰宾馆"}},{"type":"Feature","geometry":{"type":"Point","coordinates":[125.162294,46.631382]},"properties":{"full_address":"黑龙江省大庆市萨尔图区大庆市萨尔图区（高新区）黎明街道生态大街爱莲堡花园小区"}},{"type":"Feature","geometry":{"type":"Point","coordinates":[125.124334,46.650245]},"properties":{"full_address":"黑龙江省大庆市萨尔图区大庆市萨尔图区火炬街道火炬小区2-1号楼"}},{"type":"Feature","geometry":{"type":"Point","coordinates":[124.921126,46.630098]},"properties":{"full_address":"黑龙江省大庆市萨尔图区大庆市萨尔图区铁人街道沁园春小区全域（含外围商服）"}},{"type":"Feature","geometry":{"type":"Point","coordinates":[125.13725,46.622347]},"properties":{"full_address":"黑龙江省大庆市萨尔图区大庆市萨尔图区格林街道时尚印象小区5号楼"}},{"type":"Feature","geometry":{"type":"Point","coordinates":[125.157224,46.594269]},"properties":{"full_address":"黑龙江省大庆市萨尔图区大庆市萨尔图区（高新区）黎明街道博学大街新城御景A10号楼"}},{"type":"Feature","geometry":{"type":"Point","coordinates":[125.145263,46.578241]},"properties":{"full_address":"黑龙江省大庆市萨尔图区大庆市萨尔图区（高新区）黎明街道火炬新街唯美康城11号楼"}},{"type":"Feature","geometry":{"type":"Point","coordinates":[125.138994,46.631881]},"properties":{"full_address":"黑龙江省大庆市萨尔图区大庆市萨尔图区（高新区）黎明街道学伟大街绿地国际城D08号楼"}},{"type":"Feature","geometry":{"type":"Point","coordinates":[125.150574,46.625882]},"properties":{"full_address":"黑龙江省大庆市萨尔图区大庆市萨尔图区（高新区）黎明街道滨湖路堤香花园E17号楼"}},{"type":"Feature","geometry":{"type":"Point","coordinates":[125.124497847379,46.60830230545043]},"properties":{"full_address":"黑龙江省大庆市萨尔图区绿园街道绿色家园小区（除S03号楼、S04号、S15号楼外）"}},{"type":"Feature","geometry":{"type":"Point","coordinates":[125.138713,46.581164]},"properties":{"full_address":"黑龙江省大庆市萨尔图区（高新区）黎明街道富民街九区9-1号楼到9-54号楼内高风险区域以外其他区域"}},{"type":"Feature","geometry":{"type":"Point","coordinates":[125.116234,46.586742]},"properties":{"full_address":"黑龙江省大庆市萨尔图区（高新区）黎明街道纬二路悦城馨苑小区（不含12号楼、15号楼）"}},{"type":"Feature","geometry":{"type":"Point","coordinates":[125.12946215483835,46.57610744420731]},"properties":{"full_address":"黑龙江省大庆市萨尔图区（高新区）黎明街道富民街九区9-55号楼到9-69号楼内高风险区域以外其他区域"}},{"type":"Feature","geometry":{"type":"Point","coordinates":[125.121194,46.614231]},"properties":{"full_address":"黑龙江省大庆市萨尔图区绿园街道兰德湖壹号小区（不含B12号楼、D13号楼)"}},{"type":"Feature","geometry":{"type":"Point","coordinates":[125.160421,46.61381]},"properties":{"full_address":"黑龙江省大庆市萨尔图区（高新区）黎明街道生态大街新城枫景小区（不含D01号楼）"}},{"type":"Feature","geometry":{"type":"Point","coordinates":[125.112562,46.602968]},"properties":{"full_address":"黑龙江省大庆市萨尔图区东风街道东风新村新源小区F组团南、西、北区内高风险区域以外其他区域（南、西、北区组成全域）"}},{"type":"Feature","geometry":{"type":"Point","coordinates":[125.13809814325195,46.573316801503886]},"properties":{"full_address":"黑龙江省大庆市萨尔图区（高新区）黎明街道纬二路绿地金融官邸小区内高风险区域以外其他区域"}},{"type":"Feature","geometry":{"type":"Point","coordinates":[125.128333,46.612917]},"properties":{"full_address":"黑龙江省大庆市萨尔图区绿园街道东方玫瑰园小区2号楼、19号楼、24号楼"}},{"type":"Feature","geometry":{"type":"Point","coordinates":[125.120716,46.589854]},"properties":{"full_address":"黑龙江省大庆市萨尔图区东安街道庆龙小区A1号楼、A05号楼、A06号楼、C04号楼、4-39号楼"}},{"type":"Feature","geometry":{"type":"Point","coordinates":[125.111517,46.601413]},"properties":{"full_address":"黑龙江省大庆市萨尔图区东风街道东风新村新源小区A组团（不含2-26号楼）"}},{"type":"Feature","geometry":{"type":"Point","coordinates":[125.122598,46.625058]},"properties":{"full_address":"黑龙江省大庆市萨尔图区格林街道唯美主邑小区（不含C13号楼）"}},{"type":"Feature","geometry":{"type":"Point","coordinates":[125.109146,46.571597]},"properties":{"full_address":"黑龙江省大庆市龙凤区三永街道瀚城景苑C01商业楼"}},{"type":"Feature","geometry":{"type":"Point","coordinates":[125.144701,46.555263]},"properties":{"full_address":"黑龙江省大庆市龙凤区龙政街道恒大御湖庄园2号楼"}},{"type":"Feature","geometry":{"type":"Point","coordinates":[125.109389,46.548944]},"properties":{"full_address":"黑龙江省大庆市龙凤区三永街道澳龙小区内高风险区域以外其他区域"}},{"type":"Feature","geometry":{"type":"Point","coordinates":[125.125504,46.514835]},"properties":{"full_address":"黑龙江省大庆市龙凤区龙凤街道湿地福苑小区内高风险区域以外其他区域"}},{"type":"Feature","geometry":{"type":"Point","coordinates":[125.162068,46.545157]},"properties":{"full_address":"黑龙江省大庆市龙凤区湿地街道欣凤学城二期"}},{"type":"Feature","geometry":{"type":"Point","coordinates":[125.136816,46.565092]},"properties":{"full_address":"黑龙江省大庆市龙凤区龙政街道唐人中心小区内除高风险区域以外其他区域"}},{"type":"Feature","geometry":{"type":"Point","coordinates":[125.146681,46.54654]},"properties":{"full_address":"黑龙江省大庆市龙凤区湿地街道汇宏悦澜湾小区内除高风险区域以外其他区域"}},{"type":"Feature","geometry":{"type":"Point","coordinates":[125.112105,46.530118]},"properties":{"full_address":"黑龙江省大庆市龙凤区龙凤街道厂前北小区内除高风险区域以外其他区域"}},{"type":"Feature","geometry":{"type":"Point","coordinates":[125.143283,46.5507]},"properties":{"full_address":"黑龙江省大庆市龙凤区龙政街道东城领秀D区内高风险区域以外其他区域"}},{"type":"Feature","geometry":{"type":"Point","coordinates":[125.064681,46.56098]},"properties":{"full_address":"黑龙江省大庆市龙凤区东光街道东光小区内高风险区域以外其他区域"}},{"type":"Feature","geometry":{"type":"Point","coordinates":[125.162068,46.545157]},"properties":{"full_address":"黑龙江省大庆市龙凤区湿地街道欣凤学城A区内高风险区域以外其他区域"}},{"type":"Feature","geometry":{"type":"Point","coordinates":[125.186564,46.433222]},"properties":{"full_address":"黑龙江省大庆市龙凤区龙凤镇建兴村于江屯全域"}},{"type":"Feature","geometry":{"type":"Point","coordinates":[125.113822,46.530627]},"properties":{"full_address":"黑龙江省大庆市龙凤区龙凤街道厂前小区86号楼"}},{"type":"Feature","geometry":{"type":"Point","coordinates":[125.15375,46.537921]},"properties":{"full_address":"黑龙江省大庆市龙凤区湿地街道聚福园小区内高风险区域以外其他区域"}},{"type":"Feature","geometry":{"type":"Point","coordinates":[125.124128,46.509297]},"properties":{"full_address":"黑龙江省大庆市龙凤区龙凤镇建兴村陈俭屯、王大愣屯、新立屯全域"}},{"type":"Feature","geometry":{"type":"Point","coordinates":[125.146359,46.528718]},"properties":{"full_address":"黑龙江省大庆市龙凤区龙凤镇铁东村1屯、2屯全域"}},{"type":"Feature","geometry":{"type":"Point","coordinates":[125.141949,46.559289]},"properties":{"full_address":"黑龙江省大庆市龙凤区龙政街道华溪龙城一期小区内除高风险区域以外其他区域"}},{"type":"Feature","geometry":{"type":"Point","coordinates":[125.139273,46.55541]},"properties":{"full_address":"黑龙江省大庆市龙凤区龙政街道东城领秀华彩园内除高风险区域以外其他区域"}},{"type":"Feature","geometry":{"type":"Point","coordinates":[125.118714,46.575097]},"properties":{"full_address":"黑龙江省大庆市龙凤区三永街道瀚城名苑内除高风险区域以外其他区域"}},{"type":"Feature","geometry":{"type":"Point","coordinates":[125.144701,46.555263]},"properties":{"full_address":"黑龙江省大庆市龙凤区龙政街道滨海花园小区内除高风险区域以外其他区域"}},{"type":"Feature","geometry":{"type":"Point","coordinates":[125.136597,46.557522]},"properties":{"full_address":"黑龙江省大庆市龙凤区龙政街道东城领秀A区内除高风险区域以外其他区域"}},{"type":"Feature","geometry":{"type":"Point","coordinates":[125.121023,46.54538]},"properties":{"full_address":"黑龙江省大庆市龙凤区三永街道瑞安花园小区内除高风险区域以外其他区域"}},{"type":"Feature","geometry":{"type":"Point","coordinates":[125.109389,46.548944]},"properties":{"full_address":"黑龙江省大庆市龙凤区三永街道澳龙小区一家美超市两侧、前方硬封闭管理区域居民楼"}},{"type":"Feature","geometry":{"type":"Point","coordinates":[125.152298,46.552874]},"properties":{"full_address":"黑龙江省大庆市龙凤区龙政街道云水清园小区内除高风险区域以外其他区域"}},{"type":"Feature","geometry":{"type":"Point","coordinates":[125.111948,46.529326]},"properties":{"full_address":"黑龙江省大庆市龙凤区龙凤街道厂前16栋小区内除高风险区域以外其他区域"}},{"type":"Feature","geometry":{"type":"Point","coordinates":[125.087484,46.511266]},"properties":{"full_address":"黑龙江省大庆市龙凤区龙凤街道厂西30号楼小区内除高风险区域以外其他区域"}},{"type":"Feature","geometry":{"type":"Point","coordinates":[125.131112,46.586689]},"properties":{"full_address":"黑龙江省大庆市龙凤区三永街道瀚城景苑小区内除高风险区域以外其他区域"}},{"type":"Feature","geometry":{"type":"Point","coordinates":[125.117977,46.534987]},"properties":{"full_address":"黑龙江省大庆市龙凤区卧里屯街道铁路小区内除高风险区域以外其他区域"}},{"type":"Feature","geometry":{"type":"Point","coordinates":[125.162663,46.547458]},"properties":{"full_address":"黑龙江省大庆市龙凤区湿地街道欣凤学城A14号楼"}},{"type":"Feature","geometry":{"type":"Point","coordinates":[125.121671,46.532166]},"properties":{"full_address":"黑龙江省大庆市龙凤区龙凤街道龙祥小区内除高风险区域以外其他区域"}},{"type":"Feature","geometry":{"type":"Point","coordinates":[125.138014,46.5607]},"properties":{"full_address":"黑龙江省大庆市龙凤区龙凤街道华溪龙城二期小区内除高风险区域以外其他区域"}},{"type":"Feature","geometry":{"type":"Point","coordinates":[125.108027,46.535235]},"properties":{"full_address":"黑龙江省大庆市龙凤区大庆市龙凤区龙凤街道凤阳三区内除高风险区域以外其他区域"}},{"type":"Feature","geometry":{"type":"Point","coordinates":[125.115138,46.548694]},"properties":{"full_address":"黑龙江省大庆市龙凤区大庆市龙凤区三永街道御湖湾小区内除高风险区域以外其他区域"}},{"type":"Feature","geometry":{"type":"Point","coordinates":[125.053258,46.498325]},"properties":{"full_address":"黑龙江省大庆市龙凤区大庆市龙凤区农批城全域"}},{"type":"Feature","geometry":{"type":"Point","coordinates":[125.157377,46.537217]},"properties":{"full_address":"黑龙江省大庆市龙凤区大庆市龙凤区湿地街道英伦三岛E19号楼"}},{"type":"Feature","geometry":{"type":"Point","coordinates":[125.09723,46.542562]},"properties":{"full_address":"黑龙江省大庆市龙凤区大庆市龙凤区龙凤街道凤阳一区内除高风险区域以外其他区域"}},{"type":"Feature","geometry":{"type":"Point","coordinates":[125.122163,46.526375]},"properties":{"full_address":"黑龙江省大庆市龙凤区大庆市龙凤区龙凤街道建成小区内除高风险区域以外其他区域"}},{"type":"Feature","geometry":{"type":"Point","coordinates":[125.116883,46.528776]},"properties":{"full_address":"黑龙江省大庆市龙凤区龙凤街道千祥雅苑小区内除高风险区域以外其他区域"}},{"type":"Feature","geometry":{"type":"Point","coordinates":[125.099632,46.576812]},"properties":{"full_address":"黑龙江省大庆市龙凤区三永街道昌升地区（万峰路以北，热源街以东，龙泽路以南，凤顺街以西包围范围）"}},{"type":"Feature","geometry":{"type":"Point","coordinates":[125.117209,46.514509]},"properties":{"full_address":"黑龙江省大庆市龙凤区龙凤镇保田村全域"}},{"type":"Feature","geometry":{"type":"Point","coordinates":[125.098022,46.517185]},"properties":{"full_address":"黑龙江省大庆市龙凤区东光街道凯旋城小区全域"}},{"type":"Feature","geometry":{"type":"Point","coordinates":[125.116459,46.532626]},"properties":{"full_address":"黑龙江省大庆市龙凤区龙凤街道街园小区全域"}},{"type":"Feature","geometry":{"type":"Point","coordinates":[125.119564,46.520398]},"properties":{"full_address":"黑龙江省大庆市龙凤区龙凤街道24栋小区全域"}},{"type":"Feature","geometry":{"type":"Point","coordinates":[125.120086,46.517854]},"properties":{"full_address":"黑龙江省大庆市龙凤区龙凤街道阳光俊园小区全域"}},{"type":"Feature","geometry":{"type":"Point","coordinates":[125.124989,46.52345]},"properties":{"full_address":"黑龙江省大庆市龙凤区龙凤街道龙华佳苑小区全域"}},{"type":"Feature","geometry":{"type":"Point","coordinates":[125.095657,46.517587]},"properties":{"full_address":"黑龙江省大庆市龙凤区东光街道炼建小区全域"}},{"type":"Feature","geometry":{"type":"Point","coordinates":[125.125311,46.525824]},"properties":{"full_address":"黑龙江省大庆市龙凤区龙凤街道龙滨苑小区全域"}},{"type":"Feature","geometry":{"type":"Point","coordinates":[125.13192,46.551731]},"properties":{"full_address":"黑龙江省大庆市龙凤区龙政街道东城领秀C区小区全域"}},{"type":"Feature","geometry":{"type":"Point","coordinates":[125.142019,46.557057]},"properties":{"full_address":"黑龙江省大庆市龙凤区龙政街道华溪龙城三期小区全域"}},{"type":"Feature","geometry":{"type":"Point","coordinates":[125.122681,46.543306]},"properties":{"full_address":"黑龙江省大庆市龙凤区龙政街道经纬小区全域"}},{"type":"Feature","geometry":{"type":"Point","coordinates":[125.147373,46.573558]},"properties":{"full_address":"黑龙江省大庆市龙凤区兴化街道乙烯五区小区全域"}},{"type":"Feature","geometry":{"type":"Point","coordinates":[125.147373,46.573558]},"properties":{"full_address":"黑龙江省大庆市龙凤区兴化街道乙烯九区小区全域"}},{"type":"Feature","geometry":{"type":"Point","coordinates":[125.212365,46.472128]},"properties":{"full_address":"黑龙江省大庆市龙凤区卧里屯街道筑安二委小区全域"}},{"type":"Feature","geometry":{"type":"Point","coordinates":[125.119822,46.529999]},"properties":{"full_address":"黑龙江省大庆市龙凤区卧里屯街道陆达商住楼小区全域"}},{"type":"Feature","geometry":{"type":"Point","coordinates":[125.124989,46.52345]},"properties":{"full_address":"黑龙江省大庆市龙凤区龙凤镇永泉佳苑小区全域"}},{"type":"Feature","geometry":{"type":"Point","coordinates":[125.233883,46.462011]},"properties":{"full_address":"黑龙江省大庆市龙凤区龙凤镇英勇村全域"}},{"type":"Feature","geometry":{"type":"Point","coordinates":[124.892934,46.621343]},"properties":{"full_address":"黑龙江省大庆市龙凤区东光街道怡园小区全域"}},{"type":"Feature","geometry":{"type":"Point","coordinates":[125.114822,46.531264]},"properties":{"full_address":"黑龙江省大庆市龙凤区龙凤镇湖韵新村小区全域"}},{"type":"Feature","geometry":{"type":"Point","coordinates":[125.086931,46.547934]},"properties":{"full_address":"黑龙江省大庆市龙凤区东光街道冠庆小区全域"}},{"type":"Feature","geometry":{"type":"Point","coordinates":[125.092566,46.541332]},"properties":{"full_address":"黑龙江省大庆市龙凤区东光街道龙北小区全域"}},{"type":"Feature","geometry":{"type":"Point","coordinates":[125.115713,46.536134]},"properties":{"full_address":"黑龙江省大庆市龙凤区龙凤街道凤祥小区全域"}},{"type":"Feature","geometry":{"type":"Point","coordinates":[125.041044,46.513427]},"properties":{"full_address":"黑龙江省大庆市龙凤区光明园区内除高风险区域以外其他区域"}},{"type":"Feature","geometry":{"type":"Point","coordinates":[124.877997,46.61625]},"properties":{"full_address":"黑龙江省大庆市让胡路区远望二社区内高风险区域以外其他区域"}},{"type":"Feature","geometry":{"type":"Point","coordinates":[124.841585,46.582147]},"properties":{"full_address":"黑龙江省大庆市让胡路区喇嘛甸镇宏伟村内高风险区域以外其他区域"}},{"type":"Feature","geometry":{"type":"Point","coordinates":[124.905906,46.605793]},"properties":{"full_address":"黑龙江省大庆市让胡路区未来城小区内高风险区域以外其他区域"}},{"type":"Feature","geometry":{"type":"Point","coordinates":[124.869397,46.653258]},"properties":{"full_address":"黑龙江省大庆市让胡路区奋斗七区内高风险区域以外其他区域"}},{"type":"Feature","geometry":{"type":"Point","coordinates":[124.917394,46.739235]},"properties":{"full_address":"黑龙江省大庆市让胡路区采油六厂欣欣小区内高风险区域以外其他区域"}},{"type":"Feature","geometry":{"type":"Point","coordinates":[124.894798,46.571456]},"properties":{"full_address":"黑龙江省大庆市让胡路区东湖小区十区内高风险区域以外其他区域"}},{"type":"Feature","geometry":{"type":"Point","coordinates":[124.853703,46.621259]},"properties":{"full_address":"黑龙江省大庆市让胡路区富强新城J区3号楼旁平房"}},{"type":"Feature","geometry":{"type":"Point","coordinates":[124.888462,46.619109]},"properties":{"full_address":"黑龙江省大庆市让胡路区怡园小区3-6号楼"}},{"type":"Feature","geometry":{"type":"Point","coordinates":[124.890848,46.57215]},"properties":{"full_address":"黑龙江省大庆市让胡路区东湖祥诚商贸中心区域内高风险区域以外其他区域"}},{"type":"Feature","geometry":{"type":"Point","coordinates":[124.886765,46.604092]},"properties":{"full_address":"黑龙江省大庆市让胡路区湘江路、沅江路、远望大街合围区内高风险区域以外其他区域"}},{"type":"Feature","geometry":{"type":"Point","coordinates":[124.878169,46.66393]},"properties":{"full_address":"黑龙江省大庆市让胡路区北湖馨苑小区区域内高风险区域以外其他区域"}},{"type":"Feature","geometry":{"type":"Point","coordinates":[124.90367,46.564335]},"properties":{"full_address":"黑龙江省大庆市让胡路区大庆市让胡路区东湖九区904号楼"}},{"type":"Feature","geometry":{"type":"Point","coordinates":[124.8931481610893,46.60991698378186]},"properties":{"full_address":"黑龙江省大庆市让胡路区大庆市让胡路区龙南综合批发市场CA3栋"}},{"type":"Feature","geometry":{"type":"Point","coordinates":[124.888054,46.595745]},"properties":{"full_address":"黑龙江省大庆市让胡路区大庆市让胡路区世纪花园B-6栋"}},{"type":"Feature","geometry":{"type":"Point","coordinates":[124.875773,46.634693]},"properties":{"full_address":"黑龙江省大庆市让胡路区大庆市让胡路区阳光佳苑A10栋"}},{"type":"Feature","geometry":{"type":"Point","coordinates":[124.888458,46.613679]},"properties":{"full_address":"黑龙江省大庆市让胡路区大庆市让胡路区乐园小区11号楼"}},{"type":"Feature","geometry":{"type":"Point","coordinates":[124.87177226073166,46.61271802251582]},"properties":{"full_address":"黑龙江省大庆市让胡路区大庆市让胡路区明湖苑小区8号楼"}},{"type":"Feature","geometry":{"type":"Point","coordinates":[124.856544,46.639275]},"properties":{"full_address":"黑龙江省大庆市让胡路区大庆市让胡路区学府郦城小区A区11号楼"}},{"type":"Feature","geometry":{"type":"Point","coordinates":[124.902502,46.607168]},"properties":{"full_address":"黑龙江省大庆市让胡路区大庆市让胡路区北方汽配城20栋"}},{"type":"Feature","geometry":{"type":"Point","coordinates":[124.89480569332314,46.57146456703927]},"properties":{"full_address":"黑龙江省大庆市让胡路区大庆市让胡路区东湖街道东湖小区11区内除高风险区域以外其他区域"}},{"type":"Feature","geometry":{"type":"Point","coordinates":[124.894798,46.571456]},"properties":{"full_address":"黑龙江省大庆市让胡路区大庆市让胡路区东湖街道东湖小区8区内除高风险区域以外其他区域"}},{"type":"Feature","geometry":{"type":"Point","coordinates":[124.891245,46.603198]},"properties":{"full_address":"黑龙江省大庆市让胡路区大庆市让胡路西宾街道银亿阳光城A区内除高风险区域以外其他区域"}},{"type":"Feature","geometry":{"type":"Point","coordinates":[127.495305,50.248657]},"properties":{"full_address":"黑龙江省黑河市爱辉区兴安街道金融社区迎恩路47号"}},{"type":"Feature","geometry":{"type":"Point","coordinates":[127.495517,50.248743]},"properties":{"full_address":"黑龙江省黑河市爱辉区兴林街110号"}},{"type":"Feature","geometry":{"type":"Point","coordinates":[127.507164,50.245325]},"properties":{"full_address":"黑龙江省黑河市爱辉区黑河市第六小学校园（不含教学楼）"}},{"type":"Feature","geometry":{"type":"Point","coordinates":[127.507164,50.245325]},"properties":{"full_address":"黑龙江省黑河市爱辉区黑河市第六小学校园正门两侧公园路上门市（共14家）及北侧巷道内门市（共1家）"}},{"type":"Feature","geometry":{"type":"Point","coordinates":[127.516792,50.235275]},"properties":{"full_address":"黑龙江省黑河市爱辉区警苑小区2号楼附属门市、警苑小区1号楼、警苑小区1号楼附属门市"}},{"type":"Feature","geometry":{"type":"Point","coordinates":[127.524507,50.235899]},"properties":{"full_address":"黑龙江省黑河市爱辉区花园街道博文社区亮城家园小区除七号楼以外楼宇(含小区邻街门市)"}},{"type":"Feature","geometry":{"type":"Point","coordinates":[127.519015,50.229901]},"properties":{"full_address":"黑龙江省黑河市爱辉区花园街道喇嘛台社区信誉花园小区三期(不含16号楼)及邻街门市"}},{"type":"Feature","geometry":{"type":"Point","coordinates":[127.514624,50.244979]},"properties":{"full_address":"黑龙江省黑河市爱辉区花园街道金兰社区友谊嘉苑高层(不含3单元)及附属门市"}},{"type":"Feature","geometry":{"type":"Point","coordinates":[127.515289,50.245983]},"properties":{"full_address":"黑龙江省黑河市爱辉区花园街道金兰社区友谊嘉苑9号楼及附属门市"}},{"type":"Feature","geometry":{"type":"Point","coordinates":[127.515434,50.245218]},"properties":{"full_address":"黑龙江省黑河市爱辉区花园街道金兰社区友谊嘉苑6号楼B座"}},{"type":"Feature","geometry":{"type":"Point","coordinates":[126.507392,48.240573]},"properties":{"full_address":"黑龙江省黑河市爱辉区花园街道武庙屯社区水务移动小区水务1号楼及附属门市"}},{"type":"Feature","geometry":{"type":"Point","coordinates":[126.507392,48.240573]},"properties":{"full_address":"黑龙江省黑河市爱辉区花园街道武庙屯社区水务移动小区移动楼及附属门市"}},{"type":"Feature","geometry":{"type":"Point","coordinates":[125.334075,46.413871]},"properties":{"full_address":"黑龙江省绥化市安达市蓝天综贸大市场"}},{"type":"Feature","geometry":{"type":"Point","coordinates":[125.327339,46.414367]},"properties":{"full_address":"黑龙江省绥化市安达市格林嘉园小区"}},{"type":"Feature","geometry":{"type":"Point","coordinates":[125.337607,46.413643]},"properties":{"full_address":"黑龙江省绥化市安达市利达综合楼"}},{"type":"Feature","geometry":{"type":"Point","coordinates":[125.336662,46.414936]},"properties":{"full_address":"黑龙江省绥化市安达市牛都名苑小区（不含8号楼4单元）"}},{"type":"Feature","geometry":{"type":"Point","coordinates":[125.316246,46.422854]},"properties":{"full_address":"黑龙江省绥化市安达市滨东华府小区B区（不含5号楼10号商服陈家放心肉店）"}},{"type":"Feature","geometry":{"type":"Point","coordinates":[125.349532,46.417722]},"properties":{"full_address":"黑龙江省绥化市安达市生态小镇小区（不含6号楼1单元）"}},{"type":"Feature","geometry":{"type":"Point","coordinates":[125.346742,46.414893]},"properties":{"full_address":"黑龙江省绥化市安达市福和城小区（不含20号楼5单元）"}},{"type":"Feature","geometry":{"type":"Point","coordinates":[125.35712,46.398808]},"properties":{"full_address":"黑龙江省绥化市安达市安达镇繁荣村"}},{"type":"Feature","geometry":{"type":"Point","coordinates":[125.329339,46.412945]},"properties":{"full_address":"黑龙江省绥化市安达市现代华庭一期2号楼"}},{"type":"Feature","geometry":{"type":"Point","coordinates":[125.340766,46.417873]},"properties":{"full_address":"黑龙江省绥化市安达市升平小区"}},{"type":"Feature","geometry":{"type":"Point","coordinates":[125.329918,46.403849]},"properties":{"full_address":"黑龙江省绥化市安达市卧里屯镇瑞德家园小区"}},{"type":"Feature","geometry":{"type":"Point","coordinates":[125.530515,46.148913]},"properties":{"full_address":"黑龙江省绥化市肇东市安民乡八撮村"}},{"type":"Feature","geometry":{"type":"Point","coordinates":[125.53407,46.110048]},"properties":{"full_address":"黑龙江省绥化市肇东市安民乡中通快递点和韵达快递点"}},{"type":"Feature","geometry":{"type":"Point","coordinates":[125.674361,46.064486]},"properties":{"full_address":"黑龙江省绥化市肇东市向阳乡曙光村三队"}},{"type":"Feature","geometry":{"type":"Point","coordinates":[126.116193,46.684788]},"properties":{"full_address":"黑龙江省绥化市肇东市昌五镇国涛家园小区1号楼1单元"}},{"type":"Feature","geometry":{"type":"Point","coordinates":[125.61027,46.012542]},"properties":{"full_address":"黑龙江省绥化市肇东市昌五镇马老六饭店"}},{"type":"Feature","geometry":{"type":"Point","coordinates":[125.99484,46.063321]},"properties":{"full_address":"黑龙江省绥化市肇东市巴黎花园小区7号楼1单元"}},{"type":"Feature","geometry":{"type":"Point","coordinates":[125.598235,46.010889]},"properties":{"full_address":"黑龙江省绥化市肇东市昌五镇四川麻辣烫"}},{"type":"Feature","geometry":{"type":"Point","coordinates":[125.602057,46.013059]},"properties":{"full_address":"黑龙江省绥化市肇东市昌五镇御龙湖小区2号楼2单元"}},{"type":"Feature","geometry":{"type":"Point","coordinates":[125.601192,46.011069]},"properties":{"full_address":"黑龙江省绥化市肇东市昌五镇大白楼一单元"}},{"type":"Feature","geometry":{"type":"Point","coordinates":[125.792589,45.986763]},"properties":{"full_address":"黑龙江省绥化市肇东市安民乡向阳村周德库屯"}},{"type":"Feature","geometry":{"type":"Point","coordinates":[125.593787,46.009953]},"properties":{"full_address":"黑龙江省绥化市肇东市昌五镇国涛家园2号楼2单元"}},{"type":"Feature","geometry":{"type":"Point","coordinates":[125.977615,46.066623]},"properties":{"full_address":"黑龙江省绥化市肇东市尚城壹品小区B6栋"}},{"type":"Feature","geometry":{"type":"Point","coordinates":[125.543996,45.94702]},"properties":{"full_address":"黑龙江省绥化市肇东市跃进乡隆晟源饭店"}},{"type":"Feature","geometry":{"type":"Point","coordinates":[125.49314,46.181989]},"properties":{"full_address":"黑龙江省绥化市肇东市安民乡卫生院北侧粉色平房"}},{"type":"Feature","geometry":{"type":"Point","coordinates":[125.988171,46.066848]},"properties":{"full_address":"黑龙江省绥化市肇东市正阳九道街北米村拌饭"}},{"type":"Feature","geometry":{"type":"Point","coordinates":[125.518261,46.008744]},"properties":{"full_address":"黑龙江省绥化市肇东市洪河乡平山村"}},{"type":"Feature","geometry":{"type":"Point","coordinates":[121.481317,31.232155]},"properties":{"full_address":"上海市上海市黄浦区南京东路街道以浙江中路、广东路、海口路为界的区域"}},{"type":"Feature","geometry":{"type":"Point","coordinates":[121.47757,31.231011]},"properties":{"full_address":"上海市上海市黄浦区南京东路街道西藏中路168号"}},{"type":"Feature","geometry":{"type":"Point","coordinates":[121.50567,31.217759]},"properties":{"full_address":"上海市上海市黄浦区小东门街道中山南路589号"}},{"type":"Feature","geometry":{"type":"Point","coordinates":[121.458184,31.259443]},"properties":{"full_address":"上海市上海市静安区芷江西路街道中山北路814弄"}},{"type":"Feature","geometry":{"type":"Point","coordinates":[121.441808,31.254962]},"properties":{"full_address":"上海市上海市普陀区宜川路街道远景路616号A座106室"}},{"type":"Feature","geometry":{"type":"Point","coordinates":[121.438949,31.258117]},"properties":{"full_address":"上海市上海市普陀区宜川路街道交通路1913弄1-10号、15-18号"}},{"type":"Feature","geometry":{"type":"Point","coordinates":[121.18663,31.050668]},"properties":{"full_address":"上海市上海市松江区广富林街道三新北路1755弄复地香堤苑"}},{"type":"Feature","geometry":{"type":"Point","coordinates":[121.19658,31.060142]},"properties":{"full_address":"上海市上海市松江区广富林街道广富林路3260弄富林门10号宰相府酒店"}},{"type":"Feature","geometry":{"type":"Point","coordinates":[121.156206,31.058364]},"properties":{"full_address":"上海市上海市松江区佘山镇辰花路5888号上海佘山世茂洲际酒店"}},{"type":"Feature","geometry":{"type":"Point","coordinates":[121.204479,31.095241]},"properties":{"full_address":"上海市上海市松江区佘山镇林荫新路1288号上海佘山茂御臻品之选酒店"}},{"type":"Feature","geometry":{"type":"Point","coordinates":[118.834036,32.111012]},"properties":{"full_address":"江苏省南京市栖霞区迈皋桥街道郑远元修脚房连锁加盟店（迈皋桥街道合作村92-60-112号）"}},{"type":"Feature","geometry":{"type":"Point","coordinates":[118.321314,33.943815]},"properties":{"full_address":"江苏省宿迁市宿豫区锦绣江南小区"}},{"type":"Feature","geometry":{"type":"Point","coordinates":[118.358637,33.939986]},"properties":{"full_address":"江苏省宿迁市宿豫区安泰佳园小区"}},{"type":"Feature","geometry":{"type":"Point","coordinates":[118.332052,33.947235]},"properties":{"full_address":"江苏省宿迁市宿豫区江山大道38号1A栋厂房"}},{"type":"Feature","geometry":{"type":"Point","coordinates":[118.374961,32.327394]},"properties":{"full_address":"安徽省滁州市琅琊区韩上电器有限公司"}},{"type":"Feature","geometry":{"type":"Point","coordinates":[118.305843,32.29453]},"properties":{"full_address":"安徽省滁州市琅琊区港铭新材料科技公司"}},{"type":"Feature","geometry":{"type":"Point","coordinates":[118.367652,32.31793]},"properties":{"full_address":"安徽省滁州市琅琊区中州国际广场一至三层商铺"}},{"type":"Feature","geometry":{"type":"Point","coordinates":[119.506873,26.08129]},"properties":{"full_address":"福建省福州市马尾区亭江镇笏山村全域"}},{"type":"Feature","geometry":{"type":"Point","coordinates":[119.536998,26.101634]},"properties":{"full_address":"福建省福州市马尾区亭江镇东岐村下桶新村8号"}},{"type":"Feature","geometry":{"type":"Point","coordinates":[117.060423,28.262222]},"properties":{"full_address":"江西省鹰潭市月湖区梅园街道晨宇云轩小区（除二栋）"}},{"type":"Feature","geometry":{"type":"Point","coordinates":[116.84081,28.248304]},"properties":{"full_address":"江西省鹰潭市余江区邓埠街道西坂村下坂组"}},{"type":"Feature","geometry":{"type":"Point","coordinates":[116.818394,28.223104]},"properties":{"full_address":"江西省鹰潭市余江区水稻原种场安山分场桂家村"}},{"type":"Feature","geometry":{"type":"Point","coordinates":[116.870489,28.20091]},"properties":{"full_address":"江西省鹰潭市余江区水稻原种场食品厂后小区"}},{"type":"Feature","geometry":{"type":"Point","coordinates":[116.828912,28.187984]},"properties":{"full_address":"江西省鹰潭市余江区邓埠街道磨仂洲5号院"}},{"type":"Feature","geometry":{"type":"Point","coordinates":[117.222391,28.284717]},"properties":{"full_address":"江西省鹰潭市贵溪市东门街道贵电社区阳光豪庭小区（5栋、6栋）"}},{"type":"Feature","geometry":{"type":"Point","coordinates":[117.223417,28.287229]},"properties":{"full_address":"江西省鹰潭市贵溪市东门街道贵电社区阳光花城（11栋、12栋）"}},{"type":"Feature","geometry":{"type":"Point","coordinates":[117.216554,28.284155]},"properties":{"full_address":"江西省鹰潭市贵溪市东门街道筲箕山社区筲箕山菜市场"}},{"type":"Feature","geometry":{"type":"Point","coordinates":[117.208502,28.291214]},"properties":{"full_address":"江西省鹰潭市贵溪市东门街道雄石社区北门下李村"}},{"type":"Feature","geometry":{"type":"Point","coordinates":[117.224703,28.282897]},"properties":{"full_address":"江西省鹰潭市贵溪市东门街道芗溪社区电厂东区（6栋、13栋、阳光花苑G栋2单元）"}},{"type":"Feature","geometry":{"type":"Point","coordinates":[117.053018,28.26411]},"properties":{"full_address":"江西省鹰潭市信江新区夏埠乡滨江社区恒大绿洲一期16栋"}},{"type":"Feature","geometry":{"type":"Point","coordinates":[117.053018,28.26411]},"properties":{"full_address":"江西省鹰潭市信江新区夏埠乡恒大绿洲学府里2栋"}},{"type":"Feature","geometry":{"type":"Point","coordinates":[117.053018,28.26411]},"properties":{"full_address":"江西省鹰潭市信江新区夏埠乡恒大绿洲二期（除26栋三单元、22栋一单元以外）"}},{"type":"Feature","geometry":{"type":"Point","coordinates":[115.172341,27.572826]},"properties":{"full_address":"江西省吉安市峡江县巴邱镇黄泥岗村"}},{"type":"Feature","geometry":{"type":"Point","coordinates":[115.062267,27.564389]},"properties":{"full_address":"江西省吉安市峡江县罗田镇神林村委岭里自然村"}},{"type":"Feature","geometry":{"type":"Point","coordinates":[115.304187,27.579358]},"properties":{"full_address":"江西省吉安市峡江县水边镇何君村委老六组住宅周边50米"}},{"type":"Feature","geometry":{"type":"Point","coordinates":[115.319317,27.589316]},"properties":{"full_address":"江西省吉安市峡江县水边镇幸福水库宿舍"}},{"type":"Feature","geometry":{"type":"Point","coordinates":[115.319042,27.578958]},"properties":{"full_address":"江西省吉安市峡江县水边镇大秀路40号"}},{"type":"Feature","geometry":{"type":"Point","coordinates":[115.327266,27.576073]},"properties":{"full_address":"江西省吉安市峡江县水边镇佩贝村委五江村"}},{"type":"Feature","geometry":{"type":"Point","coordinates":[115.33026,27.604067]},"properties":{"full_address":"江西省吉安市峡江县水边镇农机局宿舍"}},{"type":"Feature","geometry":{"type":"Point","coordinates":[115.30476,27.565322]},"properties":{"full_address":"江西省吉安市峡江县水边镇林改房B区1栋"}},{"type":"Feature","geometry":{"type":"Point","coordinates":[115.309243,27.576199]},"properties":{"full_address":"江西省吉安市峡江县水边镇玉宏壹号小区11栋"}},{"type":"Feature","geometry":{"type":"Point","coordinates":[115.323102,27.579599]},"properties":{"full_address":"江西省吉安市峡江县水边镇东信建材五金超市"}},{"type":"Feature","geometry":{"type":"Point","coordinates":[120.43084,36.30755]},"properties":{"full_address":"山东省青岛市城阳区城阳街道办事处御景尚都小区32号楼"}},{"type":"Feature","geometry":{"type":"Point","coordinates":[120.399866,36.305191]},"properties":{"full_address":"山东省青岛市城阳区城阳街道办事处银盛泰国际商务港"}},{"type":"Feature","geometry":{"type":"Point","coordinates":[120.87536,36.38353]},"properties":{"full_address":"山东省青岛市即墨区岘山路兰州拉面馆（绿城店）"}},{"type":"Feature","geometry":{"type":"Point","coordinates":[120.266216,36.390007]},"properties":{"full_address":"山东省青岛市即墨区大信镇润霖优选超市"}},{"type":"Feature","geometry":{"type":"Point","coordinates":[120.443014,36.417281]},"properties":{"full_address":"山东省青岛市即墨区楼子疃如海超市"}},{"type":"Feature","geometry":{"type":"Point","coordinates":[120.33128,36.615402]},"properties":{"full_address":"山东省青岛市即墨区段泊岚镇赵戈庄村"}},{"type":"Feature","geometry":{"type":"Point","coordinates":[120.40934,36.41162]},"properties":{"full_address":"山东省青岛市即墨区华山二路76号A-26小鱼尼莫亲子游泳俱乐部"}},{"type":"Feature","geometry":{"type":"Point","coordinates":[120.407411,36.375838]},"properties":{"full_address":"山东省青岛市即墨区岘山花城小区北门口刘广昌排骨鸡米饭"}},{"type":"Feature","geometry":{"type":"Point","coordinates":[120.408549,36.399672]},"properties":{"full_address":"山东省青岛市即墨区鹤山路即墨服装市场一层赵记肉夹馍馄饨馆"}},{"type":"Feature","geometry":{"type":"Point","coordinates":[120.436634,36.373391]},"properties":{"full_address":"山东省青岛市即墨区文化路63号塔元楼区烤肉拌饭"}},{"type":"Feature","geometry":{"type":"Point","coordinates":[120.388675,36.335851]},"properties":{"full_address":"山东省青岛市即墨区嵩山一路48-20号满江秋烤鱼餐厅"}},{"type":"Feature","geometry":{"type":"Point","coordinates":[120.158199,36.453034]},"properties":{"full_address":"山东省青岛市即墨区移风店镇中张院村"}},{"type":"Feature","geometry":{"type":"Point","coordinates":[120.410835,36.372501]},"properties":{"full_address":"山东省青岛市即墨区岘山花城北门菜鸟驿站"}},{"type":"Feature","geometry":{"type":"Point","coordinates":[120.448762,36.398394]},"properties":{"full_address":"山东省青岛市即墨区鹤山路444号海尚海谷子源母婴店"}},{"type":"Feature","geometry":{"type":"Point","coordinates":[120.442176,36.39598]},"properties":{"full_address":"山东省青岛市即墨区鹤山路599号圣帝亚广场佳乐家超市"}},{"type":"Feature","geometry":{"type":"Point","coordinates":[120.390248,36.331588]},"properties":{"full_address":"山东省青岛市即墨区天山一路信和居小区5号德庄火锅"}},{"type":"Feature","geometry":{"type":"Point","coordinates":[120.440518,36.404161]},"properties":{"full_address":"山东省青岛市即墨区店子山小区门口母鸡汤店"}},{"type":"Feature","geometry":{"type":"Point","coordinates":[120.426637,36.397978]},"properties":{"full_address":"山东省青岛市即墨区鹤山路939号新利群肯德基"}},{"type":"Feature","geometry":{"type":"Point","coordinates":[120.609824,36.390791]},"properties":{"full_address":"山东省青岛市即墨区鳌山卫街道办事处射箭口村"}},{"type":"Feature","geometry":{"type":"Point","coordinates":[120.474209,36.405551]},"properties":{"full_address":"山东省青岛市即墨区潮海街道办事处流浩河三路136号君卓篮球俱乐部"}},{"type":"Feature","geometry":{"type":"Point","coordinates":[120.423201,36.382023]},"properties":{"full_address":"山东省青岛市即墨区环秀街道办事处店子山三路268号高迪墨香郡科威国际不动产"}},{"type":"Feature","geometry":{"type":"Point","coordinates":[120.523791,36.451937]},"properties":{"full_address":"山东省青岛市即墨区龙泉街道办事处解放三路101号青岛宇远新材料有限公司"}},{"type":"Feature","geometry":{"type":"Point","coordinates":[120.691751,36.490123]},"properties":{"full_address":"山东省青岛市即墨区温泉街道办事处东杨戈庄村"}},{"type":"Feature","geometry":{"type":"Point","coordinates":[120.469652,36.393073]},"properties":{"full_address":"山东省青岛市即墨区通济街道西城社区"}},{"type":"Feature","geometry":{"type":"Point","coordinates":[120.469652,36.393073]},"properties":{"full_address":"山东省青岛市即墨区通济街道长辛社区"}},{"type":"Feature","geometry":{"type":"Point","coordinates":[120.478636,36.392747]},"properties":{"full_address":"山东省青岛市即墨区通济街道河西社区"}},{"type":"Feature","geometry":{"type":"Point","coordinates":[120.469652,36.393073]},"properties":{"full_address":"山东省青岛市即墨区通济街道马山社区"}},{"type":"Feature","geometry":{"type":"Point","coordinates":[120.469652,36.393073]},"properties":{"full_address":"山东省青岛市即墨区通济街道德馨社区"}},{"type":"Feature","geometry":{"type":"Point","coordinates":[120.469652,36.393073]},"properties":{"full_address":"山东省青岛市即墨区通济街道盛兴社区"}},{"type":"Feature","geometry":{"type":"Point","coordinates":[120.402279,36.40267]},"properties":{"full_address":"山东省青岛市即墨区通济街道八里庄社区"}},{"type":"Feature","geometry":{"type":"Point","coordinates":[120.469652,36.393073]},"properties":{"full_address":"山东省青岛市即墨区通济街道山东社区"}},{"type":"Feature","geometry":{"type":"Point","coordinates":[120.469652,36.393073]},"properties":{"full_address":"山东省青岛市即墨区通济街道阁里社区"}},{"type":"Feature","geometry":{"type":"Point","coordinates":[120.175931,36.465727]},"properties":{"full_address":"山东省青岛市即墨区通济街道龙湾头社区"}},{"type":"Feature","geometry":{"type":"Point","coordinates":[120.469652,36.393073]},"properties":{"full_address":"山东省青岛市即墨区通济街道城北社区"}},{"type":"Feature","geometry":{"type":"Point","coordinates":[120.402279,36.40267]},"properties":{"full_address":"山东省青岛市即墨区通济街道郭庄社区"}},{"type":"Feature","geometry":{"type":"Point","coordinates":[120.385158,36.337978]},"properties":{"full_address":"山东省青岛市即墨区通济新经济区福海村"}},{"type":"Feature","geometry":{"type":"Point","coordinates":[120.385158,36.337978]},"properties":{"full_address":"山东省青岛市即墨区通济新经济区开元村"}},{"type":"Feature","geometry":{"type":"Point","coordinates":[120.385158,36.337978]},"properties":{"full_address":"山东省青岛市即墨区通济新经济区华耀村"}},{"type":"Feature","geometry":{"type":"Point","coordinates":[120.385158,36.337978]},"properties":{"full_address":"山东省青岛市即墨区通济新经济区云溪村"}},{"type":"Feature","geometry":{"type":"Point","coordinates":[120.385158,36.337978]},"properties":{"full_address":"山东省青岛市即墨区通济新经济区里仁村"}},{"type":"Feature","geometry":{"type":"Point","coordinates":[120.478636,36.392747]},"properties":{"full_address":"山东省青岛市即墨区环秀街道墨河社区"}},{"type":"Feature","geometry":{"type":"Point","coordinates":[120.456645,36.369458]},"properties":{"full_address":"山东省青岛市即墨区环秀街道滨湖社区"}},{"type":"Feature","geometry":{"type":"Point","coordinates":[120.459812,36.379682]},"properties":{"full_address":"山东省青岛市即墨区环秀街道观澜社区"}},{"type":"Feature","geometry":{"type":"Point","coordinates":[120.652928,36.342885]},"properties":{"full_address":"山东省青岛市即墨区环秀街道新民社区"}},{"type":"Feature","geometry":{"type":"Point","coordinates":[120.469652,36.393073]},"properties":{"full_address":"山东省青岛市即墨区环秀街道华庭社区"}},{"type":"Feature","geometry":{"type":"Point","coordinates":[120.469652,36.393073]},"properties":{"full_address":"山东省青岛市即墨区环秀街道文化街社区"}},{"type":"Feature","geometry":{"type":"Point","coordinates":[120.469652,36.393073]},"properties":{"full_address":"山东省青岛市即墨区环秀街道健民街社区"}},{"type":"Feature","geometry":{"type":"Point","coordinates":[120.469652,36.393073]},"properties":{"full_address":"山东省青岛市即墨区环秀街道金茂社区"}},{"type":"Feature","geometry":{"type":"Point","coordinates":[120.452295,36.370654]},"properties":{"full_address":"山东省青岛市即墨区环秀街道官庄社区"}},{"type":"Feature","geometry":{"type":"Point","coordinates":[120.478636,36.392747]},"properties":{"full_address":"山东省青岛市即墨区环秀街道山前社区"}},{"type":"Feature","geometry":{"type":"Point","coordinates":[120.469652,36.393073]},"properties":{"full_address":"山东省青岛市即墨区环秀街道滨河社区"}},{"type":"Feature","geometry":{"type":"Point","coordinates":[120.469652,36.393073]},"properties":{"full_address":"山东省青岛市即墨区环秀街道兴家疃社区"}},{"type":"Feature","geometry":{"type":"Point","coordinates":[120.455,36.37274]},"properties":{"full_address":"山东省青岛市即墨区环秀街道顺河社区"}},{"type":"Feature","geometry":{"type":"Point","coordinates":[120.493819,36.333136]},"properties":{"full_address":"山东省青岛市即墨区环秀街道叫儿埠社区"}},{"type":"Feature","geometry":{"type":"Point","coordinates":[120.448362,36.452093]},"properties":{"full_address":"山东省青岛市即墨区北安街道宋化泉村"}},{"type":"Feature","geometry":{"type":"Point","coordinates":[120.453655,36.533721]},"properties":{"full_address":"山东省青岛市即墨区灵山街道西三泉村"}},{"type":"Feature","geometry":{"type":"Point","coordinates":[120.462538,36.393547]},"properties":{"full_address":"山东省青岛市即墨区潮海街道文富居小区B1南区"}},{"type":"Feature","geometry":{"type":"Point","coordinates":[120.447128,36.389639]},"properties":{"full_address":"山东省青岛市即墨区数字装备产业发展服务中心"}},{"type":"Feature","geometry":{"type":"Point","coordinates":[116.602168,35.398492]},"properties":{"full_address":"山东省济宁市任城区唐口街道锡龙大酒店"}},{"type":"Feature","geometry":{"type":"Point","coordinates":[116.505873,35.470004]},"properties":{"full_address":"山东省济宁市任城区南张街道前店村"}},{"type":"Feature","geometry":{"type":"Point","coordinates":[116.508341,35.46808]},"properties":{"full_address":"山东省济宁市任城区南张街道后店村"}},{"type":"Feature","geometry":{"type":"Point","coordinates":[116.542833,35.46056]},"properties":{"full_address":"山东省济宁市任城区南张街道仙庄村"}},{"type":"Feature","geometry":{"type":"Point","coordinates":[116.61616,35.394382]},"properties":{"full_address":"山东省济宁市任城区观音阁街道东南华城宏河美地"}},{"type":"Feature","geometry":{"type":"Point","coordinates":[116.501975,35.442186]},"properties":{"full_address":"山东省济宁市任城区南张街道潘家村"}},{"type":"Feature","geometry":{"type":"Point","coordinates":[116.481822,35.336618]},"properties":{"full_address":"山东省济宁市任城区唐口街道朱庙村"}},{"type":"Feature","geometry":{"type":"Point","coordinates":[116.462905,35.299092]},"properties":{"full_address":"山东省济宁市任城区唐口街道前王堂村"}},{"type":"Feature","geometry":{"type":"Point","coordinates":[116.559052,35.346372]},"properties":{"full_address":"山东省济宁市任城区安居街道孙井村"}},{"type":"Feature","geometry":{"type":"Point","coordinates":[116.592434,35.413132]},"properties":{"full_address":"山东省济宁市任城区阜桥街道办事处中区建委宿舍"}},{"type":"Feature","geometry":{"type":"Point","coordinates":[116.592758,35.395515]},"properties":{"full_address":"山东省济宁市任城区阜桥街道办事处土门子街2号楼"}},{"type":"Feature","geometry":{"type":"Point","coordinates":[116.595062,35.411911]},"properties":{"full_address":"山东省济宁市任城区阜桥街道办事处核桃园小区23号楼"}},{"type":"Feature","geometry":{"type":"Point","coordinates":[116.633169,35.446641]},"properties":{"full_address":"山东省济宁市任城区李营街道明苑小区"}},{"type":"Feature","geometry":{"type":"Point","coordinates":[116.500262,35.473724]},"properties":{"full_address":"山东省济宁市任城区南张街道办事处文郑村"}},{"type":"Feature","geometry":{"type":"Point","coordinates":[116.548568,35.43292]},"properties":{"full_address":"山东省济宁市任城区南张街道办事处刘前村"}},{"type":"Feature","geometry":{"type":"Point","coordinates":[116.581704,35.418729]},"properties":{"full_address":"山东省济宁市任城区古槐街道瑞和春天"}},{"type":"Feature","geometry":{"type":"Point","coordinates":[116.465374,35.287153]},"properties":{"full_address":"山东省济宁市任城区唐口街道韭菜姜村"}},{"type":"Feature","geometry":{"type":"Point","coordinates":[116.461139,35.322886]},"properties":{"full_address":"山东省济宁市任城区唐口街道姬庄村"}},{"type":"Feature","geometry":{"type":"Point","coordinates":[116.559895,35.313124]},"properties":{"full_address":"山东省济宁市任城区唐口街道刘街村"}},{"type":"Feature","geometry":{"type":"Point","coordinates":[116.49735,35.315313]},"properties":{"full_address":"山东省济宁市任城区唐口街道龙拱港"}},{"type":"Feature","geometry":{"type":"Point","coordinates":[116.599021,35.411428]},"properties":{"full_address":"山东省济宁市任城区阜桥街道古楷园小区"}},{"type":"Feature","geometry":{"type":"Point","coordinates":[116.55035,35.364475]},"properties":{"full_address":"山东省济宁市任城区安居街道古月新苑"}},{"type":"Feature","geometry":{"type":"Point","coordinates":[116.512146,35.412984]},"properties":{"full_address":"山东省济宁市任城区安居街道运河湾社区"}},{"type":"Feature","geometry":{"type":"Point","coordinates":[116.592091,35.418936]},"properties":{"full_address":"山东省济宁市任城区仙营街道秦庄农贸市场"}},{"type":"Feature","geometry":{"type":"Point","coordinates":[116.643514,35.427297]},"properties":{"full_address":"山东省济宁市任城区仙营街道海能花园"}},{"type":"Feature","geometry":{"type":"Point","coordinates":[116.587357,35.429714]},"properties":{"full_address":"山东省济宁市任城区仙营街道文化小区"}},{"type":"Feature","geometry":{"type":"Point","coordinates":[116.587979,35.401384]},"properties":{"full_address":"山东省济宁市任城区越河街道网通家园"}},{"type":"Feature","geometry":{"type":"Point","coordinates":[116.515141,35.443255]},"properties":{"full_address":"山东省济宁市任城区南张街道姜郑村"}},{"type":"Feature","geometry":{"type":"Point","coordinates":[116.552981,35.418054]},"properties":{"full_address":"山东省济宁市任城区南张街道时星御德新城小区"}},{"type":"Feature","geometry":{"type":"Point","coordinates":[116.539007,35.465509]},"properties":{"full_address":"山东省济宁市任城区南张街道祁庄村"}},{"type":"Feature","geometry":{"type":"Point","coordinates":[116.525884,35.462786]},"properties":{"full_address":"山东省济宁市任城区南张街道孔家村"}},{"type":"Feature","geometry":{"type":"Point","coordinates":[116.52025,35.476729]},"properties":{"full_address":"山东省济宁市任城区南张街道翟家村"}},{"type":"Feature","geometry":{"type":"Point","coordinates":[116.565876,35.48768]},"properties":{"full_address":"山东省济宁市任城区南张街道赵庙村"}},{"type":"Feature","geometry":{"type":"Point","coordinates":[116.572167,35.406173]},"properties":{"full_address":"山东省济宁市任城区济阳街道水景花苑"}},{"type":"Feature","geometry":{"type":"Point","coordinates":[116.56417,35.406759]},"properties":{"full_address":"山东省济宁市任城区金城街道永基公馆"}},{"type":"Feature","geometry":{"type":"Point","coordinates":[116.553822,35.422202]},"properties":{"full_address":"山东省济宁市任城区金城街道开泰花园小区"}},{"type":"Feature","geometry":{"type":"Point","coordinates":[116.579363,35.424878]},"properties":{"full_address":"山东省济宁市任城区金城街道牛市社区"}},{"type":"Feature","geometry":{"type":"Point","coordinates":[116.582963,35.422731]},"properties":{"full_address":"山东省济宁市任城区金城街道古槐名邸小区"}},{"type":"Feature","geometry":{"type":"Point","coordinates":[116.504461,35.522974]},"properties":{"full_address":"山东省济宁市任城区二十里铺街道程街村"}},{"type":"Feature","geometry":{"type":"Point","coordinates":[116.971835,35.399087]},"properties":{"full_address":"山东省济宁市任城区二十里铺街道六中小区"}},{"type":"Feature","geometry":{"type":"Point","coordinates":[116.582076,35.498633]},"properties":{"full_address":"山东省济宁市任城区二十里铺街道杨场村"}},{"type":"Feature","geometry":{"type":"Point","coordinates":[116.608231,35.402274]},"properties":{"full_address":"山东省济宁市任城区观音阁街道鲁兴花园"}},{"type":"Feature","geometry":{"type":"Point","coordinates":[116.631534,35.417487]},"properties":{"full_address":"山东省济宁市任城区观音阁街道如意嘉园"}},{"type":"Feature","geometry":{"type":"Point","coordinates":[116.581213,35.412904]},"properties":{"full_address":"山东省济宁市任城区古槐街道樱花园小区"}},{"type":"Feature","geometry":{"type":"Point","coordinates":[116.581341,35.473083]},"properties":{"full_address":"山东省济宁市任城区李营街道黄楼村"}},{"type":"Feature","geometry":{"type":"Point","coordinates":[116.60112,35.446954]},"properties":{"full_address":"山东省济宁市任城区李营街道汇翠园小区"}},{"type":"Feature","geometry":{"type":"Point","coordinates":[116.585962,35.439106]},"properties":{"full_address":"山东省济宁市任城区李营街道黎寨村"}},{"type":"Feature","geometry":{"type":"Point","coordinates":[116.607605,35.452034]},"properties":{"full_address":"山东省济宁市任城区李营街道睿湖印象小区"}},{"type":"Feature","geometry":{"type":"Point","coordinates":[116.631696,35.418502]},"properties":{"full_address":"山东省济宁市任城区李营街道人文嘉园小区"}},{"type":"Feature","geometry":{"type":"Point","coordinates":[116.636391,35.521819]},"properties":{"full_address":"山东省济宁市任城区李营街道耿北村"}},{"type":"Feature","geometry":{"type":"Point","coordinates":[116.4551,35.502115]},"properties":{"full_address":"山东省济宁市任城区长沟镇后薛村"}},{"type":"Feature","geometry":{"type":"Point","coordinates":[116.336641,35.411715]},"properties":{"full_address":"山东省济宁市嘉祥县嘉祥街道温馨佳苑"}},{"type":"Feature","geometry":{"type":"Point","coordinates":[116.351589,35.407508]},"properties":{"full_address":"山东省济宁市嘉祥县嘉祥街道学府名都"}},{"type":"Feature","geometry":{"type":"Point","coordinates":[116.123615,35.767281]},"properties":{"full_address":"山东省济宁市梁山县水泊街道运河小区"}},{"type":"Feature","geometry":{"type":"Point","coordinates":[116.100005,35.804634]},"properties":{"full_address":"山东省济宁市梁山县水泊街道正信楼"}},{"type":"Feature","geometry":{"type":"Point","coordinates":[116.099875,35.823359]},"properties":{"full_address":"山东省济宁市梁山县梁山街道关庄村就俩菜餐馆"}},{"type":"Feature","geometry":{"type":"Point","coordinates":[116.077309,35.800809]},"properties":{"full_address":"山东省济宁市梁山县梁山街道凤园超市（梁山街道一中西边路口）"}},{"type":"Feature","geometry":{"type":"Point","coordinates":[116.285783,35.668791]},"properties":{"full_address":"山东省济宁市梁山县韩垓镇魏堂村吴垓自然村"}},{"type":"Feature","geometry":{"type":"Point","coordinates":[116.118671,35.802193]},"properties":{"full_address":"山东省济宁市梁山县梁山仁和医院"}},{"type":"Feature","geometry":{"type":"Point","coordinates":[116.091271,35.802964]},"properties":{"full_address":"山东省济宁市梁山县水泊街道医药公司家属院"}},{"type":"Feature","geometry":{"type":"Point","coordinates":[116.125593,35.776896]},"properties":{"full_address":"山东省济宁市梁山县水泊街道德馨花园"}},{"type":"Feature","geometry":{"type":"Point","coordinates":[116.086987,35.782541]},"properties":{"full_address":"山东省济宁市梁山县水泊街道山水家园"}},{"type":"Feature","geometry":{"type":"Point","coordinates":[116.08554,35.795203]},"properties":{"full_address":"山东省济宁市梁山县水泊街道东方福地花园"}},{"type":"Feature","geometry":{"type":"Point","coordinates":[116.090652,35.778472]},"properties":{"full_address":"山东省济宁市梁山县梁山县水泊街道马振扬村"}},{"type":"Feature","geometry":{"type":"Point","coordinates":[116.119011,35.786513]},"properties":{"full_address":"山东省济宁市梁山县水泊街道郑垓村"}},{"type":"Feature","geometry":{"type":"Point","coordinates":[116.086197,35.777979]},"properties":{"full_address":"山东省济宁市梁山县水泊街道锦绣城南区"}},{"type":"Feature","geometry":{"type":"Point","coordinates":[116.092192,35.799801]},"properties":{"full_address":"山东省济宁市梁山县水泊街道八一小区"}},{"type":"Feature","geometry":{"type":"Point","coordinates":[116.100362,35.805247]},"properties":{"full_address":"山东省济宁市梁山县水泊街道龙城广场"}},{"type":"Feature","geometry":{"type":"Point","coordinates":[116.099875,35.823359]},"properties":{"full_address":"山东省济宁市梁山县梁山街道关庄村"}},{"type":"Feature","geometry":{"type":"Point","coordinates":[116.078424,35.81457]},"properties":{"full_address":"山东省济宁市梁山县梁山街道梁元小区"}},{"type":"Feature","geometry":{"type":"Point","coordinates":[116.257625,35.652918]},"properties":{"full_address":"山东省济宁市梁山县韩垓镇高店村"}},{"type":"Feature","geometry":{"type":"Point","coordinates":[116.284301,35.648122]},"properties":{"full_address":"山东省济宁市梁山县韩垓镇西马垓村"}},{"type":"Feature","geometry":{"type":"Point","coordinates":[116.282217,35.650865]},"properties":{"full_address":"山东省济宁市梁山县韩垓镇薛垓村"}},{"type":"Feature","geometry":{"type":"Point","coordinates":[116.292698,35.670156]},"properties":{"full_address":"山东省济宁市梁山县韩垓镇蔡徐村"}},{"type":"Feature","geometry":{"type":"Point","coordinates":[116.324413,35.654834]},"properties":{"full_address":"山东省济宁市梁山县韩垓镇开河南村"}},{"type":"Feature","geometry":{"type":"Point","coordinates":[116.324386,35.657216]},"properties":{"full_address":"山东省济宁市梁山县韩垓镇开河北村"}},{"type":"Feature","geometry":{"type":"Point","coordinates":[116.302827,35.690916]},"properties":{"full_address":"山东省济宁市梁山县韩垓镇油坊村"}},{"type":"Feature","geometry":{"type":"Point","coordinates":[116.28314,35.67311]},"properties":{"full_address":"山东省济宁市梁山县韩垓镇桑庄村"}},{"type":"Feature","geometry":{"type":"Point","coordinates":[116.26853,35.707416]},"properties":{"full_address":"山东省济宁市梁山县韩岗镇刁集村"}},{"type":"Feature","geometry":{"type":"Point","coordinates":[116.27431,35.706412]},"properties":{"full_address":"山东省济宁市梁山县韩岗镇彭庄村"}},{"type":"Feature","geometry":{"type":"Point","coordinates":[116.268086,35.697397]},"properties":{"full_address":"山东省济宁市梁山县韩岗镇李坊村"}},{"type":"Feature","geometry":{"type":"Point","coordinates":[116.28094,35.70479]},"properties":{"full_address":"山东省济宁市梁山县韩岗镇薛楼村"}},{"type":"Feature","geometry":{"type":"Point","coordinates":[116.102224,35.815179]},"properties":{"full_address":"山东省济宁市梁山县拳铺镇东马社区"}},{"type":"Feature","geometry":{"type":"Point","coordinates":[116.061317,35.89548]},"properties":{"full_address":"山东省济宁市梁山县大路口乡刘举楼村"}},{"type":"Feature","geometry":{"type":"Point","coordinates":[116.035563,35.89227]},"properties":{"full_address":"山东省济宁市梁山县大路口乡吕那里村"}},{"type":"Feature","geometry":{"type":"Point","coordinates":[116.027407,35.866932]},"properties":{"full_address":"山东省济宁市梁山县寿张集镇义和庄村"}},{"type":"Feature","geometry":{"type":"Point","coordinates":[115.907924,35.872769]},"properties":{"full_address":"山东省济宁市梁山县黑虎庙镇吴楼村"}},{"type":"Feature","geometry":{"type":"Point","coordinates":[116.060365,35.84078]},"properties":{"full_address":"山东省济宁市梁山县杨营镇张庄村"}},{"type":"Feature","geometry":{"type":"Point","coordinates":[116.093238,35.785514]},"properties":{"full_address":"山东省济宁市梁山县水泊街道郝山头村"}},{"type":"Feature","geometry":{"type":"Point","coordinates":[116.104588,35.801952]},"properties":{"full_address":"山东省济宁市梁山县水泊街道付庙村"}},{"type":"Feature","geometry":{"type":"Point","coordinates":[116.09679,35.796845]},"properties":{"full_address":"山东省济宁市梁山县水泊街道后集村"}},{"type":"Feature","geometry":{"type":"Point","coordinates":[116.117819,35.773035]},"properties":{"full_address":"山东省济宁市梁山县水泊街道刘集村"}},{"type":"Feature","geometry":{"type":"Point","coordinates":[116.095795,35.807899]},"properties":{"full_address":"山东省济宁市梁山县水泊街道水泊花园小区"}},{"type":"Feature","geometry":{"type":"Point","coordinates":[116.087851,35.78776]},"properties":{"full_address":"山东省济宁市梁山县水泊街道县医院家属院"}},{"type":"Feature","geometry":{"type":"Point","coordinates":[116.12617,35.781726]},"properties":{"full_address":"山东省济宁市梁山县水泊街道杏花村社区"}},{"type":"Feature","geometry":{"type":"Point","coordinates":[116.568075,35.398363]},"properties":{"full_address":"山东省济宁市梁山县水泊街道龙城御苑"}},{"type":"Feature","geometry":{"type":"Point","coordinates":[116.086296,35.78651]},"properties":{"full_address":"山东省济宁市梁山县水泊街道中央名郡"}},{"type":"Feature","geometry":{"type":"Point","coordinates":[116.101547,35.803242]},"properties":{"full_address":"山东省济宁市梁山县水泊街道国棉厂第二家属院"}},{"type":"Feature","geometry":{"type":"Point","coordinates":[116.090883,35.804922]},"properties":{"full_address":"山东省济宁市梁山县梁山街道国棉厂第四家属院"}},{"type":"Feature","geometry":{"type":"Point","coordinates":[116.102224,35.815179]},"properties":{"full_address":"山东省济宁市梁山县梁山街道流畅河社区"}},{"type":"Feature","geometry":{"type":"Point","coordinates":[116.113711,35.808234]},"properties":{"full_address":"山东省济宁市梁山县梁山街道任庄村"}},{"type":"Feature","geometry":{"type":"Point","coordinates":[116.265183,35.669788]},"properties":{"full_address":"山东省济宁市梁山县韩垓镇郭楼村"}},{"type":"Feature","geometry":{"type":"Point","coordinates":[116.30284,35.660166]},"properties":{"full_address":"山东省济宁市梁山县韩垓镇高庄村"}},{"type":"Feature","geometry":{"type":"Point","coordinates":[116.292568,35.642279]},"properties":{"full_address":"山东省济宁市梁山县韩垓镇东马垓村"}},{"type":"Feature","geometry":{"type":"Point","coordinates":[115.995929,35.8035]},"properties":{"full_address":"山东省济宁市梁山县马营镇赵坝村"}},{"type":"Feature","geometry":{"type":"Point","coordinates":[116.0765,35.752442]},"properties":{"full_address":"山东省济宁市梁山县马营镇王楼村"}},{"type":"Feature","geometry":{"type":"Point","coordinates":[116.198993,35.68706]},"properties":{"full_address":"山东省济宁市梁山县拳铺镇徐集阳光小区"}},{"type":"Feature","geometry":{"type":"Point","coordinates":[116.100569,35.722924]},"properties":{"full_address":"山东省济宁市梁山县拳铺镇郭堂村"}},{"type":"Feature","geometry":{"type":"Point","coordinates":[117.013582,35.413393]},"properties":{"full_address":"山东省济宁市邹城市钢山街道颜舍国际（齐鲁时代店）"}},{"type":"Feature","geometry":{"type":"Point","coordinates":[117.014341,35.423475]},"properties":{"full_address":"山东省济宁市邹城市钢山街道鑫琦府邸小区（南区）"}},{"type":"Feature","geometry":{"type":"Point","coordinates":[116.984599,35.437756]},"properties":{"full_address":"山东省济宁市邹城市钢山街道碧桂园小区"}},{"type":"Feature","geometry":{"type":"Point","coordinates":[117.011016,35.416161]},"properties":{"full_address":"山东省济宁市邹城市钢山街道齐鲁时代花园二期1号楼"}},{"type":"Feature","geometry":{"type":"Point","coordinates":[116.607307,35.429295]},"properties":{"full_address":"山东省济宁市高新区洸河街道贵熙园小区"}},{"type":"Feature","geometry":{"type":"Point","coordinates":[116.640285,35.416604]},"properties":{"full_address":"山东省济宁市高新区柳行街道福祉苑小区"}},{"type":"Feature","geometry":{"type":"Point","coordinates":[116.659886,35.451362]},"properties":{"full_address":"山东省济宁市高新区柳行街道卞厂新苑"}},{"type":"Feature","geometry":{"type":"Point","coordinates":[116.656587,35.429169]},"properties":{"full_address":"山东省济宁市高新区柳行街道菱花富贵园"}},{"type":"Feature","geometry":{"type":"Point","coordinates":[116.582928,35.347146]},"properties":{"full_address":"山东省济宁市太白湖新区许庄街道太阳岛小区"}},{"type":"Feature","geometry":{"type":"Point","coordinates":[116.586096,35.364662]},"properties":{"full_address":"山东省济宁市太白湖新区许庄街道滨湖馨苑"}},{"type":"Feature","geometry":{"type":"Point","coordinates":[116.588348,35.368291]},"properties":{"full_address":"山东省济宁市太白湖新区许庄街道明德花园小区"}},{"type":"Feature","geometry":{"type":"Point","coordinates":[116.570597,35.350766]},"properties":{"full_address":"山东省济宁市太白湖新区许庄街道风韵荷都小区"}},{"type":"Feature","geometry":{"type":"Point","coordinates":[116.596575,35.360785]},"properties":{"full_address":"山东省济宁市太白湖新区许庄街道新城发展大厦"}},{"type":"Feature","geometry":{"type":"Point","coordinates":[116.574154,35.403782]},"properties":{"full_address":"山东省济宁市太白湖新区许庄街道颂运水庭小区"}},{"type":"Feature","geometry":{"type":"Point","coordinates":[116.577906,35.362869]},"properties":{"full_address":"山东省济宁市太白湖新区许庄街道豪庭御都小区"}},{"type":"Feature","geometry":{"type":"Point","coordinates":[116.688921,35.353196]},"properties":{"full_address":"山东省济宁市太白湖新区石桥镇济东新村"}},{"type":"Feature","geometry":{"type":"Point","coordinates":[114.185859,35.890819]},"properties":{"full_address":"河南省鹤壁市山城区红旗街道办事处宏园小区"}},{"type":"Feature","geometry":{"type":"Point","coordinates":[114.201415,35.903543]},"properties":{"full_address":"河南省鹤壁市山城区长风中路街道办事处鹤煤六矿"}},{"type":"Feature","geometry":{"type":"Point","coordinates":[114.187377,35.890656]},"properties":{"full_address":"河南省鹤壁市山城区长风中路街道老字号老温砂锅烧烤"}},{"type":"Feature","geometry":{"type":"Point","coordinates":[114.286753,35.474736]},"properties":{"full_address":"河南省鹤壁市浚县新镇镇东双鹅头村"}},{"type":"Feature","geometry":{"type":"Point","coordinates":[114.329313,35.510865]},"properties":{"full_address":"河南省鹤壁市浚县新镇镇东高宋村"}},{"type":"Feature","geometry":{"type":"Point","coordinates":[114.282095,35.473186]},"properties":{"full_address":"河南省鹤壁市浚县新镇镇西双鹅头村"}},{"type":"Feature","geometry":{"type":"Point","coordinates":[109.485392,30.276544]},"properties":{"full_address":"湖北省恩施土家族苗族自治州恩施市舞阳坝街道金凤苑小区除1栋以外的其他区域"}},{"type":"Feature","geometry":{"type":"Point","coordinates":[109.503048,30.279592]},"properties":{"full_address":"湖北省恩施土家族苗族自治州恩施市舞阳坝街道土桥坝制药厂宿舍区除12栋以外的其他区域"}},{"type":"Feature","geometry":{"type":"Point","coordinates":[109.473878,30.265268]},"properties":{"full_address":"湖北省恩施土家族苗族自治州恩施市舞阳坝街道蔡家河小区除7栋2单元以外的其他区域"}},{"type":"Feature","geometry":{"type":"Point","coordinates":[109.473878,30.265268]},"properties":{"full_address":"湖北省恩施土家族苗族自治州恩施市小渡船街道大帝新居小区除1单元以外的其他区域及底层商铺"}},{"type":"Feature","geometry":{"type":"Point","coordinates":[109.473878,30.265268]},"properties":{"full_address":"湖北省恩施土家族苗族自治州恩施市六角亭街道首府壹品小区除7栋一单元以外的其他区域"}},{"type":"Feature","geometry":{"type":"Point","coordinates":[109.498383,30.309596]},"properties":{"full_address":"湖北省恩施土家族苗族自治州恩施市金子坝街道万福国际小区除7、8、9栋以外的其他区域及底层商铺"}},{"type":"Feature","geometry":{"type":"Point","coordinates":[109.495465,30.324921]},"properties":{"full_address":"湖北省恩施土家族苗族自治州恩施市金子坝街道花果山小区除9排4栋、5栋以外的其他区域"}},{"type":"Feature","geometry":{"type":"Point","coordinates":[109.530849,30.289532]},"properties":{"full_address":"湖北省恩施土家族苗族自治州恩施市七里坪街道七里坪产业园除14栋以外的其他区域"}},{"type":"Feature","geometry":{"type":"Point","coordinates":[114.146365,22.544212]},"properties":{"full_address":"广东省深圳市罗湖区黄贝街道新兴社区城市东方3层-15层"}},{"type":"Feature","geometry":{"type":"Point","coordinates":[114.11972,22.544621]},"properties":{"full_address":"广东省深圳市罗湖区东门街道东门社区人民北路1006号写字楼5-6楼"}},{"type":"Feature","geometry":{"type":"Point","coordinates":[114.117737,22.538535]},"properties":{"full_address":"广东省深圳市罗湖区南湖街道罗湖桥社区友谊大厦2栋"}},{"type":"Feature","geometry":{"type":"Point","coordinates":[114.124197,22.541826]},"properties":{"full_address":"广东省深圳市罗湖区南湖街道向西社区向西村西区72号—74号围合区域"}},{"type":"Feature","geometry":{"type":"Point","coordinates":[114.142194,22.58058]},"properties":{"full_address":"广东省深圳市罗湖区东湖街道翠鹏社区鹏城花园一期4-8栋围合区域（除高风险区外）"}},{"type":"Feature","geometry":{"type":"Point","coordinates":[114.114365,22.544337]},"properties":{"full_address":"广东省深圳市罗湖区桂园街道人民桥社区和平广场帝庭轩（除底商外）"}},{"type":"Feature","geometry":{"type":"Point","coordinates":[114.134713,22.549624]},"properties":{"full_address":"广东省深圳市罗湖区黄贝街道华丽小区（除高风险区外）"}},{"type":"Feature","geometry":{"type":"Point","coordinates":[114.095216,22.536062]},"properties":{"full_address":"广东省深圳市福田区南园街道滨江社区松岭路祠堂村第22号"}},{"type":"Feature","geometry":{"type":"Point","coordinates":[113.990102,22.562548]},"properties":{"full_address":"广东省深圳市福田区福保街道新洲路3188号后勤楼"}},{"type":"Feature","geometry":{"type":"Point","coordinates":[114.100959,22.538919]},"properties":{"full_address":"广东省深圳市福田区南园街道巴登社区巴登村第99号"}},{"type":"Feature","geometry":{"type":"Point","coordinates":[114.039248,22.561945]},"properties":{"full_address":"广东省深圳市福田区梅林街道下梅林村第22号"}},{"type":"Feature","geometry":{"type":"Point","coordinates":[114.039109,22.561946]},"properties":{"full_address":"广东省深圳市福田区梅林街道下梅林村第23号、第25号、第26号"}},{"type":"Feature","geometry":{"type":"Point","coordinates":[114.09938,22.536104]},"properties":{"full_address":"广东省深圳市福田区南园街道滨江新村第38栋、第39栋连廊一楼（38号-40号房）"}},{"type":"Feature","geometry":{"type":"Point","coordinates":[114.047066,22.555257]},"properties":{"full_address":"广东省深圳市福田区莲花街道天一名居天朗阁"}},{"type":"Feature","geometry":{"type":"Point","coordinates":[114.040001,22.550997]},"properties":{"full_address":"广东省深圳市福田区莲花街道狮岭社区景达楼第1栋"}},{"type":"Feature","geometry":{"type":"Point","coordinates":[114.101275,22.537739]},"properties":{"full_address":"广东省深圳市福田区南园街道巴登社区巴登村第19栋"}},{"type":"Feature","geometry":{"type":"Point","coordinates":[114.047277,22.52237]},"properties":{"full_address":"广东省深圳市福田区沙头街道新洲南村第58-1栋、第58-2栋"}},{"type":"Feature","geometry":{"type":"Point","coordinates":[114.046966,22.555212]},"properties":{"full_address":"广东省深圳市福田区莲花街道天一名居天怡阁"}},{"type":"Feature","geometry":{"type":"Point","coordinates":[114.062955,22.527102]},"properties":{"full_address":"广东省深圳市福田区福田街道上围一村第148号-第150号"}},{"type":"Feature","geometry":{"type":"Point","coordinates":[113.997921,22.546789]},"properties":{"full_address":"广东省深圳市福田区香蜜湖街道深康村第6栋A座"}},{"type":"Feature","geometry":{"type":"Point","coordinates":[114.06494,22.524654]},"properties":{"full_address":"广东省深圳市福田区福田街道西大门坊第133-1号、第133-2号、第134号、第135号、第141号-143号、第158号-160号"}},{"type":"Feature","geometry":{"type":"Point","coordinates":[114.084251,22.533294]},"properties":{"full_address":"广东省深圳市福田区福田街道岗边坊第88号、第89号、第92号、第93号、第95号、第97号、第100-1号、第100-2号、第101-1号、第101-2号、第102号、第103号"}},{"type":"Feature","geometry":{"type":"Point","coordinates":[114.091001,22.538761]},"properties":{"full_address":"广东省深圳市福田区南园街道爱华大院第21栋"}},{"type":"Feature","geometry":{"type":"Point","coordinates":[114.082818,22.52904]},"properties":{"full_address":"广东省深圳市福田区南园街道滨河社区怡兴苑第1栋-4栋"}},{"type":"Feature","geometry":{"type":"Point","coordinates":[114.050159,22.521644]},"properties":{"full_address":"广东省深圳市福田区福保街道石厦西村第127栋"}},{"type":"Feature","geometry":{"type":"Point","coordinates":[114.091194,22.536928]},"properties":{"full_address":"广东省深圳市福田区南园街道旧墟村第2栋、第4栋、第6栋"}},{"type":"Feature","geometry":{"type":"Point","coordinates":[114.090732,22.537137]},"properties":{"full_address":"广东省深圳市福田区南园街道旧墟村第23栋-第28栋"}},{"type":"Feature","geometry":{"type":"Point","coordinates":[114.09263,22.536373]},"properties":{"full_address":"广东省深圳市福田区南园街道锦绣新居第2栋"}},{"type":"Feature","geometry":{"type":"Point","coordinates":[114.03211,22.520721]},"properties":{"full_address":"广东省深圳市福田区沙头街道上沙东村7巷第11号、8巷第12号"}},{"type":"Feature","geometry":{"type":"Point","coordinates":[114.09484,22.544118]},"properties":{"full_address":"广东省深圳市福田区华强北街道振华路21号航天立业大厦"}},{"type":"Feature","geometry":{"type":"Point","coordinates":[114.089175,22.539]},"properties":{"full_address":"广东省深圳市福田区南园街道下步庙北区第10栋、华发南路第35-1号至第35-18号"}},{"type":"Feature","geometry":{"type":"Point","coordinates":[114.088811,22.539315]},"properties":{"full_address":"广东省深圳市福田区南园街道中电大院第5栋"}},{"type":"Feature","geometry":{"type":"Point","coordinates":[114.079278,22.53673]},"properties":{"full_address":"广东省深圳市福田区福田街道福华路103号文化楼"}},{"type":"Feature","geometry":{"type":"Point","coordinates":[114.039136,22.562816]},"properties":{"full_address":"广东省深圳市福田区梅林街道下梅社区梅林路257号宿舍B栋"}},{"type":"Feature","geometry":{"type":"Point","coordinates":[114.074784,22.535348]},"properties":{"full_address":"广东省深圳市福田区福田街道福田村福新坊第60栋"}},{"type":"Feature","geometry":{"type":"Point","coordinates":[114.077722,22.531234]},"properties":{"full_address":"广东省深圳市福田区福田街道大康福盈门A单元、B单元、C单元"}},{"type":"Feature","geometry":{"type":"Point","coordinates":[114.039136,22.562816]},"properties":{"full_address":"广东省深圳市福田区梅林街道下梅社区梅林路257号宿舍A栋、C栋"}},{"type":"Feature","geometry":{"type":"Point","coordinates":[114.051917,22.519731]},"properties":{"full_address":"广东省深圳市福田区福保街道石厦新村第13栋；石厦东村第218-1栋、第218-2栋、第219栋、第220-1栋、第220-2栋、第221栋、第222栋、第222-2栋、第223栋、第224栋、第226栋-第228栋、第228-2栋、第229栋、第233栋-第235栋、第235-2栋、第236栋-第239栋、第239-2栋、第240栋、第241栋、第244栋-第246栋、第247-1栋、第247-2栋、第247-3栋、第247-4栋、第248栋、第249栋"}},{"type":"Feature","geometry":{"type":"Point","coordinates":[114.037626,22.562898]},"properties":{"full_address":"广东省深圳市福田区梅林街道颂德花园、尚书苑小区，北环大道辅路—龙顶街—下梅林一街—梅林路—梅丽路—梅华支路围合区域（高、中风险区除外）"}},{"type":"Feature","geometry":{"type":"Point","coordinates":[114.089599,22.54564]},"properties":{"full_address":"广东省深圳市福田区华强北街道桑达雅苑"}},{"type":"Feature","geometry":{"type":"Point","coordinates":[114.083588,22.529711]},"properties":{"full_address":"广东省深圳市福田区南园街道汇港名苑南1栋-南3栋"}},{"type":"Feature","geometry":{"type":"Point","coordinates":[114.101637,22.538724]},"properties":{"full_address":"广东省深圳市福田区南园街道巴登村北区第70栋-第83栋、第86栋-第91栋、第100栋、第101栋"}},{"type":"Feature","geometry":{"type":"Point","coordinates":[114.044699,22.55532]},"properties":{"full_address":"广东省深圳市福田区莲花街道布尾村第27栋"}},{"type":"Feature","geometry":{"type":"Point","coordinates":[114.045231,22.555257]},"properties":{"full_address":"广东省深圳市福田区莲花街道布尾村第28-35栋、第38栋、第41-50栋、第51C栋、39A、第39B、第37A、第37B、第36和第36-1栋"}},{"type":"Feature","geometry":{"type":"Point","coordinates":[114.078541,22.534022]},"properties":{"full_address":"广东省深圳市福田区福田街道祠堂坊第1栋、2栋、6栋、7栋、11栋-35栋"}},{"type":"Feature","geometry":{"type":"Point","coordinates":[114.077736,22.536058]},"properties":{"full_address":"广东省深圳市福田区福田街道福华路155号小区第1栋-第3栋、第5栋、第6栋，福华路155号综合楼及裙楼"}},{"type":"Feature","geometry":{"type":"Point","coordinates":[114.078897,22.532881]},"properties":{"full_address":"广东省深圳市福田区福田街道牛巷坊第1栋、第24栋、第25-1栋、第25-2栋、第26栋、第27栋、第47栋-第59栋"}},{"type":"Feature","geometry":{"type":"Point","coordinates":[114.062707,22.527151]},"properties":{"full_address":"广东省深圳市福田区福田街道上围一村第162栋-166栋、第172栋-第174栋、第176栋、第177栋、第179栋- 181栋、第185栋-第197栋"}},{"type":"Feature","geometry":{"type":"Point","coordinates":[114.079367,22.535501]},"properties":{"full_address":"广东省深圳市福田区福田街道西头坊第40栋、第41栋、第43栋、第47栋-第49栋，福益楼A座、B座"}},{"type":"Feature","geometry":{"type":"Point","coordinates":[114.082868,22.535872]},"properties":{"full_address":"广东省深圳市福田区福田街道福星路162号福星花园大厦裙楼"}},{"type":"Feature","geometry":{"type":"Point","coordinates":[113.930116,22.489767]},"properties":{"full_address":"广东省深圳市南山区蛇口街道围仔西小区四巷、五巷"}},{"type":"Feature","geometry":{"type":"Point","coordinates":[114.175845,22.635063]},"properties":{"full_address":"广东省深圳市龙岗区横岗街道六约北社区深峰路1号楼，深竹小区四巷8号、9号，五巷10号，六巷10号、11号，七巷10号、11号"}},{"type":"Feature","geometry":{"type":"Point","coordinates":[114.210872,22.64476]},"properties":{"full_address":"广东省深圳市龙岗区横岗街道松柏社区松柏路138号安家兴寓园"}},{"type":"Feature","geometry":{"type":"Point","coordinates":[114.205369,22.642749]},"properties":{"full_address":"广东省深圳市龙岗区横岗街道塘坑社区六和路30号祥寓C栋"}},{"type":"Feature","geometry":{"type":"Point","coordinates":[114.067008,22.634]},"properties":{"full_address":"广东省深圳市龙岗区坂田街道坂田社区坂田第三工业区19-1栋、19-C栋"}},{"type":"Feature","geometry":{"type":"Point","coordinates":[114.273551,22.731761]},"properties":{"full_address":"广东省深圳市龙岗区龙岗街道龙岗社区福宁新一巷5号"}},{"type":"Feature","geometry":{"type":"Point","coordinates":[114.118599,22.595059]},"properties":{"full_address":"广东省深圳市龙岗区布吉街道国展社区荣超花园22栋B座、国展苑国泰台"}},{"type":"Feature","geometry":{"type":"Point","coordinates":[114.118114,22.614278]},"properties":{"full_address":"广东省深圳市龙岗区布吉街道南三社区锦绣新村一巷11号"}},{"type":"Feature","geometry":{"type":"Point","coordinates":[113.813423,22.72971]},"properties":{"full_address":"广东省深圳市龙岗区横岗街道六约北社区深竹小区四巷8-9号、五巷10号、六巷10-11号、七巷10-11号"}},{"type":"Feature","geometry":{"type":"Point","coordinates":[114.225691,22.552615]},"properties":{"full_address":"广东省深圳市盐田区沙头角街道田心社区沙深路129号梧桐阁小区"}},{"type":"Feature","geometry":{"type":"Point","coordinates":[114.233131,22.545378]},"properties":{"full_address":"广东省深圳市盐田区沙头角街道海涛路8号至28号、桥东街1号至23号"}},{"type":"Feature","geometry":{"type":"Point","coordinates":[114.234755,22.54636]},"properties":{"full_address":"广东省深圳市盐田区海山街道海涛路44号海涛花园"}},{"type":"Feature","geometry":{"type":"Point","coordinates":[114.263183,22.585429]},"properties":{"full_address":"广东省深圳市盐田区盐田街道东海社区御景佳园二期小区（含底层商铺）"}},{"type":"Feature","geometry":{"type":"Point","coordinates":[114.040198,22.611611]},"properties":{"full_address":"广东省深圳市龙华区民治街道樟坑社区樟坑三区第46栋"}},{"type":"Feature","geometry":{"type":"Point","coordinates":[114.010741,22.650547]},"properties":{"full_address":"广东省深圳市龙华区大浪街道高峰社区赤岭头新一村第50至63栋、80栋、82栋、84至93栋、115栋、116栋"}},{"type":"Feature","geometry":{"type":"Point","coordinates":[114.05298,22.600942]},"properties":{"full_address":"广东省深圳市龙华区民治街道民乐社区滢水山庄二区第2栋、第7栋"}},{"type":"Feature","geometry":{"type":"Point","coordinates":[113.911061,22.579295]},"properties":{"full_address":"广东省深圳市龙华区大浪街道大浪社区泥头咀村第71、72、75、76栋"}},{"type":"Feature","geometry":{"type":"Point","coordinates":[114.035723,22.665914]},"properties":{"full_address":"广东省深圳市龙华区龙华街道三联社区富联新村一区六巷第1号、3号、5号、7号、9号"}},{"type":"Feature","geometry":{"type":"Point","coordinates":[114.052856,22.59831]},"properties":{"full_address":"广东省深圳市龙华区民治街道民乐社区民乐一区第114栋、177至180栋、商住楼第9栋"}},{"type":"Feature","geometry":{"type":"Point","coordinates":[113.829518,22.694948]},"properties":{"full_address":"广东省深圳市龙华区观湖街道新田社区（除高风险区外）"}},{"type":"Feature","geometry":{"type":"Point","coordinates":[113.053847,22.499307]},"properties":{"full_address":"广东省江门市新会区圭峰会城碧桂园盛世名门小区一街八座、九座"}},{"type":"Feature","geometry":{"type":"Point","coordinates":[113.050684,22.492547]},"properties":{"full_address":"广东省江门市新会区圭峰会城梅江村、南湖壹号小区及南湖壹品小区（高风险区除外）"}},{"type":"Feature","geometry":{"type":"Point","coordinates":[113.018111,22.512532]},"properties":{"full_address":"广东省江门市新会区圭峰会城工业大道、冈州大道中、冈州大道西、紫华路和新会大道所合围的区域，紫华园小区以及紫华园小区南侧与新会大道西之间区域（高风险区除外）"}},{"type":"Feature","geometry":{"type":"Point","coordinates":[113.019581,22.515722]},"properties":{"full_address":"广东省江门市新会区圭峰会城汇侨花园小区（高风险区除外）"}},{"type":"Feature","geometry":{"type":"Point","coordinates":[113.042947,22.545147]},"properties":{"full_address":"广东省江门市新会区圭峰会城玉圭园小区B区（高风险区除外）"}},{"type":"Feature","geometry":{"type":"Point","coordinates":[113.050995,22.514734]},"properties":{"full_address":"广东省江门市新会区圭峰会城深源里34座与名苑华庭42座以北，人民路以东，深源里18座以南，名苑华庭41座以西合围区域"}},{"type":"Feature","geometry":{"type":"Point","coordinates":[112.79087,22.249355]},"properties":{"full_address":"广东省江门市台山市麦当劳（台城街道台城通济路2-4号2层）"}},{"type":"Feature","geometry":{"type":"Point","coordinates":[112.826125,22.244025]},"properties":{"full_address":"广东省江门市台山市台城街道昌大昌广场"}},{"type":"Feature","geometry":{"type":"Point","coordinates":[112.798546,22.244262]},"properties":{"full_address":"广东省江门市台山市台城街道秀荷花城（高风险区除外）"}},{"type":"Feature","geometry":{"type":"Point","coordinates":[112.784934,22.25929]},"properties":{"full_address":"广东省江门市台山市中石化加油站（台城街道S273旧群厚工业区西南400米）"}},{"type":"Feature","geometry":{"type":"Point","coordinates":[109.907176,20.530634]},"properties":{"full_address":"广东省湛江市雷州市覃斗镇江乐路094号附近（东至客客奶茶店，南至邮政南外墙小巷，西至凯大药店，北至江乐路094号的合围区域）"}},{"type":"Feature","geometry":{"type":"Point","coordinates":[109.856312,20.502482]},"properties":{"full_address":"广东省湛江市雷州市乌石镇那澳港（东至澳港村东边，南至那澳港码头，西至雷州盐场西边，北至三教南村北边的合围区域）"}},{"type":"Feature","geometry":{"type":"Point","coordinates":[114.522353,22.752471]},"properties":{"full_address":"广东省惠州市大亚湾区澳头街道金湾花园8栋"}},{"type":"Feature","geometry":{"type":"Point","coordinates":[114.522438,22.75057]},"properties":{"full_address":"广东省惠州市大亚湾区澳头街道中兴北区中兴二路以东、中环路以南、中兴三路以西、中兴北路以北区域（含金湾花园、天悦龙庭、荃新时代、和合人家小区）（高风险区除外）"}},{"type":"Feature","geometry":{"type":"Point","coordinates":[114.530777,22.749965]},"properties":{"full_address":"广东省惠州市大亚湾区澳头街道中央公园9栋"}},{"type":"Feature","geometry":{"type":"Point","coordinates":[114.521376,22.747383]},"properties":{"full_address":"广东省惠州市大亚湾区澳头街道国力凯旋城6栋"}},{"type":"Feature","geometry":{"type":"Point","coordinates":[114.505583,22.741806]},"properties":{"full_address":"广东省惠州市大亚湾区中兴北路以南，德政路以北，中兴二路以东，中兴中路以西的部分片区，包括国力凯旋城小区全域，新华联广场北片区的11～21栋，新力东园小区全域"}},{"type":"Feature","geometry":{"type":"Point","coordinates":[114.522847,22.750741]},"properties":{"full_address":"广东省惠州市大亚湾区澳头街道天悦龙庭12栋"}},{"type":"Feature","geometry":{"type":"Point","coordinates":[116.191869,23.746962]},"properties":{"full_address":"广东省梅州市丰顺县汤坑镇湖下金兴路一巷2号（汤坑公寓）"}},{"type":"Feature","geometry":{"type":"Point","coordinates":[116.204773,23.736376]},"properties":{"full_address":"广东省梅州市丰顺县埔寨镇双胞胎饲料有限公司（丰顺县埔寨农场）"}},{"type":"Feature","geometry":{"type":"Point","coordinates":[116.122176,23.625943]},"properties":{"full_address":"广东省梅州市丰顺县埔寨镇埔寨农场肥佬饭店"}},{"type":"Feature","geometry":{"type":"Point","coordinates":[107.967941,21.547289]},"properties":{"full_address":"广西壮族自治区防城港市东兴市七星社区第2网格"}},{"type":"Feature","geometry":{"type":"Point","coordinates":[107.967941,21.547289]},"properties":{"full_address":"广西壮族自治区防城港市东兴市七星社区第4网格"}},{"type":"Feature","geometry":{"type":"Point","coordinates":[107.96775,21.55367]},"properties":{"full_address":"广西壮族自治区防城港市东兴市七星社区天和路明秀小区"}},{"type":"Feature","geometry":{"type":"Point","coordinates":[107.967916,21.538029]},"properties":{"full_address":"广西壮族自治区防城港市东兴市公园社区第1网格"}},{"type":"Feature","geometry":{"type":"Point","coordinates":[107.972783,21.542026]},"properties":{"full_address":"广西壮族自治区防城港市东兴市中山社区第2网格"}},{"type":"Feature","geometry":{"type":"Point","coordinates":[107.975283,21.543677]},"properties":{"full_address":"广西壮族自治区防城港市东兴市中山社区北仑大道桂滨小区"}},{"type":"Feature","geometry":{"type":"Point","coordinates":[108.020438,21.565536]},"properties":{"full_address":"广西壮族自治区防城港市东兴市楠木山村"}},{"type":"Feature","geometry":{"type":"Point","coordinates":[107.979378,21.558403]},"properties":{"full_address":"广西壮族自治区防城港市东兴市深沟社区金湖路89号华隆凤翔阁小区"}},{"type":"Feature","geometry":{"type":"Point","coordinates":[107.967941,21.547289]},"properties":{"full_address":"广西壮族自治区防城港市东兴市七星社区第13网格成德国际贸易广场商住小区（含商铺）"}},{"type":"Feature","geometry":{"type":"Point","coordinates":[107.986687,21.55583]},"properties":{"full_address":"广西壮族自治区防城港市东兴市深沟社区第4网格喜盈门小区17栋、18栋、19栋、20栋"}},{"type":"Feature","geometry":{"type":"Point","coordinates":[107.977458,21.559778]},"properties":{"full_address":"广西壮族自治区防城港市东兴市深沟社区第13网格东盟花园小区"}},{"type":"Feature","geometry":{"type":"Point","coordinates":[107.975128,21.552825]},"properties":{"full_address":"广西壮族自治区防城港市东兴市深沟社区第22网格的明基花园"}},{"type":"Feature","geometry":{"type":"Point","coordinates":[107.967941,21.547289]},"properties":{"full_address":"广西壮族自治区防城港市东兴市七星社区第21网格"}},{"type":"Feature","geometry":{"type":"Point","coordinates":[108.008751,21.666996]},"properties":{"full_address":"广西壮族自治区防城港市东兴市马路镇大桥村大桥组"}},{"type":"Feature","geometry":{"type":"Point","coordinates":[109.702531,18.310701]},"properties":{"full_address":"海南省三亚市海棠区林旺社区管委会204号房（检察室旁边的宿舍楼）"}},{"type":"Feature","geometry":{"type":"Point","coordinates":[109.762974,18.312921]},"properties":{"full_address":"海南省三亚市海棠区江林社区林旺镇林旺南安置区A2-31、A1-12"}},{"type":"Feature","geometry":{"type":"Point","coordinates":[109.511854,18.250412]},"properties":{"full_address":"海南省三亚市吉阳区商品街社区麒麟巷20号政府大院1、2、4、6栋"}},{"type":"Feature","geometry":{"type":"Point","coordinates":[109.512112,18.249625]},"properties":{"full_address":"海南省三亚市吉阳区商品街社区河东路中亚酒店后面怡和花园小区"}},{"type":"Feature","geometry":{"type":"Point","coordinates":[109.537038,18.30166]},"properties":{"full_address":"海南省三亚市吉阳区南新居得月村"}},{"type":"Feature","geometry":{"type":"Point","coordinates":[109.505435,18.269903]},"properties":{"full_address":"海南省三亚市吉阳区新月社区金凤凰山庄小区2栋，3栋1单元"}},{"type":"Feature","geometry":{"type":"Point","coordinates":[109.500272,18.312721]},"properties":{"full_address":"海南省三亚市吉阳区抱坡村委会东至师部农场路，北至海上丝绸之路，西至和盛兴业钢材（包含和盛兴业），南至芒果地边缘"}},{"type":"Feature","geometry":{"type":"Point","coordinates":[109.529022,18.291428]},"properties":{"full_address":"海南省三亚市吉阳区东岸村委会保利悦府小区（6、7、8栋除外）"}},{"type":"Feature","geometry":{"type":"Point","coordinates":[109.519358,18.294183]},"properties":{"full_address":"海南省三亚市吉阳区南新居食品厂小区，千百惠超市仓库"}},{"type":"Feature","geometry":{"type":"Point","coordinates":[109.513522,18.247656]},"properties":{"full_address":"海南省三亚市吉阳区商品街社区八巷10、12、14号楼"}},{"type":"Feature","geometry":{"type":"Point","coordinates":[109.514052,18.248728]},"properties":{"full_address":"海南省三亚市吉阳区商品街社区十巷20号，十一巷17号、19号"}},{"type":"Feature","geometry":{"type":"Point","coordinates":[109.51552,18.24654]},"properties":{"full_address":"海南省三亚市吉阳区商品街社区五巷49、51号楼"}},{"type":"Feature","geometry":{"type":"Point","coordinates":[109.531242,18.251418]},"properties":{"full_address":"海南省三亚市吉阳区临春社区第二网格：北至狗岭路，东至人民防空办公室，南至嘉诚超市，西至临春二路；"}},{"type":"Feature","geometry":{"type":"Point","coordinates":[109.530308,18.251817]},"properties":{"full_address":"海南省三亚市吉阳区临春社区第三网格：东至临春二路 ，北至狗岭路，南至三路五巷，西至临春花都花卉苗圃（ 除三路三巷35号、40号、41号高风险区外）"}},{"type":"Feature","geometry":{"type":"Point","coordinates":[109.527553,18.248668]},"properties":{"full_address":"海南省三亚市吉阳区临春社区第四网格： 东至四网格与五，七网格分界线，西至山水国际外围，北至三路五巷，南至临春农贸市场"}},{"type":"Feature","geometry":{"type":"Point","coordinates":[109.527553,18.248668]},"properties":{"full_address":"海南省三亚市吉阳区临春社区第七网格： 东至六路一巷，北至六网格与五网格分界线，西至大汇嘉园外围，南至临春七组安置区山顶"}},{"type":"Feature","geometry":{"type":"Point","coordinates":[109.51228,18.2441]},"properties":{"full_address":"海南省三亚市吉阳区港门村社区第一网格：河东路至榆亚路(除教育巷3号为高风险区；鸿洲时代海岸小区、市教育局、河东路128号和130号为低风险区）"}},{"type":"Feature","geometry":{"type":"Point","coordinates":[109.516533,18.237469]},"properties":{"full_address":"海南省三亚市吉阳区港门村社区第二网格：临春河一巷至十三巷（除临春河五巷2号、临春河十二巷11号为高风险地区；美丰小区、三永银河海湾小区、临春河路市委工地为低风险区）；临春河路41号到135号；市委安置楼"}},{"type":"Feature","geometry":{"type":"Point","coordinates":[109.515966,18.238819]},"properties":{"full_address":"海南省三亚市吉阳区港门村社区第三网格：东一路一巷（除26号、49号、60号、86号）、东一路二巷（除佳家公寓3号楼）、东二路（除21号、31号、38号、43号、68号、103号）、东三路"}},{"type":"Feature","geometry":{"type":"Point","coordinates":[109.5147,18.239842]},"properties":{"full_address":"海南省三亚市吉阳区港门村社区第四网格：三路（除19号、22号、23号、24号、45号、49号）、四路（除20号、24号、25号、28号）"}},{"type":"Feature","geometry":{"type":"Point","coordinates":[109.51511321101839,18.241484996659494]},"properties":{"full_address":"海南省三亚市吉阳区港门村社区第五网格：港门村上村路（除31号、60号、69号、亮威公寓）、一路一巷（除8号、15号）"}},{"type":"Feature","geometry":{"type":"Point","coordinates":[109.5147,18.239842]},"properties":{"full_address":"海南省三亚市吉阳区港门村社区第六网格：二路（除21号、23号、27号、43号）"}},{"type":"Feature","geometry":{"type":"Point","coordinates":[109.513099,18.243745]},"properties":{"full_address":"海南省三亚市吉阳区港门村社区第七网格：一路四巷（除15号）、一路五巷（除聚龙公寓）"}},{"type":"Feature","geometry":{"type":"Point","coordinates":[109.51318551980786,18.236678870718432]},"properties":{"full_address":"海南省三亚市吉阳区港门村社区第八网格：港华街一巷、港华街二巷（除2号、6号）"}},{"type":"Feature","geometry":{"type":"Point","coordinates":[109.515924,18.244766]},"properties":{"full_address":"海南省三亚市吉阳区港门村社区第九网格：一路二巷（除2号、4号、22号、24号、30号、36号、41号、45号、福全兴超市、鹭园公寓、利维公寓、天龙大厦）、一路三巷（除12号、24号、26号、29号、32号）"}},{"type":"Feature","geometry":{"type":"Point","coordinates":[109.521157,18.231105]},"properties":{"full_address":"海南省三亚市吉阳区下洋田社区下洋田一路八巷158号"}},{"type":"Feature","geometry":{"type":"Point","coordinates":[109.510435,18.261156]},"properties":{"full_address":"海南省三亚市吉阳区月川社区川河路一巷8-2、8-3、8-4；川河路二巷8-12、8-14、8-16、8-21、8-23、8-25；川河路三巷8-42、8-44、8-46"}},{"type":"Feature","geometry":{"type":"Point","coordinates":[109.505758,18.263635]},"properties":{"full_address":"海南省三亚市吉阳区月川社区东一巷1-82、1-83、1-85、1-90、1-91、1-89、1-73、1-74、1-75、1-76；东一巷4-32、4-33、4-35、4-34、4-37、4-30、4-36、4-92、4-90、4-91、4-93、4-94、4-86"}},{"type":"Feature","geometry":{"type":"Point","coordinates":[109.505758,18.263635]},"properties":{"full_address":"海南省三亚市吉阳区月川社区东二巷2-61、2-62、2-63、2-71、2-72、2-73、2-74、2-75；东二巷3-59、3-58、3-57、3-56、3-55、3-69、3-70、3-71、3-68、3-61、3-60；东二巷5-38、5-35、5-36、5-37、5-41、5-40、5-39、5-42"}},{"type":"Feature","geometry":{"type":"Point","coordinates":[109.451951,18.296619]},"properties":{"full_address":"海南省三亚市天涯区羊新社区龙眼园路437、438、439号"}},{"type":"Feature","geometry":{"type":"Point","coordinates":[109.440284,18.299698]},"properties":{"full_address":"海南省三亚市天涯区回辉社区东至一村五路与一村中路交接处，西至一村五路小巷口，南至一村五路南侧居民楼边界，北至一村五路北侧居民楼边界"}},{"type":"Feature","geometry":{"type":"Point","coordinates":[109.446786,18.309886]},"properties":{"full_address":"海南省三亚市天涯区水蛟村委会东至水蛟路（不包括凤凰八一新村），南至鹿城大道，西至三亚博鑫商旅，北至新开田一组北部田边"}},{"type":"Feature","geometry":{"type":"Point","coordinates":[109.454758,18.296332]},"properties":{"full_address":"海南省三亚市天涯区羊栏村委会羊西五小组64号楼"}},{"type":"Feature","geometry":{"type":"Point","coordinates":[109.451631,18.303056]},"properties":{"full_address":"海南省三亚市天涯区羊栏村委会羊栏留一间旅租楼栋"}},{"type":"Feature","geometry":{"type":"Point","coordinates":[109.412643,18.298156]},"properties":{"full_address":"海南省三亚市天涯区桶井村委会凤凰村三小组"}},{"type":"Feature","geometry":{"type":"Point","coordinates":[109.507655,18.242058]},"properties":{"full_address":"海南省三亚市天涯区建设街社区建设街"}},{"type":"Feature","geometry":{"type":"Point","coordinates":[109.507952,18.242833]},"properties":{"full_address":"海南省三亚市天涯区建设街社区立新巷"}},{"type":"Feature","geometry":{"type":"Point","coordinates":[109.507975,18.243356]},"properties":{"full_address":"海南省三亚市天涯区建设街社区建新巷"}},{"type":"Feature","geometry":{"type":"Point","coordinates":[109.506862,18.254836]},"properties":{"full_address":"海南省三亚市天涯区春园社区三亚市疾控中心住宅区"}},{"type":"Feature","geometry":{"type":"Point","coordinates":[109.504343,18.240476]},"properties":{"full_address":"海南省三亚市天涯区建设街社区跃进街"}},{"type":"Feature","geometry":{"type":"Point","coordinates":[109.499279,18.258036]},"properties":{"full_address":"海南省三亚市天涯区儋州村社区第1-5网格（东至解放路，西至胜利路，南至团结路，北至吉祥街）"}},{"type":"Feature","geometry":{"type":"Point","coordinates":[109.451951,18.296619]},"properties":{"full_address":"海南省三亚市天涯区羊新社区龙眼园路一巷往东到居委会门口"}},{"type":"Feature","geometry":{"type":"Point","coordinates":[109.508004,18.223682]},"properties":{"full_address":"海南省三亚市天涯区   南海社区渔村路十三巷213号、211-1号、207-1号"}},{"type":"Feature","geometry":{"type":"Point","coordinates":[109.44074,18.305735]},"properties":{"full_address":"海南省三亚市天涯区水蛟村委会新开田村二组"}},{"type":"Feature","geometry":{"type":"Point","coordinates":[109.446771,18.293451]},"properties":{"full_address":"海南省三亚市天涯区海坡社区海坡安置区（除4栋）"}},{"type":"Feature","geometry":{"type":"Point","coordinates":[109.306665,18.448293]},"properties":{"full_address":"海南省三亚市育才生态区育才生态区政府周转楼4栋"}},{"type":"Feature","geometry":{"type":"Point","coordinates":[109.315539,18.426673]},"properties":{"full_address":"海南省三亚市育才生态区龙密村委会卡巴三组"}},{"type":"Feature","geometry":{"type":"Point","coordinates":[109.217784,19.744993]},"properties":{"full_address":"海南省儋州市市辖区新英湾办事处：新都居委会"}},{"type":"Feature","geometry":{"type":"Point","coordinates":[109.598778,19.530758]},"properties":{"full_address":"海南省儋州市市辖区那大镇城北社区：亚澜湾7栋1单元"}},{"type":"Feature","geometry":{"type":"Point","coordinates":[109.583852,19.527236]},"properties":{"full_address":"海南省儋州市市辖区那大镇先锋社区：文化北路泰安苑F2、F4、A3、A6栋"}},{"type":"Feature","geometry":{"type":"Point","coordinates":[106.452965,29.530242]},"properties":{"full_address":"重庆市重庆市渝中区凤驿来凤鱼璧山兔（解放碑步行街店）"}},{"type":"Feature","geometry":{"type":"Point","coordinates":[106.582207,29.558299]},"properties":{"full_address":"重庆市重庆市渝中区田土香老菜坊（解放碑店）"}},{"type":"Feature","geometry":{"type":"Point","coordinates":[106.573517,29.555678]},"properties":{"full_address":"重庆市重庆市渝中区邓记莽子老火锅（民生路店）"}},{"type":"Feature","geometry":{"type":"Point","coordinates":[106.582606,29.557467]},"properties":{"full_address":"重庆市重庆市渝中区练杰精品酒店（解放碑长江索道店）"}},{"type":"Feature","geometry":{"type":"Point","coordinates":[106.572768,29.560624]},"properties":{"full_address":"重庆市重庆市渝中区临江路16号文华大厦A、B、C栋"}},{"type":"Feature","geometry":{"type":"Point","coordinates":[106.571603,29.558197]},"properties":{"full_address":"重庆市重庆市渝中区华莱士炸鸡汉堡临江路店所在楼栋及临街店铺（渝中区临江路118号、118号附1-2号、126号）"}},{"type":"Feature","geometry":{"type":"Point","coordinates":[104.14786156477383,30.60055956200256]},"properties":{"full_address":"四川省成都市锦江区锦江区成龙路街道锦蓉佳苑1-10栋，包括1栋、7-10栋底层商户"}},{"type":"Feature","geometry":{"type":"Point","coordinates":[104.142819,30.598946]},"properties":{"full_address":"四川省成都市锦江区锦江区成龙路街道鑫苑名家2期1-8栋"}},{"type":"Feature","geometry":{"type":"Point","coordinates":[104.13812,30.59115]},"properties":{"full_address":"四川省成都市锦江区锦江区三圣街道华都美林湾3栋、5栋、9栋、12栋、16栋，包括3栋底商"}},{"type":"Feature","geometry":{"type":"Point","coordinates":[104.1077964105054,30.594475426286703]},"properties":{"full_address":"四川省成都市锦江区锦江区柳江街道皇经楼新居 69 号 1-6 栋，含底商"}},{"type":"Feature","geometry":{"type":"Point","coordinates":[104.11551718310373,30.638792867784677]},"properties":{"full_address":"四川省成都市锦江区锦江区沙河街道中粮•鸿云1栋-4栋、6-10栋及其底商"}},{"type":"Feature","geometry":{"type":"Point","coordinates":[104.151468,30.582843]},