{"type":"FeatureCollection","features":[{"type":"Feature","geometry":{"type":"Point","coordinates":[116.547074,39.948015]},"properties":{"full_address":"北京市朝阳区平房（地区）乡泓鑫家园小区（除7号楼外）其他楼宇及底商"}},{"type":"Feature","geometry":{"type":"Point","coordinates":[116.522923,39.920841]},"properties":{"full_address":"北京市朝阳区平房（地区）乡天鹅湾北区18号楼4单元"}},{"type":"Feature","geometry":{"type":"Point","coordinates":[116.550581,39.950246]},"properties":{"full_address":"北京市朝阳区东坝（地区）乡高杨树北里11号楼2单元"}},{"type":"Feature","geometry":{"type":"Point","coordinates":[116.529909,40.008214]},"properties":{"full_address":"北京市朝阳区崔各庄（地区）乡京旺家园1区9号楼"}},{"type":"Feature","geometry":{"type":"Point","coordinates":[116.557963,39.910652]},"properties":{"full_address":"北京市朝阳区三间房（地区）乡中国传媒大学北苑餐厅、 40号楼、 南苑餐厅、 22号楼"}},{"type":"Feature","geometry":{"type":"Point","coordinates":[116.578126,39.906108]},"properties":{"full_address":"北京市朝阳区三间房（地区）乡康惠园小区3号院4号楼"}},{"type":"Feature","geometry":{"type":"Point","coordinates":[116.299613,39.863219]},"properties":{"full_address":"北京市丰台区丰台街道东大街6号院12号楼7、8单元"}},{"type":"Feature","geometry":{"type":"Point","coordinates":[116.315824,39.950937]},"properties":{"full_address":"北京市海淀区紫竹院街道中央民族大学附属中学本部（法华寺路甲5号）女生宿舍楼"}},{"type":"Feature","geometry":{"type":"Point","coordinates":[116.661075,39.965074]},"properties":{"full_address":"北京市通州区宋庄镇富豪村除956号、998号、999号、1000号外的其他区域"}},{"type":"Feature","geometry":{"type":"Point","coordinates":[116.149712,40.253854]},"properties":{"full_address":"北京市昌平区南口（地区）镇北京化工大学昌平校区1号楼、2号楼、3号楼、4号楼、11号楼"}},{"type":"Feature","geometry":{"type":"Point","coordinates":[116.521437,39.82063]},"properties":{"full_address":"北京市大兴区亦庄（地区）镇小康家园小区除14号楼以外其他楼栋"}},{"type":"Feature","geometry":{"type":"Point","coordinates":[117.259505,39.140623]},"properties":{"full_address":"天津市天津市河东区向阳楼街道星河花园2号楼、4号楼"}},{"type":"Feature","geometry":{"type":"Point","coordinates":[117.267894,39.114512]},"properties":{"full_address":"天津市天津市河东区上杭路街道大洋嘉园（15号楼、16号楼除外）、陆典庭园"}},{"type":"Feature","geometry":{"type":"Point","coordinates":[117.262482,39.114846]},"properties":{"full_address":"天津市天津市河东区上杭路街道第博雅园（52号楼除外）"}},{"type":"Feature","geometry":{"type":"Point","coordinates":[117.230126,39.0978]},"properties":{"full_address":"天津市天津市河西区挂甲寺街名仕达花园除8号楼之外的区域"}},{"type":"Feature","geometry":{"type":"Point","coordinates":[117.239233,39.092083]},"properties":{"full_address":"天津市天津市河西区挂甲寺街景兴西里、景兴里全域（除垃圾转运站）"}},{"type":"Feature","geometry":{"type":"Point","coordinates":[117.237497,39.095322]},"properties":{"full_address":"天津市天津市河西区挂甲寺街美宁公寓（除高风险区域外）、排水大楼合围区域"}},{"type":"Feature","geometry":{"type":"Point","coordinates":[117.229477,39.078185]},"properties":{"full_address":"天津市天津市河西区尖山街五一家园小区除8号楼以外的其他区域"}},{"type":"Feature","geometry":{"type":"Point","coordinates":[117.133568,39.141717]},"properties":{"full_address":"天津市天津市南开区向阳路街云阳里小区（除1号楼5门、6门外）"}},{"type":"Feature","geometry":{"type":"Point","coordinates":[117.181894,39.06634]},"properties":{"full_address":"天津市天津市南开区体育中心街阳光壹佰小区北区7号楼4门"}},{"type":"Feature","geometry":{"type":"Point","coordinates":[117.151787,39.126039]},"properties":{"full_address":"天津市天津市南开区万兴街苏堤西里小区1号楼（除1门外）"}},{"type":"Feature","geometry":{"type":"Point","coordinates":[117.283108,39.123248]},"properties":{"full_address":"天津市天津市东丽区万新街万隆花园小区除高风险以外区域"}},{"type":"Feature","geometry":{"type":"Point","coordinates":[117.295912,39.111227]},"properties":{"full_address":"天津市天津市东丽区万新街好美嘉园小区4、5、11、12、13、14号楼"}},{"type":"Feature","geometry":{"type":"Point","coordinates":[117.306282,39.138714]},"properties":{"full_address":"天津市天津市东丽区万新街香邑国际小区2、5、7、8号楼"}},{"type":"Feature","geometry":{"type":"Point","coordinates":[117.298923,39.106556]},"properties":{"full_address":"天津市天津市东丽区新立街融春园小区除高风险区以外区域"}},{"type":"Feature","geometry":{"type":"Point","coordinates":[117.214806,39.003059]},"properties":{"full_address":"天津市天津市西青区大寺镇金龙鑫苑（除14号楼）"}},{"type":"Feature","geometry":{"type":"Point","coordinates":[117.252128,39.010312]},"properties":{"full_address":"天津市天津市西青区大寺镇龙顺园1—5号楼"}},{"type":"Feature","geometry":{"type":"Point","coordinates":[117.213229,38.940381]},"properties":{"full_address":"天津市天津市西青区王稳庄镇小孙庄村平房区域"}},{"type":"Feature","geometry":{"type":"Point","coordinates":[117.27083,39.04791]},"properties":{"full_address":"天津市天津市津南区双林街泓春园10号楼、11号楼、13号楼、14号楼"}},{"type":"Feature","geometry":{"type":"Point","coordinates":[115.57344,38.87353]},"properties":{"full_address":"河北省保定市莲池区南起腾飞路、北至七一路、东起慕子医院（恒升路99号）、西至卓正国际酒店（七一东路2358号）合围区域"}},{"type":"Feature","geometry":{"type":"Point","coordinates":[115.435954,38.757644]},"properties":{"full_address":"河北省保定市清苑区白团乡东壁阳城村"}},{"type":"Feature","geometry":{"type":"Point","coordinates":[115.44762,38.74427]},"properties":{"full_address":"河北省保定市清苑区白团乡辛庄村"}},{"type":"Feature","geometry":{"type":"Point","coordinates":[117.776904,40.95381]},"properties":{"full_address":"河北省承德市双滦区锦绣城一区除11号楼以外的区域"}},{"type":"Feature","geometry":{"type":"Point","coordinates":[117.753059,40.959505]},"properties":{"full_address":"河北省承德市双滦区双塔山镇大龙庙村回迁楼除3号楼外其他楼宇"}},{"type":"Feature","geometry":{"type":"Point","coordinates":[117.711873,40.93777]},"properties":{"full_address":"河北省承德市双滦区西地镇八里庄村10组"}},{"type":"Feature","geometry":{"type":"Point","coordinates":[117.944974,40.895261]},"properties":{"full_address":"河北省承德市高新区冯营子村乡村大锅台（凤凰御景店）"}},{"type":"Feature","geometry":{"type":"Point","coordinates":[117.952082,40.892476]},"properties":{"full_address":"河北省承德市高新区润园朗园小区除朗园30号楼以外其他楼栋"}},{"type":"Feature","geometry":{"type":"Point","coordinates":[116.826839,40.043865]},"properties":{"full_address":"河北省廊坊市三河市嘉都小区（31号楼除外）"}},{"type":"Feature","geometry":{"type":"Point","coordinates":[118.954627,42.265186]},"properties":{"full_address":"内蒙古自治区赤峰市红山区哈达街西段路北118号所有经营场所"}},{"type":"Feature","geometry":{"type":"Point","coordinates":[119.477596,42.582123]},"properties":{"full_address":"内蒙古自治区赤峰市松山区哈拉道口学区中学"}},{"type":"Feature","geometry":{"type":"Point","coordinates":[119.344696,42.433139]},"properties":{"full_address":"内蒙古自治区赤峰市松山区安庆镇西域宾馆"}},{"type":"Feature","geometry":{"type":"Point","coordinates":[118.924246,42.273449]},"properties":{"full_address":"内蒙古自治区赤峰市松山区玉龙大街以北、契丹大街以南、松洲路以东、松城路以西整个片区除三个高风险区以外的区域"}},{"type":"Feature","geometry":{"type":"Point","coordinates":[118.929019,42.268288]},"properties":{"full_address":"内蒙古自治区赤峰市松山区松洲街道天王商务楼"}},{"type":"Feature","geometry":{"type":"Point","coordinates":[118.93418,42.28548]},"properties":{"full_address":"内蒙古自治区赤峰市松山区振兴街道永业广场"}},{"type":"Feature","geometry":{"type":"Point","coordinates":[119.343347,42.431247]},"properties":{"full_address":"内蒙古自治区赤峰市松山区安庆镇小北道村馨安小区"}},{"type":"Feature","geometry":{"type":"Point","coordinates":[120.097964,43.877284]},"properties":{"full_address":"内蒙古自治区赤峰市阿鲁科尔沁旗天山镇天元大街东桥东路北天山实验小学"}},{"type":"Feature","geometry":{"type":"Point","coordinates":[120.355676,43.771317]},"properties":{"full_address":"内蒙古自治区赤峰市阿鲁科尔沁旗天山口镇柳家段村"}},{"type":"Feature","geometry":{"type":"Point","coordinates":[120.109355,43.808673]},"properties":{"full_address":"内蒙古自治区赤峰市阿鲁科尔沁旗天山口镇八家村"}},{"type":"Feature","geometry":{"type":"Point","coordinates":[120.055312,43.872946]},"properties":{"full_address":"内蒙古自治区赤峰市阿鲁科尔沁旗汉林西街南天山一中"}},{"type":"Feature","geometry":{"type":"Point","coordinates":[119.65428,42.733059]},"properties":{"full_address":"内蒙古自治区赤峰市翁牛特旗乌敦套海镇强盛幼儿园"}},{"type":"Feature","geometry":{"type":"Point","coordinates":[119.653932,42.730888]},"properties":{"full_address":"内蒙古自治区赤峰市翁牛特旗乌敦套海镇红湖家园"}},{"type":"Feature","geometry":{"type":"Point","coordinates":[119.65202,42.724166]},"properties":{"full_address":"内蒙古自治区赤峰市翁牛特旗乌敦套海镇中心小学"}},{"type":"Feature","geometry":{"type":"Point","coordinates":[119.659349,42.732368]},"properties":{"full_address":"内蒙古自治区赤峰市翁牛特旗乌敦套海镇瑞海家园"}},{"type":"Feature","geometry":{"type":"Point","coordinates":[119.654878,42.730804]},"properties":{"full_address":"内蒙古自治区赤峰市翁牛特旗乌敦套海镇新城大街临街商厅"}},{"type":"Feature","geometry":{"type":"Point","coordinates":[119.654893,42.747034]},"properties":{"full_address":"内蒙古自治区赤峰市翁牛特旗乌敦套海镇新北村"}},{"type":"Feature","geometry":{"type":"Point","coordinates":[119.660583,42.73194]},"properties":{"full_address":"内蒙古自治区赤峰市翁牛特旗乌敦套海镇湖畔新苑小区"}},{"type":"Feature","geometry":{"type":"Point","coordinates":[119.655994,42.730547]},"properties":{"full_address":"内蒙古自治区赤峰市翁牛特旗乌敦套海镇御鑫家园小区"}},{"type":"Feature","geometry":{"type":"Point","coordinates":[119.017597,42.935484]},"properties":{"full_address":"内蒙古自治区赤峰市翁牛特旗乌敦套海镇滨湖一期小区"}},{"type":"Feature","geometry":{"type":"Point","coordinates":[119.659349,42.732368]},"properties":{"full_address":"内蒙古自治区赤峰市翁牛特旗乌敦套海镇供销社家属院"}},{"type":"Feature","geometry":{"type":"Point","coordinates":[119.659349,42.732368]},"properties":{"full_address":"内蒙古自治区赤峰市翁牛特旗乌敦套海镇林场家属院"}},{"type":"Feature","geometry":{"type":"Point","coordinates":[119.656467,42.730462]},"properties":{"full_address":"内蒙古自治区赤峰市翁牛特旗乌敦套海镇新城居委会道班家属院平房区"}},{"type":"Feature","geometry":{"type":"Point","coordinates":[119.645367,42.611918]},"properties":{"full_address":"内蒙古自治区赤峰市翁牛特旗乌敦套海镇太湖山村"}},{"type":"Feature","geometry":{"type":"Point","coordinates":[119.648407,42.801648]},"properties":{"full_address":"内蒙古自治区赤峰市翁牛特旗乌敦套海镇新府村"}},{"type":"Feature","geometry":{"type":"Point","coordinates":[119.584607,42.74222]},"properties":{"full_address":"内蒙古自治区赤峰市翁牛特旗乌敦套海镇五牌子村"}},{"type":"Feature","geometry":{"type":"Point","coordinates":[119.831752,42.914444]},"properties":{"full_address":"内蒙古自治区赤峰市翁牛特旗乌敦套海镇那吉来村"}},{"type":"Feature","geometry":{"type":"Point","coordinates":[119.464949,42.68886]},"properties":{"full_address":"内蒙古自治区赤峰市翁牛特旗乌敦套海镇北井村"}},{"type":"Feature","geometry":{"type":"Point","coordinates":[119.017597,42.935484]},"properties":{"full_address":"内蒙古自治区赤峰市翁牛特旗吉祥家园小区"}},{"type":"Feature","geometry":{"type":"Point","coordinates":[119.017597,42.935484]},"properties":{"full_address":"内蒙古自治区赤峰市翁牛特旗农业小区"}},{"type":"Feature","geometry":{"type":"Point","coordinates":[119.019687,42.940332]},"properties":{"full_address":"内蒙古自治区赤峰市翁牛特旗国税小区1号、2号、3号、4号楼"}},{"type":"Feature","geometry":{"type":"Point","coordinates":[119.016018,42.940028]},"properties":{"full_address":"内蒙古自治区赤峰市翁牛特旗车站小区"}},{"type":"Feature","geometry":{"type":"Point","coordinates":[119.00658,42.936188]},"properties":{"full_address":"内蒙古自治区赤峰市翁牛特旗开发办家属楼"}},{"type":"Feature","geometry":{"type":"Point","coordinates":[119.015848,42.941167]},"properties":{"full_address":"内蒙古自治区赤峰市翁牛特旗玉龙公馆"}},{"type":"Feature","geometry":{"type":"Point","coordinates":[119.016196,42.941418]},"properties":{"full_address":"内蒙古自治区赤峰市翁牛特旗邮电小区"}},{"type":"Feature","geometry":{"type":"Point","coordinates":[119.016016,42.941711]},"properties":{"full_address":"内蒙古自治区赤峰市翁牛特旗邮政小区"}},{"type":"Feature","geometry":{"type":"Point","coordinates":[119.015422,42.942174]},"properties":{"full_address":"内蒙古自治区赤峰市翁牛特旗金地人家5号楼"}},{"type":"Feature","geometry":{"type":"Point","coordinates":[119.015473,42.939576]},"properties":{"full_address":"内蒙古自治区赤峰市翁牛特旗玉龙家园"}},{"type":"Feature","geometry":{"type":"Point","coordinates":[119.025422,42.930424]},"properties":{"full_address":"内蒙古自治区赤峰市翁牛特旗乌丹第一幼儿园东侧平房区"}},{"type":"Feature","geometry":{"type":"Point","coordinates":[118.999735,42.939248]},"properties":{"full_address":"内蒙古自治区赤峰市翁牛特旗民政家园"}},{"type":"Feature","geometry":{"type":"Point","coordinates":[119.000123,42.937821]},"properties":{"full_address":"内蒙古自治区赤峰市翁牛特旗兴和家园小区"}},{"type":"Feature","geometry":{"type":"Point","coordinates":[118.998215,42.940216]},"properties":{"full_address":"内蒙古自治区赤峰市翁牛特旗天和盛景小区"}},{"type":"Feature","geometry":{"type":"Point","coordinates":[116.10221,43.952801]},"properties":{"full_address":"内蒙古自治区锡林郭勒盟锡林浩特市双拥小区街面房富祥汽车电器电路修理店"}},{"type":"Feature","geometry":{"type":"Point","coordinates":[116.106498,43.945991]},"properties":{"full_address":"内蒙古自治区锡林郭勒盟锡林浩特市109干休所对面思宁汽车钣金喷漆店"}},{"type":"Feature","geometry":{"type":"Point","coordinates":[116.086032,43.933411]},"properties":{"full_address":"内蒙古自治区锡林郭勒盟锡林浩特市二水厂家属楼"}},{"type":"Feature","geometry":{"type":"Point","coordinates":[116.063667,43.944167]},"properties":{"full_address":"内蒙古自治区锡林郭勒盟锡林浩特市大业金河湾B区"}},{"type":"Feature","geometry":{"type":"Point","coordinates":[116.065901,43.942026]},"properties":{"full_address":"内蒙古自治区锡林郭勒盟锡林浩特市大业金河湾D区"}},{"type":"Feature","geometry":{"type":"Point","coordinates":[116.061952,43.938945]},"properties":{"full_address":"内蒙古自治区锡林郭勒盟锡林浩特市南方小镇小区"}},{"type":"Feature","geometry":{"type":"Point","coordinates":[116.10715,43.964987]},"properties":{"full_address":"内蒙古自治区锡林郭勒盟锡林浩特市幸福社区小区"}},{"type":"Feature","geometry":{"type":"Point","coordinates":[116.096464,43.958625]},"properties":{"full_address":"内蒙古自治区锡林郭勒盟锡林浩特市长安丽景小区"}},{"type":"Feature","geometry":{"type":"Point","coordinates":[116.099189,43.949954]},"properties":{"full_address":"内蒙古自治区锡林郭勒盟锡林浩特市玉玺小区"}},{"type":"Feature","geometry":{"type":"Point","coordinates":[116.109495,43.961153]},"properties":{"full_address":"内蒙古自治区锡林郭勒盟锡林浩特市公园首府小区"}},{"type":"Feature","geometry":{"type":"Point","coordinates":[116.086017,43.927285]},"properties":{"full_address":"内蒙古自治区锡林郭勒盟锡林浩特市都市上苑小区"}},{"type":"Feature","geometry":{"type":"Point","coordinates":[116.107063,43.932285]},"properties":{"full_address":"内蒙古自治区锡林郭勒盟锡林浩特市万泰家园"}},{"type":"Feature","geometry":{"type":"Point","coordinates":[116.103649,43.934393]},"properties":{"full_address":"内蒙古自治区锡林郭勒盟锡林浩特市理想家园小区"}},{"type":"Feature","geometry":{"type":"Point","coordinates":[116.066722,43.918701]},"properties":{"full_address":"内蒙古自治区锡林郭勒盟锡林浩特市城上城小区"}},{"type":"Feature","geometry":{"type":"Point","coordinates":[116.044258,43.913998]},"properties":{"full_address":"内蒙古自治区锡林郭勒盟锡林浩特市方悦名都A区"}},{"type":"Feature","geometry":{"type":"Point","coordinates":[116.053522,43.920278]},"properties":{"full_address":"内蒙古自治区锡林郭勒盟锡林浩特市方悦名都D区"}},{"type":"Feature","geometry":{"type":"Point","coordinates":[116.063497,43.910066]},"properties":{"full_address":"内蒙古自治区锡林郭勒盟锡林浩特市鑫泰苑小区"}},{"type":"Feature","geometry":{"type":"Point","coordinates":[116.096672,43.952335]},"properties":{"full_address":"内蒙古自治区锡林郭勒盟锡林浩特市康盛嘉苑小区"}},{"type":"Feature","geometry":{"type":"Point","coordinates":[116.077806,43.923931]},"properties":{"full_address":"内蒙古自治区锡林郭勒盟锡林浩特市广达欣城小区"}},{"type":"Feature","geometry":{"type":"Point","coordinates":[116.112065,43.947463]},"properties":{"full_address":"内蒙古自治区锡林郭勒盟锡林浩特市额办小区"}},{"type":"Feature","geometry":{"type":"Point","coordinates":[116.086032,43.933411]},"properties":{"full_address":"内蒙古自治区锡林郭勒盟锡林浩特市康裕新苑小区"}},{"type":"Feature","geometry":{"type":"Point","coordinates":[116.065052,43.920037]},"properties":{"full_address":"内蒙古自治区锡林郭勒盟锡林浩特市富丽华庭小区"}},{"type":"Feature","geometry":{"type":"Point","coordinates":[116.064547,43.915543]},"properties":{"full_address":"内蒙古自治区锡林郭勒盟锡林浩特市溪林湾小区"}},{"type":"Feature","geometry":{"type":"Point","coordinates":[116.077469,43.952523]},"properties":{"full_address":"内蒙古自治区锡林郭勒盟锡林浩特市紫藤花园小区"}},{"type":"Feature","geometry":{"type":"Point","coordinates":[116.086032,43.933411]},"properties":{"full_address":"内蒙古自治区锡林郭勒盟锡林浩特市信合小区"}},{"type":"Feature","geometry":{"type":"Point","coordinates":[123.389951,41.800657]},"properties":{"full_address":"辽宁省沈阳市铁西区北至北一东路，南至北二东路，东至沈大高速铁路线，西至云峰北街区域，除高风险区以外区域"}},{"type":"Feature","geometry":{"type":"Point","coordinates":[121.593,38.937661]},"properties":{"full_address":"辽宁省大连市西岗区香炉礁街道金海社区香水湾5号"}},{"type":"Feature","geometry":{"type":"Point","coordinates":[123.283921,40.289689]},"properties":{"full_address":"辽宁省鞍山市岫岩满族自治县阜昌街道办事处越都华庭小区"}},{"type":"Feature","geometry":{"type":"Point","coordinates":[125.655528,43.511944]},"properties":{"full_address":"吉林省长春市双阳区云山街道阳光安居小区3栋"}},{"type":"Feature","geometry":{"type":"Point","coordinates":[125.654929,43.512107]},"properties":{"full_address":"吉林省长春市双阳区云山街道阳光安居小区1、2栋"}},{"type":"Feature","geometry":{"type":"Point","coordinates":[125.660809,43.532061]},"properties":{"full_address":"吉林省长春市双阳区云山街道城市嘉园二期66号楼"}},{"type":"Feature","geometry":{"type":"Point","coordinates":[125.671886,43.528497]},"properties":{"full_address":"吉林省长春市双阳区云山街道石桥社区葡京市场"}},{"type":"Feature","geometry":{"type":"Point","coordinates":[123.205323,47.338665]},"properties":{"full_address":"黑龙江省齐齐哈尔市龙江县世纪九鼎小区5号楼"}},{"type":"Feature","geometry":{"type":"Point","coordinates":[125.123578,46.592079]},"properties":{"full_address":"黑龙江省大庆市萨尔图区东安街道东安新村三区东安小区（不含3-38号楼）"}},{"type":"Feature","geometry":{"type":"Point","coordinates":[125.107146,46.607646]},"properties":{"full_address":"黑龙江省大庆市萨尔图区绿园街道北辰一区1-43号楼"}},{"type":"Feature","geometry":{"type":"Point","coordinates":[125.115627,46.601515]},"properties":{"full_address":"黑龙江省大庆市萨尔图区东风街道东风新村新源小区B组团2-56号楼"}},{"type":"Feature","geometry":{"type":"Point","coordinates":[125.10019,46.602059]},"properties":{"full_address":"黑龙江省大庆市萨尔图区东风街道东风新村新星小区E组团内高风险区域以外其他区域"}},{"type":"Feature","geometry":{"type":"Point","coordinates":[125.1102,46.578954]},"properties":{"full_address":"黑龙江省大庆市萨尔图区万宝街道万宝一区"}},{"type":"Feature","geometry":{"type":"Point","coordinates":[125.104112,46.57616]},"properties":{"full_address":"黑龙江省大庆市萨尔图区万宝街道万宝二区"}},{"type":"Feature","geometry":{"type":"Point","coordinates":[125.027769,46.601347]},"properties":{"full_address":"黑龙江省大庆市萨尔图区会战街道利民苑小区（不含9号楼）"}},{"type":"Feature","geometry":{"type":"Point","coordinates":[125.106512,46.598914]},"properties":{"full_address":"黑龙江省大庆市萨尔图区东风街道新源小区E组团2-9号楼"}},{"type":"Feature","geometry":{"type":"Point","coordinates":[125.108714,46.589929]},"properties":{"full_address":"黑龙江省大庆市萨尔图区东风街道文华小区8-4号楼"}},{"type":"Feature","geometry":{"type":"Point","coordinates":[125.111517,46.601413]},"properties":{"full_address":"黑龙江省大庆市萨尔图区东风街道东风新村新源小区A组团2-26号楼"}},{"type":"Feature","geometry":{"type":"Point","coordinates":[125.128509,46.624688]},"properties":{"full_address":"黑龙江省大庆市萨尔图区东安街道东风新村安惠小区A组团3-13号楼"}},{"type":"Feature","geometry":{"type":"Point","coordinates":[125.126251,46.610971]},"properties":{"full_address":"黑龙江省大庆市萨尔图区绿园街道绿色家园小区S15号楼"}},{"type":"Feature","geometry":{"type":"Point","coordinates":[125.112562,46.602968]},"properties":{"full_address":"黑龙江省大庆市萨尔图区东风街道东风新村新源小区F组团南、西、北区内高风险区域以外其他区域（南、西、北区组成全域）"}},{"type":"Feature","geometry":{"type":"Point","coordinates":[125.122312,46.620644]},"properties":{"full_address":"黑龙江省大庆市萨尔图区格林街道香逸名苑小区一二期B5号楼"}},{"type":"Feature","geometry":{"type":"Point","coordinates":[125.106441,46.596359]},"properties":{"full_address":"黑龙江省大庆市萨尔图区东风街道东风新村新星小区A组团（一区）1-3号楼、1-14号楼"}},{"type":"Feature","geometry":{"type":"Point","coordinates":[125.161362,46.589081]},"properties":{"full_address":"黑龙江省大庆市萨尔图区黎明街道博学大街联想科技城小区（不含B7号楼、C5号楼及周边商服、B2号楼、B3号楼、C2号楼及周边商服）"}},{"type":"Feature","geometry":{"type":"Point","coordinates":[125.099163,46.578353]},"properties":{"full_address":"黑龙江省大庆市萨尔图区万宝街道奥维馨苑小区含周边商服（不含213号楼）"}},{"type":"Feature","geometry":{"type":"Point","coordinates":[125.130808,46.610154]},"properties":{"full_address":"黑龙江省大庆市萨尔图区黎明街道学伟大街沿湖城翠江湾A座"}},{"type":"Feature","geometry":{"type":"Point","coordinates":[125.162294,46.631382]},"properties":{"full_address":"黑龙江省大庆市萨尔图区黎明街道生态大街爱莲堡花园小区"}},{"type":"Feature","geometry":{"type":"Point","coordinates":[125.138442,46.623346]},"properties":{"full_address":"黑龙江省大庆市萨尔图区黎明街道东至火炬新街，南至世纪大道，西至学伟大街，北至科技路的合围区域（不含区域内高风险区域和人民医院）"}},{"type":"Feature","geometry":{"type":"Point","coordinates":[125.129342,46.578254]},"properties":{"full_address":"黑龙江省大庆市萨尔图区黎明街道东至学伟大街，南至世纪大道，西至建行街，北至纬二路的合围区域（不含区域内高风险区域）"}},{"type":"Feature","geometry":{"type":"Point","coordinates":[125.16289,46.613439]},"properties":{"full_address":"黑龙江省大庆市萨尔图区黎明街道恒祥街银河太阳城小区全域"}},{"type":"Feature","geometry":{"type":"Point","coordinates":[124.874717,46.702411]},"properties":{"full_address":"黑龙江省大庆市萨尔图区黎明街道秀水路150号高端装备制造园B13号厂房（大庆博翼物流有限公司）"}},{"type":"Feature","geometry":{"type":"Point","coordinates":[125.130176,46.603604]},"properties":{"full_address":"黑龙江省大庆市萨尔图区黎明街道学伟大街沿湖城御景湾C座"}},{"type":"Feature","geometry":{"type":"Point","coordinates":[125.161675,46.588765]},"properties":{"full_address":"黑龙江省大庆市萨尔图区黎明街道博学大街联想科技城小区B2号楼、B3号楼"}},{"type":"Feature","geometry":{"type":"Point","coordinates":[125.175201,46.576547]},"properties":{"full_address":"黑龙江省大庆市萨尔图区黎明街道新发街兴荣工业园厂房南侧围栏边三个板房（东经125.181938，北纬46.574525）"}},{"type":"Feature","geometry":{"type":"Point","coordinates":[125.14705,46.565503]},"properties":{"full_address":"黑龙江省大庆市萨尔图区黎明街道安萨路丽青公寓小区"}},{"type":"Feature","geometry":{"type":"Point","coordinates":[125.158813,46.596529]},"properties":{"full_address":"黑龙江省大庆市萨尔图区黎明街道博学大街新城御景B01号楼"}},{"type":"Feature","geometry":{"type":"Point","coordinates":[125.175201,46.576547]},"properties":{"full_address":"黑龙江省大庆市萨尔图区黎明街道新发街兴荣工业园厂房本体南半部分"}},{"type":"Feature","geometry":{"type":"Point","coordinates":[125.127805,46.620281]},"properties":{"full_address":"黑龙江省大庆市萨尔图区格林街道格林小镇小区二期C05号楼"}},{"type":"Feature","geometry":{"type":"Point","coordinates":[125.121194,46.614231]},"properties":{"full_address":"黑龙江省大庆市萨尔图区绿园街道学伟兰德湖壹号小区D2号楼、D13号楼"}},{"type":"Feature","geometry":{"type":"Point","coordinates":[125.14705,46.565503]},"properties":{"full_address":"黑龙江省大庆市萨尔图区黎明街道安萨路玖玺首府小区Y10号楼"}},{"type":"Feature","geometry":{"type":"Point","coordinates":[125.145966,46.570153]},"properties":{"full_address":"黑龙江省大庆市萨尔图区黎明街道新科路融创中央学府小区10号楼"}},{"type":"Feature","geometry":{"type":"Point","coordinates":[125.12705,46.592927]},"properties":{"full_address":"黑龙江省大庆市萨尔图区东安街道广源步行街B5商服鑫顺祥招待所"}},{"type":"Feature","geometry":{"type":"Point","coordinates":[125.102462,46.596307]},"properties":{"full_address":"黑龙江省大庆市萨尔图区东风街道新星小区F组团全域"}},{"type":"Feature","geometry":{"type":"Point","coordinates":[125.099488,46.596265]},"properties":{"full_address":"黑龙江省大庆市萨尔图区万宝街道热源街交通银行所在楼栋（东风路与热源街交叉口）"}},{"type":"Feature","geometry":{"type":"Point","coordinates":[125.109389,46.548944]},"properties":{"full_address":"黑龙江省大庆市龙凤区三永街道澳龙小区内高风险区域以外其他区域"}},{"type":"Feature","geometry":{"type":"Point","coordinates":[125.125504,46.514835]},"properties":{"full_address":"黑龙江省大庆市龙凤区龙凤街道湿地福苑小区内高风险区域以外其他区域"}},{"type":"Feature","geometry":{"type":"Point","coordinates":[125.146681,46.54654]},"properties":{"full_address":"黑龙江省大庆市龙凤区湿地街道汇宏悦澜湾小区内除高风险区域以外其他区域"}},{"type":"Feature","geometry":{"type":"Point","coordinates":[125.112105,46.530118]},"properties":{"full_address":"黑龙江省大庆市龙凤区龙凤街道厂前北小区内除高风险区域以外其他区域"}},{"type":"Feature","geometry":{"type":"Point","coordinates":[125.030114,46.528305]},"properties":{"full_address":"黑龙江省大庆市龙凤区龙凤镇向阳村向阳大屯所属全域"}},{"type":"Feature","geometry":{"type":"Point","coordinates":[125.143283,46.5507]},"properties":{"full_address":"黑龙江省大庆市龙凤区龙政街道东城领秀D区内高风险区域以外其他区域"}},{"type":"Feature","geometry":{"type":"Point","coordinates":[125.145911,46.5227]},"properties":{"full_address":"黑龙江省大庆市龙凤区龙凤镇铁东村三屯全域"}},{"type":"Feature","geometry":{"type":"Point","coordinates":[125.139273,46.55541]},"properties":{"full_address":"黑龙江省大庆市龙凤区龙政街道东城领秀华彩园内除高风险区域以外其他区域"}},{"type":"Feature","geometry":{"type":"Point","coordinates":[125.118714,46.575097]},"properties":{"full_address":"黑龙江省大庆市龙凤区三永街道瀚城名苑内除高风险区域以外其他区域"}},{"type":"Feature","geometry":{"type":"Point","coordinates":[125.144701,46.555263]},"properties":{"full_address":"黑龙江省大庆市龙凤区龙政街道滨海花园小区内除高风险区域以外其他区域"}},{"type":"Feature","geometry":{"type":"Point","coordinates":[125.133459,46.558145]},"properties":{"full_address":"黑龙江省大庆市龙凤区东城领秀百邦超市南侧壁至刘涛牛羊肉店和叫了个鸡商服之间区域"}},{"type":"Feature","geometry":{"type":"Point","coordinates":[125.136597,46.557522]},"properties":{"full_address":"黑龙江省大庆市龙凤区龙政街道东城领秀A区内除高风险区域以外其他区域"}},{"type":"Feature","geometry":{"type":"Point","coordinates":[125.121023,46.54538]},"properties":{"full_address":"黑龙江省大庆市龙凤区三永街道瑞安花园小区内除高风险区域以外其他区域"}},{"type":"Feature","geometry":{"type":"Point","coordinates":[125.162663,46.547458]},"properties":{"full_address":"黑龙江省大庆市龙凤区湿地街道欣凤学城A14号楼"}},{"type":"Feature","geometry":{"type":"Point","coordinates":[125.099632,46.576812]},"properties":{"full_address":"黑龙江省大庆市龙凤区三永街道昌升地区（万峰路以北，热源街以东，龙泽路以南，凤顺街以西包围范围）"}},{"type":"Feature","geometry":{"type":"Point","coordinates":[125.117209,46.514509]},"properties":{"full_address":"黑龙江省大庆市龙凤区龙凤镇保田村全域"}},{"type":"Feature","geometry":{"type":"Point","coordinates":[125.098022,46.517185]},"properties":{"full_address":"黑龙江省大庆市龙凤区东光街道凯旋城小区全域"}},{"type":"Feature","geometry":{"type":"Point","coordinates":[125.116459,46.532626]},"properties":{"full_address":"黑龙江省大庆市龙凤区龙凤街道街园小区全域"}},{"type":"Feature","geometry":{"type":"Point","coordinates":[125.119564,46.520398]},"properties":{"full_address":"黑龙江省大庆市龙凤区龙凤街道24栋小区全域"}},{"type":"Feature","geometry":{"type":"Point","coordinates":[125.120086,46.517854]},"properties":{"full_address":"黑龙江省大庆市龙凤区龙凤街道阳光俊园小区全域"}},{"type":"Feature","geometry":{"type":"Point","coordinates":[125.124989,46.52345]},"properties":{"full_address":"黑龙江省大庆市龙凤区龙凤街道龙华佳苑小区全域"}},{"type":"Feature","geometry":{"type":"Point","coordinates":[125.095657,46.517587]},"properties":{"full_address":"黑龙江省大庆市龙凤区东光街道炼建小区全域"}},{"type":"Feature","geometry":{"type":"Point","coordinates":[125.125311,46.525824]},"properties":{"full_address":"黑龙江省大庆市龙凤区龙凤街道龙滨苑小区全域"}},{"type":"Feature","geometry":{"type":"Point","coordinates":[125.13192,46.551731]},"properties":{"full_address":"黑龙江省大庆市龙凤区龙政街道东城领秀C区小区全域"}},{"type":"Feature","geometry":{"type":"Point","coordinates":[125.142019,46.557057]},"properties":{"full_address":"黑龙江省大庆市龙凤区龙政街道华溪龙城三期小区全域"}},{"type":"Feature","geometry":{"type":"Point","coordinates":[125.147373,46.573558]},"properties":{"full_address":"黑龙江省大庆市龙凤区兴化街道乙烯五区小区全域"}},{"type":"Feature","geometry":{"type":"Point","coordinates":[125.147373,46.573558]},"properties":{"full_address":"黑龙江省大庆市龙凤区兴化街道乙烯九区小区全域"}},{"type":"Feature","geometry":{"type":"Point","coordinates":[125.212365,46.472128]},"properties":{"full_address":"黑龙江省大庆市龙凤区卧里屯街道筑安二委小区全域"}},{"type":"Feature","geometry":{"type":"Point","coordinates":[125.119822,46.529999]},"properties":{"full_address":"黑龙江省大庆市龙凤区卧里屯街道陆达商住楼小区全域"}},{"type":"Feature","geometry":{"type":"Point","coordinates":[125.124989,46.52345]},"properties":{"full_address":"黑龙江省大庆市龙凤区龙凤镇永泉佳苑小区全域"}},{"type":"Feature","geometry":{"type":"Point","coordinates":[125.233883,46.462011]},"properties":{"full_address":"黑龙江省大庆市龙凤区龙凤镇英勇村全域"}},{"type":"Feature","geometry":{"type":"Point","coordinates":[124.892934,46.621343]},"properties":{"full_address":"黑龙江省大庆市龙凤区东光街道怡园小区全域"}},{"type":"Feature","geometry":{"type":"Point","coordinates":[125.114822,46.531264]},"properties":{"full_address":"黑龙江省大庆市龙凤区龙凤镇湖韵新村小区全域"}},{"type":"Feature","geometry":{"type":"Point","coordinates":[125.086931,46.547934]},"properties":{"full_address":"黑龙江省大庆市龙凤区东光街道冠庆小区全域"}},{"type":"Feature","geometry":{"type":"Point","coordinates":[125.092566,46.541332]},"properties":{"full_address":"黑龙江省大庆市龙凤区东光街道龙北小区全域"}},{"type":"Feature","geometry":{"type":"Point","coordinates":[125.115713,46.536134]},"properties":{"full_address":"黑龙江省大庆市龙凤区龙凤街道凤祥小区全域"}},{"type":"Feature","geometry":{"type":"Point","coordinates":[125.041044,46.513427]},"properties":{"full_address":"黑龙江省大庆市龙凤区光明园区内除高风险区域以外其他区域"}},{"type":"Feature","geometry":{"type":"Point","coordinates":[125.09723,46.542562]},"properties":{"full_address":"黑龙江省大庆市龙凤区龙凤街道凤阳一区内除高风险区域以外其他区域"}},{"type":"Feature","geometry":{"type":"Point","coordinates":[125.122163,46.526375]},"properties":{"full_address":"黑龙江省大庆市龙凤区龙凤街道建成小区内除高风险区域以外其他区域"}},{"type":"Feature","geometry":{"type":"Point","coordinates":[125.108027,46.535235]},"properties":{"full_address":"黑龙江省大庆市龙凤区龙凤街道凤阳三区内除高风险区域以外其他区域"}},{"type":"Feature","geometry":{"type":"Point","coordinates":[125.115138,46.548694]},"properties":{"full_address":"黑龙江省大庆市龙凤区三永街道御湖湾小区内除高风险区域以外其他区域"}},{"type":"Feature","geometry":{"type":"Point","coordinates":[125.141947,46.557775]},"properties":{"full_address":"黑龙江省大庆市龙凤区龙凤街道二物业小区全域"}},{"type":"Feature","geometry":{"type":"Point","coordinates":[125.117977,46.534987]},"properties":{"full_address":"黑龙江省大庆市龙凤区龙凤街道铁路小区全域"}},{"type":"Feature","geometry":{"type":"Point","coordinates":[125.12049,46.531206]},"properties":{"full_address":"黑龙江省大庆市龙凤区龙凤街道建安小区全域"}},{"type":"Feature","geometry":{"type":"Point","coordinates":[125.120132,46.52892]},"properties":{"full_address":"黑龙江省大庆市龙凤区龙凤街道龙安新苑小区全域"}},{"type":"Feature","geometry":{"type":"Point","coordinates":[125.077147,46.512851]},"properties":{"full_address":"黑龙江省大庆市龙凤区东光街道沁园小区全域"}},{"type":"Feature","geometry":{"type":"Point","coordinates":[125.037014,46.512401]},"properties":{"full_address":"黑龙江省大庆市龙凤区东光街道光明小区全域"}},{"type":"Feature","geometry":{"type":"Point","coordinates":[125.113178,46.533183]},"properties":{"full_address":"黑龙江省大庆市龙凤区龙凤街道热电一村小区全域"}},{"type":"Feature","geometry":{"type":"Point","coordinates":[125.12049,46.531206]},"properties":{"full_address":"黑龙江省大庆市龙凤区龙凤街道龙化小区全域"}},{"type":"Feature","geometry":{"type":"Point","coordinates":[125.108201,46.5249]},"properties":{"full_address":"黑龙江省大庆市龙凤区龙凤街道万隆家园小区全域"}},{"type":"Feature","geometry":{"type":"Point","coordinates":[125.117326,46.522197]},"properties":{"full_address":"黑龙江省大庆市龙凤区龙凤街道大家乐小区全域"}},{"type":"Feature","geometry":{"type":"Point","coordinates":[125.124989,46.52345]},"properties":{"full_address":"黑龙江省大庆市龙凤区龙凤街道龙凤佳苑小区全域"}},{"type":"Feature","geometry":{"type":"Point","coordinates":[125.131705,46.523667]},"properties":{"full_address":"黑龙江省大庆市龙凤区龙凤街道吉祥馨苑小区全域"}},{"type":"Feature","geometry":{"type":"Point","coordinates":[125.143826,46.541136]},"properties":{"full_address":"黑龙江省大庆市龙凤区湿地街道恒大绿洲小区全域"}},{"type":"Feature","geometry":{"type":"Point","coordinates":[125.168386,46.545918]},"properties":{"full_address":"黑龙江省大庆市龙凤区湿地街道居然花园小区全域"}},{"type":"Feature","geometry":{"type":"Point","coordinates":[125.121671,46.532166]},"properties":{"full_address":"黑龙江省大庆市龙凤区龙凤街道龙祥小区全域"}},{"type":"Feature","geometry":{"type":"Point","coordinates":[125.138014,46.5607]},"properties":{"full_address":"黑龙江省大庆市龙凤区龙政街道华溪龙城二期小区全域"}},{"type":"Feature","geometry":{"type":"Point","coordinates":[125.114015,46.519621]},"properties":{"full_address":"黑龙江省大庆市龙凤区龙凤镇中心小学全域"}},{"type":"Feature","geometry":{"type":"Point","coordinates":[125.160122,46.548026]},"properties":{"full_address":"黑龙江省大庆市龙凤区湿地街道欣凤学城一期全域"}},{"type":"Feature","geometry":{"type":"Point","coordinates":[125.152298,46.552874]},"properties":{"full_address":"黑龙江省大庆市龙凤区龙政街道云水清园全域"}},{"type":"Feature","geometry":{"type":"Point","coordinates":[125.111948,46.529326]},"properties":{"full_address":"黑龙江省大庆市龙凤区龙凤街道厂前16栋小区全域"}},{"type":"Feature","geometry":{"type":"Point","coordinates":[125.113822,46.530627]},"properties":{"full_address":"黑龙江省大庆市龙凤区龙凤街道厂前小区全域"}},{"type":"Feature","geometry":{"type":"Point","coordinates":[125.064681,46.56098]},"properties":{"full_address":"黑龙江省大庆市龙凤区东光街道东光小区全域"}},{"type":"Feature","geometry":{"type":"Point","coordinates":[125.064681,46.56098]},"properties":{"full_address":"黑龙江省大庆市龙凤区东光街道东光小区对面第二毛纺厂厂区全域"}},{"type":"Feature","geometry":{"type":"Point","coordinates":[125.131112,46.586689]},"properties":{"full_address":"黑龙江省大庆市龙凤区三永街道瀚城景苑小区全域"}},{"type":"Feature","geometry":{"type":"Point","coordinates":[124.894798,46.571456]},"properties":{"full_address":"黑龙江省大庆市让胡路区东湖街道东湖小区11区内除高风险区域以外其他区域"}},{"type":"Feature","geometry":{"type":"Point","coordinates":[124.894798,46.571456]},"properties":{"full_address":"黑龙江省大庆市让胡路区东湖街道东湖小区8区内除高风险区域以外其他区域"}},{"type":"Feature","geometry":{"type":"Point","coordinates":[124.891245,46.603198]},"properties":{"full_address":"黑龙江省大庆市让胡路区西宾街道银亿阳光城A区内除高风险区域以外其他区域"}},{"type":"Feature","geometry":{"type":"Point","coordinates":[124.877877,46.665027]},"properties":{"full_address":"黑龙江省大庆市让胡路区北湖街道北湖馨苑小区30号楼"}},{"type":"Feature","geometry":{"type":"Point","coordinates":[124.881702,46.613341]},"properties":{"full_address":"黑龙江省大庆市让胡路区西宾街道远望大街72号楼栋"}},{"type":"Feature","geometry":{"type":"Point","coordinates":[127.495305,50.248657]},"properties":{"full_address":"黑龙江省黑河市爱辉区兴安街道金融社区迎恩路47号"}},{"type":"Feature","geometry":{"type":"Point","coordinates":[127.495517,50.248743]},"properties":{"full_address":"黑龙江省黑河市爱辉区兴林街110号"}},{"type":"Feature","geometry":{"type":"Point","coordinates":[127.507164,50.245325]},"properties":{"full_address":"黑龙江省黑河市爱辉区黑河市第六小学校园（不含教学楼）"}},{"type":"Feature","geometry":{"type":"Point","coordinates":[127.507164,50.245325]},"properties":{"full_address":"黑龙江省黑河市爱辉区黑河市第六小学校园正门两侧公园路上门市（共14家）及北侧巷道内门市（共1家）"}},{"type":"Feature","geometry":{"type":"Point","coordinates":[127.516792,50.235275]},"properties":{"full_address":"黑龙江省黑河市爱辉区警苑小区2号楼附属门市、警苑小区1号楼、警苑小区1号楼附属门市"}},{"type":"Feature","geometry":{"type":"Point","coordinates":[127.524507,50.235899]},"properties":{"full_address":"黑龙江省黑河市爱辉区花园街道博文社区亮城家园小区除七号楼以外楼宇(含小区邻街门市)"}},{"type":"Feature","geometry":{"type":"Point","coordinates":[127.519015,50.229901]},"properties":{"full_address":"黑龙江省黑河市爱辉区花园街道喇嘛台社区信誉花园小区三期(不含16号楼)及邻街门市"}},{"type":"Feature","geometry":{"type":"Point","coordinates":[127.514624,50.244979]},"properties":{"full_address":"黑龙江省黑河市爱辉区花园街道金兰社区友谊嘉苑高层(不含3单元)及附属门市"}},{"type":"Feature","geometry":{"type":"Point","coordinates":[127.515289,50.245983]},"properties":{"full_address":"黑龙江省黑河市爱辉区花园街道金兰社区友谊嘉苑9号楼及附属门市"}},{"type":"Feature","geometry":{"type":"Point","coordinates":[127.515434,50.245218]},"properties":{"full_address":"黑龙江省黑河市爱辉区花园街道金兰社区友谊嘉苑6号楼B座"}},{"type":"Feature","geometry":{"type":"Point","coordinates":[126.507392,48.240573]},"properties":{"full_address":"黑龙江省黑河市爱辉区花园街道武庙屯社区水务移动小区水务1号楼及附属门市"}},{"type":"Feature","geometry":{"type":"Point","coordinates":[126.507392,48.240573]},"properties":{"full_address":"黑龙江省黑河市爱辉区花园街道武庙屯社区水务移动小区移动楼及附属门市"}},{"type":"Feature","geometry":{"type":"Point","coordinates":[125.352188,46.423508]},"properties":{"full_address":"黑龙江省绥化市安达市利达综合楼4号楼13单元"}},{"type":"Feature","geometry":{"type":"Point","coordinates":[125.336662,46.414936]},"properties":{"full_address":"黑龙江省绥化市安达市牛都名苑小区8号楼4单元"}},{"type":"Feature","geometry":{"type":"Point","coordinates":[125.325346,46.415991]},"properties":{"full_address":"黑龙江省绥化市安达市滨东华府小区B区5号楼10号商服陈家放心肉店"}},{"type":"Feature","geometry":{"type":"Point","coordinates":[125.352968,46.415411]},"properties":{"full_address":"黑龙江省绥化市安达市生态小镇小区6号楼1单元"}},{"type":"Feature","geometry":{"type":"Point","coordinates":[125.349291,46.413016]},"properties":{"full_address":"黑龙江省绥化市安达市福和城小区20号楼5单元"}},{"type":"Feature","geometry":{"type":"Point","coordinates":[125.371551,46.403182]},"properties":{"full_address":"黑龙江省绥化市安达市十一道街天聪驾校南孙某某经营生猪暂存点"}},{"type":"Feature","geometry":{"type":"Point","coordinates":[125.329339,46.412945]},"properties":{"full_address":"黑龙江省绥化市安达市现代华庭一期2号楼4单元"}},{"type":"Feature","geometry":{"type":"Point","coordinates":[125.340766,46.417873]},"properties":{"full_address":"黑龙江省绥化市安达市升平小区"}},{"type":"Feature","geometry":{"type":"Point","coordinates":[125.329918,46.403849]},"properties":{"full_address":"黑龙江省绥化市安达市卧里屯镇瑞德家园小区"}},{"type":"Feature","geometry":{"type":"Point","coordinates":[125.977615,46.066623]},"properties":{"full_address":"黑龙江省绥化市肇东市尚城壹品小区B6栋2单元"}},{"type":"Feature","geometry":{"type":"Point","coordinates":[125.50175,45.998677]},"properties":{"full_address":"黑龙江省绥化市肇东市洪河乡平原村张兴国屯"}},{"type":"Feature","geometry":{"type":"Point","coordinates":[125.61027,46.012542]},"properties":{"full_address":"黑龙江省绥化市肇东市昌五镇国涛嘉园小区一号楼3单元"}},{"type":"Feature","geometry":{"type":"Point","coordinates":[125.599305,46.010698]},"properties":{"full_address":"黑龙江省绥化市肇东市昌五镇十字街东新玛特精品店"}},{"type":"Feature","geometry":{"type":"Point","coordinates":[121.458184,31.259443]},"properties":{"full_address":"上海市上海市静安区芷江西路街道中山北路814弄"}},{"type":"Feature","geometry":{"type":"Point","coordinates":[121.438949,31.258117]},"properties":{"full_address":"上海市上海市普陀区宜川路街道交通路1913弄1-10号、15-18号"}},{"type":"Feature","geometry":{"type":"Point","coordinates":[121.204479,31.095241]},"properties":{"full_address":"上海市上海市松江区佘山镇林荫新路1288号上海佘山茂御臻品之选酒店"}},{"type":"Feature","geometry":{"type":"Point","coordinates":[118.834036,32.111012]},"properties":{"full_address":"江苏省南京市栖霞区迈皋桥街道郑远元修脚房连锁加盟店（迈皋桥街道合作村92-60-112号）"}},{"type":"Feature","geometry":{"type":"Point","coordinates":[118.089394,24.444733]},"properties":{"full_address":"福建省厦门市思明区厦港街道巡司顶社区部分区域（厦港新村11、13、15、17、19、21、23、25、27、29、31、33、35、37、39、41号、厦港新村5-1号；巡司顶巷1、23、25号；巡司顶巷4-2、4-4、4-5、4-6、4-7、4-8、4-10、4-11号；巡司顶巷6号（海龙小区）；巡司顶巷10、12、6-1、6-2、6-3、6-4号；思明南路483、485、487号；巡司顶巷3、5、7、9、16号；永福宫巷1、3、5、7、9、10、11、12、13、15、17、19、21、23、25、27号；思明南路479号；巡司顶巷16-1、16-2、16-3、16-4、16-5号）"}},{"type":"Feature","geometry":{"type":"Point","coordinates":[118.083627,24.47751]},"properties":{"full_address":"福建省厦门市思明区湖滨北路28号建业大厦1-2层裙楼潮福城大酒楼"}},{"type":"Feature","geometry":{"type":"Point","coordinates":[117.060903,28.263315]},"properties":{"full_address":"江西省鹰潭市月湖区梅园街道晨宇云轩小区二栋"}},{"type":"Feature","geometry":{"type":"Point","coordinates":[116.828912,28.187984]},"properties":{"full_address":"江西省鹰潭市余江区邓埠街道磨仂洲5号院"}},{"type":"Feature","geometry":{"type":"Point","coordinates":[117.050147,28.261363]},"properties":{"full_address":"江西省鹰潭市信江新区夏埠乡滨江社区恒大绿洲二期26栋三单元"}},{"type":"Feature","geometry":{"type":"Point","coordinates":[117.050147,28.261363]},"properties":{"full_address":"江西省鹰潭市信江新区夏埠乡滨江社区恒大绿洲二期22栋一单元"}},{"type":"Feature","geometry":{"type":"Point","coordinates":[117.050355,28.262199]},"properties":{"full_address":"江西省鹰潭市信江新区夏埠乡滨江社区恒大绿洲学府里1栋"}},{"type":"Feature","geometry":{"type":"Point","coordinates":[116.020279,26.471363]},"properties":{"full_address":"江西省赣州市宁都县梅江镇老学坪（新菜市场）"}},{"type":"Feature","geometry":{"type":"Point","coordinates":[116.013621,26.470996]},"properties":{"full_address":"江西省赣州市宁都县京豪宾馆"}},{"type":"Feature","geometry":{"type":"Point","coordinates":[116.005394,26.485254]},"properties":{"full_address":"江西省赣州市宁都县易堂学校"}},{"type":"Feature","geometry":{"type":"Point","coordinates":[116.013621,26.470996]},"properties":{"full_address":"江西省赣州市宁都县兴达米业"}},{"type":"Feature","geometry":{"type":"Point","coordinates":[116.025288,26.460853]},"properties":{"full_address":"江西省赣州市宁都县新庄村卫生室"}},{"type":"Feature","geometry":{"type":"Point","coordinates":[116.024834,26.460821]},"properties":{"full_address":"江西省赣州市宁都县新庄菜市场"}},{"type":"Feature","geometry":{"type":"Point","coordinates":[116.007824,26.466785]},"properties":{"full_address":"江西省赣州市宁都县香江国际"}},{"type":"Feature","geometry":{"type":"Point","coordinates":[116.007681,26.44105]},"properties":{"full_address":"江西省赣州市宁都县体育馆"}},{"type":"Feature","geometry":{"type":"Point","coordinates":[116.020003,26.469182]},"properties":{"full_address":"江西省赣州市宁都县宁师附小"}},{"type":"Feature","geometry":{"type":"Point","coordinates":[116.345367,26.339736]},"properties":{"full_address":"江西省赣州市宁都县宁都二中"}},{"type":"Feature","geometry":{"type":"Point","coordinates":[116.000093,26.49097]},"properties":{"full_address":"江西省赣州市宁都县梅江镇中梁江都府"}},{"type":"Feature","geometry":{"type":"Point","coordinates":[116.021965,26.468166]},"properties":{"full_address":"江西省赣州市宁都县梅江镇三环北路巴罗娜酒庄"}},{"type":"Feature","geometry":{"type":"Point","coordinates":[116.015767,26.474079]},"properties":{"full_address":"江西省赣州市宁都县梅江镇名门家苑"}},{"type":"Feature","geometry":{"type":"Point","coordinates":[116.019877,26.472049]},"properties":{"full_address":"江西省赣州市宁都县梅江镇美食街"}},{"type":"Feature","geometry":{"type":"Point","coordinates":[116.00655,26.470614]},"properties":{"full_address":"江西省赣州市宁都县梅江镇凌云菜市场"}},{"type":"Feature","geometry":{"type":"Point","coordinates":[116.01575,26.476751]},"properties":{"full_address":"江西省赣州市宁都县梅江镇红山岭小区"}},{"type":"Feature","geometry":{"type":"Point","coordinates":[116.009322,26.480066]},"properties":{"full_address":"江西省赣州市宁都县梅江镇第五幼儿园"}},{"type":"Feature","geometry":{"type":"Point","coordinates":[116.007282,26.486927]},"properties":{"full_address":"江西省赣州市宁都县梅江镇背村"}},{"type":"Feature","geometry":{"type":"Point","coordinates":[116.02247,26.485235]},"properties":{"full_address":"江西省赣州市宁都县梅江镇北门村熊屋山"}},{"type":"Feature","geometry":{"type":"Point","coordinates":[116.00606,26.50084]},"properties":{"full_address":"江西省赣州市宁都县梅江迳口完小"}},{"type":"Feature","geometry":{"type":"Point","coordinates":[116.012588,26.463255]},"properties":{"full_address":"江西省赣州市宁都县京都豪庭"}},{"type":"Feature","geometry":{"type":"Point","coordinates":[116.025577,26.467202]},"properties":{"full_address":"江西省赣州市宁都县河东中学"}},{"type":"Feature","geometry":{"type":"Point","coordinates":[116.013693,26.458571]},"properties":{"full_address":"江西省赣州市宁都县梅江镇新庄华夏农业公司后门月生排"}},{"type":"Feature","geometry":{"type":"Point","coordinates":[116.018002,26.465872]},"properties":{"full_address":"江西省赣州市宁都县梅江镇城南二路"}},{"type":"Feature","geometry":{"type":"Point","coordinates":[114.907075,25.847726]},"properties":{"full_address":"江西省赣州市经开区锦绣星城小区"}},{"type":"Feature","geometry":{"type":"Point","coordinates":[114.905292,25.847489]},"properties":{"full_address":"江西省赣州市经开区锦绣星城嘉苑小区"}},{"type":"Feature","geometry":{"type":"Point","coordinates":[114.90277,25.830053]},"properties":{"full_address":"江西省赣州市经开区台湾城小区"}},{"type":"Feature","geometry":{"type":"Point","coordinates":[114.907832,25.839977]},"properties":{"full_address":"江西省赣州市经开区七一九社区南区"}},{"type":"Feature","geometry":{"type":"Point","coordinates":[114.904804,25.838071]},"properties":{"full_address":"江西省赣州市经开区景荣嘉苑小区"}},{"type":"Feature","geometry":{"type":"Point","coordinates":[114.903072,25.850489]},"properties":{"full_address":"江西省赣州市经开区水韵嘉城C区"}},{"type":"Feature","geometry":{"type":"Point","coordinates":[114.89908,25.858315]},"properties":{"full_address":"江西省赣州市经开区杨梅新村"}},{"type":"Feature","geometry":{"type":"Point","coordinates":[114.899169,25.832587]},"properties":{"full_address":"江西省赣州市经开区金星新村"}},{"type":"Feature","geometry":{"type":"Point","coordinates":[114.981546,25.826862]},"properties":{"full_address":"江西省赣州市经开区田心新村西区"}},{"type":"Feature","geometry":{"type":"Point","coordinates":[115.155666,27.554275]},"properties":{"full_address":"江西省吉安市峡江县巴邱镇天成华府小区"}},{"type":"Feature","geometry":{"type":"Point","coordinates":[115.162716,27.563313]},"properties":{"full_address":"江西省吉安市峡江县巴邱镇学府公馆15栋"}},{"type":"Feature","geometry":{"type":"Point","coordinates":[115.434183,27.31576]},"properties":{"full_address":"江西省吉安市永丰县永丰县人民医院"}},{"type":"Feature","geometry":{"type":"Point","coordinates":[115.415104,27.321707]},"properties":{"full_address":"江西省吉安市永丰县恩江镇国际都会"}},{"type":"Feature","geometry":{"type":"Point","coordinates":[115.433178,27.318042]},"properties":{"full_address":"江西省吉安市永丰县恩江镇中南海爱好文具总店"}},{"type":"Feature","geometry":{"type":"Point","coordinates":[115.435283,27.31894]},"properties":{"full_address":"江西省吉安市永丰县恩江镇五交童衣世界"}},{"type":"Feature","geometry":{"type":"Point","coordinates":[115.435037,27.313966]},"properties":{"full_address":"江西省吉安市永丰县恩江镇状元华府全聚福中式快餐店"}},{"type":"Feature","geometry":{"type":"Point","coordinates":[115.452717,27.301133]},"properties":{"full_address":"江西省吉安市永丰县恩江镇卫生院"}},{"type":"Feature","geometry":{"type":"Point","coordinates":[115.420312,27.321229]},"properties":{"full_address":"江西省吉安市永丰县恩江镇花园村水陂头新村B栋屯田小燕餐馆"}},{"type":"Feature","geometry":{"type":"Point","coordinates":[115.441889,27.288578]},"properties":{"full_address":"江西省吉安市永丰县恩江镇桥南贯岭百佳超市"}},{"type":"Feature","geometry":{"type":"Point","coordinates":[115.744466,26.991108]},"properties":{"full_address":"江西省吉安市永丰县恩江镇希望苑小区"}},{"type":"Feature","geometry":{"type":"Point","coordinates":[115.599319,26.891566]},"properties":{"full_address":"江西省吉安市永丰县恩江镇相聚阁大酒店"}},{"type":"Feature","geometry":{"type":"Point","coordinates":[115.43469,27.320895]},"properties":{"full_address":"江西省吉安市永丰县恩江镇国光超市"}},{"type":"Feature","geometry":{"type":"Point","coordinates":[115.430904,27.328463]},"properties":{"full_address":"江西省吉安市永丰县恩江镇万尚和景壹号院"}},{"type":"Feature","geometry":{"type":"Point","coordinates":[115.427718,27.319366]},"properties":{"full_address":"江西省吉安市永丰县恩江镇永丰欧阳修大道联通营业厅"}},{"type":"Feature","geometry":{"type":"Point","coordinates":[115.429942,27.314584]},"properties":{"full_address":"江西省吉安市永丰县恩江镇万尚大酒店"}},{"type":"Feature","geometry":{"type":"Point","coordinates":[115.43845,27.317192]},"properties":{"full_address":"江西省吉安市永丰县恩江镇永丰县妇幼保健院"}},{"type":"Feature","geometry":{"type":"Point","coordinates":[115.430904,27.328463]},"properties":{"full_address":"江西省吉安市永丰县恩江镇永丰县亚马逊自助餐"}},{"type":"Feature","geometry":{"type":"Point","coordinates":[115.429961,27.309651]},"properties":{"full_address":"江西省吉安市永丰县恩江镇万尚坎上坎火锅店"}},{"type":"Feature","geometry":{"type":"Point","coordinates":[115.424689,27.318284]},"properties":{"full_address":"江西省吉安市永丰县恩江镇人社局旁好永福早餐店"}},{"type":"Feature","geometry":{"type":"Point","coordinates":[115.426289,27.323855]},"properties":{"full_address":"江西省吉安市永丰县恩江镇实验学校正大门对面麻辣烫店"}},{"type":"Feature","geometry":{"type":"Point","coordinates":[115.420041,27.284539]},"properties":{"full_address":"江西省吉安市永丰县恩江镇岭上村礼堂"}},{"type":"Feature","geometry":{"type":"Point","coordinates":[115.430904,27.328463]},"properties":{"full_address":"江西省吉安市永丰县恩江镇万尚广场"}},{"type":"Feature","geometry":{"type":"Point","coordinates":[115.430904,27.328463]},"properties":{"full_address":"江西省吉安市永丰县恩江镇豪德亨牛排店"}},{"type":"Feature","geometry":{"type":"Point","coordinates":[115.427622,27.313726]},"properties":{"full_address":"江西省吉安市永丰县恩江镇全民健身中心旁大金空调店"}},{"type":"Feature","geometry":{"type":"Point","coordinates":[115.430904,27.328463]},"properties":{"full_address":"江西省吉安市永丰县恩江镇尹家坪菜市场"}},{"type":"Feature","geometry":{"type":"Point","coordinates":[115.433566,27.323948]},"properties":{"full_address":"江西省吉安市永丰县恩江镇跃进西路哈喽宝贝店"}},{"type":"Feature","geometry":{"type":"Point","coordinates":[115.431984,27.320814]},"properties":{"full_address":"江西省吉安市永丰县恩江镇开吉社区隔壁南昌瓦罐汤店"}},{"type":"Feature","geometry":{"type":"Point","coordinates":[115.424006,27.322981]},"properties":{"full_address":"江西省吉安市永丰县恩江镇尹家坪农贸市场后面早阳餐早餐店"}},{"type":"Feature","geometry":{"type":"Point","coordinates":[115.430904,27.328463]},"properties":{"full_address":"江西省吉安市永丰县恩江镇花园小区A栋7单元金秀茶馆"}},{"type":"Feature","geometry":{"type":"Point","coordinates":[115.430904,27.328463]},"properties":{"full_address":"江西省吉安市永丰县恩江镇南洋超市"}},{"type":"Feature","geometry":{"type":"Point","coordinates":[115.460254,27.31863]},"properties":{"full_address":"江西省吉安市永丰县佐龙乡瑶上村竹山村"}},{"type":"Feature","geometry":{"type":"Point","coordinates":[120.43084,36.30755]},"properties":{"full_address":"山东省青岛市城阳区城阳街道办事处御景尚都小区32号楼"}},{"type":"Feature","geometry":{"type":"Point","coordinates":[120.399866,36.305191]},"properties":{"full_address":"山东省青岛市城阳区城阳街道办事处银盛泰国际商务港"}},{"type":"Feature","geometry":{"type":"Point","coordinates":[120.87536,36.38353]},"properties":{"full_address":"山东省青岛市即墨区岘山路兰州拉面馆（绿城店）"}},{"type":"Feature","geometry":{"type":"Point","coordinates":[120.266216,36.390007]},"properties":{"full_address":"山东省青岛市即墨区大信镇润霖优选超市"}},{"type":"Feature","geometry":{"type":"Point","coordinates":[120.443014,36.417281]},"properties":{"full_address":"山东省青岛市即墨区楼子疃如海超市"}},{"type":"Feature","geometry":{"type":"Point","coordinates":[120.443362,36.352509]},"properties":{"full_address":"山东省青岛市即墨区环秀街道办事处后东城村"}},{"type":"Feature","geometry":{"type":"Point","coordinates":[120.40934,36.41162]},"properties":{"full_address":"山东省青岛市即墨区华山二路76号A-26小鱼尼莫亲子游泳俱乐部"}},{"type":"Feature","geometry":{"type":"Point","coordinates":[120.407411,36.375838]},"properties":{"full_address":"山东省青岛市即墨区岘山花城小区北门口刘广昌排骨鸡米饭"}},{"type":"Feature","geometry":{"type":"Point","coordinates":[120.408549,36.399672]},"properties":{"full_address":"山东省青岛市即墨区鹤山路即墨服装市场一层赵记肉夹馍馄饨馆"}},{"type":"Feature","geometry":{"type":"Point","coordinates":[120.436634,36.373391]},"properties":{"full_address":"山东省青岛市即墨区文化路63号塔元楼区烤肉拌饭"}},{"type":"Feature","geometry":{"type":"Point","coordinates":[120.388675,36.335851]},"properties":{"full_address":"山东省青岛市即墨区嵩山一路48-20号满江秋烤鱼餐厅"}},{"type":"Feature","geometry":{"type":"Point","coordinates":[120.410835,36.372501]},"properties":{"full_address":"山东省青岛市即墨区岘山花城北门菜鸟驿站"}},{"type":"Feature","geometry":{"type":"Point","coordinates":[120.448762,36.398394]},"properties":{"full_address":"山东省青岛市即墨区鹤山路444号海尚海谷子源母婴店"}},{"type":"Feature","geometry":{"type":"Point","coordinates":[120.442176,36.39598]},"properties":{"full_address":"山东省青岛市即墨区鹤山路599号圣帝亚广场佳乐家超市"}},{"type":"Feature","geometry":{"type":"Point","coordinates":[120.390248,36.331588]},"properties":{"full_address":"山东省青岛市即墨区天山一路信和居小区5号德庄火锅"}},{"type":"Feature","geometry":{"type":"Point","coordinates":[120.440518,36.404161]},"properties":{"full_address":"山东省青岛市即墨区店子山小区门口母鸡汤店"}},{"type":"Feature","geometry":{"type":"Point","coordinates":[120.426637,36.397978]},"properties":{"full_address":"山东省青岛市即墨区鹤山路939号新利群肯德基"}},{"type":"Feature","geometry":{"type":"Point","coordinates":[120.414505,36.387441]},"properties":{"full_address":"山东省青岛市即墨区文峰路888号瑞纳鳌园"}},{"type":"Feature","geometry":{"type":"Point","coordinates":[120.472897,36.44086]},"properties":{"full_address":"山东省青岛市即墨区北安街道办事处农民经济适用房"}},{"type":"Feature","geometry":{"type":"Point","coordinates":[120.609824,36.390791]},"properties":{"full_address":"山东省青岛市即墨区鳌山卫街道办事处射箭口村"}},{"type":"Feature","geometry":{"type":"Point","coordinates":[120.474209,36.405551]},"properties":{"full_address":"山东省青岛市即墨区潮海街道办事处流浩河三路136号君卓篮球俱乐部"}},{"type":"Feature","geometry":{"type":"Point","coordinates":[120.423201,36.382023]},"properties":{"full_address":"山东省青岛市即墨区环秀街道办事处店子山三路268号高迪墨香郡科威国际不动产"}},{"type":"Feature","geometry":{"type":"Point","coordinates":[120.523791,36.451937]},"properties":{"full_address":"山东省青岛市即墨区龙泉街道办事处解放三路101号青岛宇远新材料有限公司"}},{"type":"Feature","geometry":{"type":"Point","coordinates":[120.691751,36.490123]},"properties":{"full_address":"山东省青岛市即墨区温泉街道办事处东杨戈庄村"}},{"type":"Feature","geometry":{"type":"Point","coordinates":[120.469652,36.393073]},"properties":{"full_address":"山东省青岛市即墨区通济街道西城社区"}},{"type":"Feature","geometry":{"type":"Point","coordinates":[120.469652,36.393073]},"properties":{"full_address":"山东省青岛市即墨区通济街道长辛社区"}},{"type":"Feature","geometry":{"type":"Point","coordinates":[120.478636,36.392747]},"properties":{"full_address":"山东省青岛市即墨区通济街道河西社区"}},{"type":"Feature","geometry":{"type":"Point","coordinates":[120.469652,36.393073]},"properties":{"full_address":"山东省青岛市即墨区通济街道马山社区"}},{"type":"Feature","geometry":{"type":"Point","coordinates":[120.469652,36.393073]},"properties":{"full_address":"山东省青岛市即墨区通济街道德馨社区"}},{"type":"Feature","geometry":{"type":"Point","coordinates":[120.469652,36.393073]},"properties":{"full_address":"山东省青岛市即墨区通济街道盛兴社区"}},{"type":"Feature","geometry":{"type":"Point","coordinates":[120.402279,36.40267]},"properties":{"full_address":"山东省青岛市即墨区通济街道八里庄社区"}},{"type":"Feature","geometry":{"type":"Point","coordinates":[120.469652,36.393073]},"properties":{"full_address":"山东省青岛市即墨区通济街道山东社区"}},{"type":"Feature","geometry":{"type":"Point","coordinates":[120.469652,36.393073]},"properties":{"full_address":"山东省青岛市即墨区通济街道阁里社区"}},{"type":"Feature","geometry":{"type":"Point","coordinates":[120.175931,36.465727]},"properties":{"full_address":"山东省青岛市即墨区通济街道龙湾头社区"}},{"type":"Feature","geometry":{"type":"Point","coordinates":[120.469652,36.393073]},"properties":{"full_address":"山东省青岛市即墨区通济街道城北社区"}},{"type":"Feature","geometry":{"type":"Point","coordinates":[120.402279,36.40267]},"properties":{"full_address":"山东省青岛市即墨区通济街道郭庄社区"}},{"type":"Feature","geometry":{"type":"Point","coordinates":[120.385158,36.337978]},"properties":{"full_address":"山东省青岛市即墨区通济新经济区福海村"}},{"type":"Feature","geometry":{"type":"Point","coordinates":[120.385158,36.337978]},"properties":{"full_address":"山东省青岛市即墨区通济新经济区开元村"}},{"type":"Feature","geometry":{"type":"Point","coordinates":[120.385158,36.337978]},"properties":{"full_address":"山东省青岛市即墨区通济新经济区华耀村"}},{"type":"Feature","geometry":{"type":"Point","coordinates":[120.385158,36.337978]},"properties":{"full_address":"山东省青岛市即墨区通济新经济区云溪村"}},{"type":"Feature","geometry":{"type":"Point","coordinates":[120.385158,36.337978]},"properties":{"full_address":"山东省青岛市即墨区通济新经济区里仁村"}},{"type":"Feature","geometry":{"type":"Point","coordinates":[120.478636,36.392747]},"properties":{"full_address":"山东省青岛市即墨区环秀街道墨河社区"}},{"type":"Feature","geometry":{"type":"Point","coordinates":[120.456645,36.369458]},"properties":{"full_address":"山东省青岛市即墨区环秀街道滨湖社区"}},{"type":"Feature","geometry":{"type":"Point","coordinates":[120.459812,36.379682]},"properties":{"full_address":"山东省青岛市即墨区环秀街道观澜社区"}},{"type":"Feature","geometry":{"type":"Point","coordinates":[120.652928,36.342885]},"properties":{"full_address":"山东省青岛市即墨区环秀街道新民社区"}},{"type":"Feature","geometry":{"type":"Point","coordinates":[120.469652,36.393073]},"properties":{"full_address":"山东省青岛市即墨区环秀街道华庭社区"}},{"type":"Feature","geometry":{"type":"Point","coordinates":[120.469652,36.393073]},"properties":{"full_address":"山东省青岛市即墨区环秀街道文化街社区"}},{"type":"Feature","geometry":{"type":"Point","coordinates":[120.469652,36.393073]},"properties":{"full_address":"山东省青岛市即墨区环秀街道健民街社区"}},{"type":"Feature","geometry":{"type":"Point","coordinates":[120.469652,36.393073]},"properties":{"full_address":"山东省青岛市即墨区环秀街道金茂社区"}},{"type":"Feature","geometry":{"type":"Point","coordinates":[120.452295,36.370654]},"properties":{"full_address":"山东省青岛市即墨区环秀街道官庄社区"}},{"type":"Feature","geometry":{"type":"Point","coordinates":[120.478636,36.392747]},"properties":{"full_address":"山东省青岛市即墨区环秀街道山前社区"}},{"type":"Feature","geometry":{"type":"Point","coordinates":[120.469652,36.393073]},"properties":{"full_address":"山东省青岛市即墨区环秀街道滨河社区"}},{"type":"Feature","geometry":{"type":"Point","coordinates":[120.469652,36.393073]},"properties":{"full_address":"山东省青岛市即墨区环秀街道兴家疃社区"}},{"type":"Feature","geometry":{"type":"Point","coordinates":[120.455,36.37274]},"properties":{"full_address":"山东省青岛市即墨区环秀街道顺河社区"}},{"type":"Feature","geometry":{"type":"Point","coordinates":[120.493819,36.333136]},"properties":{"full_address":"山东省青岛市即墨区环秀街道叫儿埠社区"}},{"type":"Feature","geometry":{"type":"Point","coordinates":[120.448362,36.452093]},"properties":{"full_address":"山东省青岛市即墨区北安街道宋化泉村"}},{"type":"Feature","geometry":{"type":"Point","coordinates":[120.453655,36.533721]},"properties":{"full_address":"山东省青岛市即墨区灵山街道西三泉村"}},{"type":"Feature","geometry":{"type":"Point","coordinates":[120.462538,36.393547]},"properties":{"full_address":"山东省青岛市即墨区潮海街道文富居小区B1南区"}},{"type":"Feature","geometry":{"type":"Point","coordinates":[120.447128,36.389639]},"properties":{"full_address":"山东省青岛市即墨区数字装备产业发展服务中心"}},{"type":"Feature","geometry":{"type":"Point","coordinates":[120.469652,36.393073]},"properties":{"full_address":"山东省青岛市即墨区大信街道信胜社区"}},{"type":"Feature","geometry":{"type":"Point","coordinates":[120.469652,36.393073]},"properties":{"full_address":"山东省青岛市即墨区聚信社区"}},{"type":"Feature","geometry":{"type":"Point","coordinates":[120.469652,36.393073]},"properties":{"full_address":"山东省青岛市即墨区信成社区"}},{"type":"Feature","geometry":{"type":"Point","coordinates":[120.521056,36.530153]},"properties":{"full_address":"山东省青岛市即墨区灵山街道洽泊村"}},{"type":"Feature","geometry":{"type":"Point","coordinates":[120.515076,36.413402]},"properties":{"full_address":"山东省青岛市即墨区天一仁和郡小区"}},{"type":"Feature","geometry":{"type":"Point","coordinates":[120.469652,36.393073]},"properties":{"full_address":"山东省青岛市即墨区大信街道永乐社区"}},{"type":"Feature","geometry":{"type":"Point","coordinates":[120.469652,36.393073]},"properties":{"full_address":"山东省青岛市即墨区大信街道向阳社区"}},{"type":"Feature","geometry":{"type":"Point","coordinates":[120.460085,36.438736]},"properties":{"full_address":"山东省青岛市即墨区北安街道鑫源明居小区"}},{"type":"Feature","geometry":{"type":"Point","coordinates":[120.405701,36.376548]},"properties":{"full_address":"山东省青岛市即墨区通济街道淮涉河一路893号梧桐巷文旅中心"}},{"type":"Feature","geometry":{"type":"Point","coordinates":[120.371108,36.379055]},"properties":{"full_address":"山东省青岛市即墨区闫家岭民兴钢木制品厂"}},{"type":"Feature","geometry":{"type":"Point","coordinates":[120.417323,36.450802]},"properties":{"full_address":"山东省青岛市即墨区北安街道周戈庄新村"}},{"type":"Feature","geometry":{"type":"Point","coordinates":[116.505873,35.470004]},"properties":{"full_address":"山东省济宁市任城区南张街道前店村"}},{"type":"Feature","geometry":{"type":"Point","coordinates":[116.508341,35.46808]},"properties":{"full_address":"山东省济宁市任城区南张街道后店村"}},{"type":"Feature","geometry":{"type":"Point","coordinates":[116.542833,35.46056]},"properties":{"full_address":"山东省济宁市任城区南张街道仙庄村"}},{"type":"Feature","geometry":{"type":"Point","coordinates":[116.506736,35.459016]},"properties":{"full_address":"山东省济宁市任城区南张街道南白村"}},{"type":"Feature","geometry":{"type":"Point","coordinates":[116.511505,35.427781]},"properties":{"full_address":"山东省济宁市任城区南张街道李庙村"}},{"type":"Feature","geometry":{"type":"Point","coordinates":[116.501975,35.442186]},"properties":{"full_address":"山东省济宁市任城区南张街道潘家村"}},{"type":"Feature","geometry":{"type":"Point","coordinates":[116.496654,35.316338]},"properties":{"full_address":"山东省济宁市任城区唐口街道唐口村"}},{"type":"Feature","geometry":{"type":"Point","coordinates":[116.500262,35.473724]},"properties":{"full_address":"山东省济宁市任城区南张街道办事处文郑村"}},{"type":"Feature","geometry":{"type":"Point","coordinates":[116.548568,35.43292]},"properties":{"full_address":"山东省济宁市任城区南张街道办事处刘前村"}},{"type":"Feature","geometry":{"type":"Point","coordinates":[116.590553,35.419445]},"properties":{"full_address":"山东省济宁市任城区阜桥街道恒丰苑小区"}},{"type":"Feature","geometry":{"type":"Point","coordinates":[116.578928,35.439042]},"properties":{"full_address":"山东省济宁市任城区李营街道罗马假日小区"}},{"type":"Feature","geometry":{"type":"Point","coordinates":[116.503619,35.331355]},"properties":{"full_address":"山东省济宁市任城区唐口街道戈户村"}},{"type":"Feature","geometry":{"type":"Point","coordinates":[116.490229,35.306588]},"properties":{"full_address":"山东省济宁市任城区唐口街道唐宁居小区"}},{"type":"Feature","geometry":{"type":"Point","coordinates":[116.563658,35.20084]},"properties":{"full_address":"山东省济宁市任城区唐口街道张桥村"}},{"type":"Feature","geometry":{"type":"Point","coordinates":[116.592091,35.418936]},"properties":{"full_address":"山东省济宁市任城区仙营街道秦庄农贸市场"}},{"type":"Feature","geometry":{"type":"Point","coordinates":[116.525884,35.462786]},"properties":{"full_address":"山东省济宁市任城区南张街道孔家村"}},{"type":"Feature","geometry":{"type":"Point","coordinates":[116.504461,35.522974]},"properties":{"full_address":"山东省济宁市任城区二十里铺街道程街村"}},{"type":"Feature","geometry":{"type":"Point","coordinates":[116.111999,35.799923]},"properties":{"full_address":"山东省济宁市梁山县水泊街道祥和小区"}},{"type":"Feature","geometry":{"type":"Point","coordinates":[116.079647,35.778461]},"properties":{"full_address":"山东省济宁市梁山县水泊街道东方现代城小区"}},{"type":"Feature","geometry":{"type":"Point","coordinates":[116.285783,35.668791]},"properties":{"full_address":"山东省济宁市梁山县韩垓镇魏堂村魏堂自然村"}},{"type":"Feature","geometry":{"type":"Point","coordinates":[116.285783,35.668791]},"properties":{"full_address":"山东省济宁市梁山县韩垓镇魏堂村乔李庄自然村"}},{"type":"Feature","geometry":{"type":"Point","coordinates":[116.280416,35.697316]},"properties":{"full_address":"山东省济宁市梁山县韩垓镇李垓村"}},{"type":"Feature","geometry":{"type":"Point","coordinates":[116.282217,35.650865]},"properties":{"full_address":"山东省济宁市梁山县韩垓镇薛垓村好运来饭店"}},{"type":"Feature","geometry":{"type":"Point","coordinates":[116.090652,35.778472]},"properties":{"full_address":"山东省济宁市梁山县梁山县水泊街道马振扬村"}},{"type":"Feature","geometry":{"type":"Point","coordinates":[116.099875,35.823359]},"properties":{"full_address":"山东省济宁市梁山县梁山街道关庄村"}},{"type":"Feature","geometry":{"type":"Point","coordinates":[116.093238,35.785514]},"properties":{"full_address":"山东省济宁市梁山县水泊街道郝山头村"}},{"type":"Feature","geometry":{"type":"Point","coordinates":[116.104588,35.801952]},"properties":{"full_address":"山东省济宁市梁山县水泊街道付庙村"}},{"type":"Feature","geometry":{"type":"Point","coordinates":[116.09679,35.796845]},"properties":{"full_address":"山东省济宁市梁山县水泊街道后集村"}},{"type":"Feature","geometry":{"type":"Point","coordinates":[116.117819,35.773035]},"properties":{"full_address":"山东省济宁市梁山县水泊街道刘集村"}},{"type":"Feature","geometry":{"type":"Point","coordinates":[116.095795,35.807899]},"properties":{"full_address":"山东省济宁市梁山县水泊街道水泊花园小区"}},{"type":"Feature","geometry":{"type":"Point","coordinates":[116.087851,35.78776]},"properties":{"full_address":"山东省济宁市梁山县水泊街道县医院家属院"}},{"type":"Feature","geometry":{"type":"Point","coordinates":[116.12617,35.781726]},"properties":{"full_address":"山东省济宁市梁山县水泊街道杏花村社区"}},{"type":"Feature","geometry":{"type":"Point","coordinates":[116.568075,35.398363]},"properties":{"full_address":"山东省济宁市梁山县水泊街道龙城御苑"}},{"type":"Feature","geometry":{"type":"Point","coordinates":[116.086296,35.78651]},"properties":{"full_address":"山东省济宁市梁山县水泊街道中央名郡"}},{"type":"Feature","geometry":{"type":"Point","coordinates":[116.101547,35.803242]},"properties":{"full_address":"山东省济宁市梁山县水泊街道国棉厂第二家属院"}},{"type":"Feature","geometry":{"type":"Point","coordinates":[116.090883,35.804922]},"properties":{"full_address":"山东省济宁市梁山县梁山街道国棉厂第四家属院"}},{"type":"Feature","geometry":{"type":"Point","coordinates":[116.102224,35.815179]},"properties":{"full_address":"山东省济宁市梁山县梁山街道流畅河社区"}},{"type":"Feature","geometry":{"type":"Point","coordinates":[116.113711,35.808234]},"properties":{"full_address":"山东省济宁市梁山县梁山街道任庄村"}},{"type":"Feature","geometry":{"type":"Point","coordinates":[116.265183,35.669788]},"properties":{"full_address":"山东省济宁市梁山县韩垓镇郭楼村"}},{"type":"Feature","geometry":{"type":"Point","coordinates":[116.30284,35.660166]},"properties":{"full_address":"山东省济宁市梁山县韩垓镇高庄村"}},{"type":"Feature","geometry":{"type":"Point","coordinates":[116.292568,35.642279]},"properties":{"full_address":"山东省济宁市梁山县韩垓镇东马垓村"}},{"type":"Feature","geometry":{"type":"Point","coordinates":[115.995929,35.8035]},"properties":{"full_address":"山东省济宁市梁山县马营镇赵坝村"}},{"type":"Feature","geometry":{"type":"Point","coordinates":[116.0765,35.752442]},"properties":{"full_address":"山东省济宁市梁山县马营镇王楼村"}},{"type":"Feature","geometry":{"type":"Point","coordinates":[116.198993,35.68706]},"properties":{"full_address":"山东省济宁市梁山县拳铺镇徐集阳光小区"}},{"type":"Feature","geometry":{"type":"Point","coordinates":[116.100569,35.722924]},"properties":{"full_address":"山东省济宁市梁山县拳铺镇郭堂村"}},{"type":"Feature","geometry":{"type":"Point","coordinates":[116.615048,35.366453]},"properties":{"full_address":"山东省济宁市太白湖新区许庄街道京杭佳苑F区13号楼"}},{"type":"Feature","geometry":{"type":"Point","coordinates":[116.584299,35.35031]},"properties":{"full_address":"山东省济宁市太白湖新区许庄街道恒大名都小区"}},{"type":"Feature","geometry":{"type":"Point","coordinates":[109.485392,30.276544]},"properties":{"full_address":"湖北省恩施土家族苗族自治州恩施市舞阳坝街道金凤苑小区除1栋以外的其他区域"}},{"type":"Feature","geometry":{"type":"Point","coordinates":[109.503048,30.279592]},"properties":{"full_address":"湖北省恩施土家族苗族自治州恩施市舞阳坝街道土桥坝制药厂宿舍区除12栋以外的其他区域"}},{"type":"Feature","geometry":{"type":"Point","coordinates":[109.473878,30.265268]},"properties":{"full_address":"湖北省恩施土家族苗族自治州恩施市舞阳坝街道蔡家河小区除7栋2单元以外的其他区域"}},{"type":"Feature","geometry":{"type":"Point","coordinates":[109.473878,30.265268]},"properties":{"full_address":"湖北省恩施土家族苗族自治州恩施市小渡船街道大帝新居小区除1单元以外的其他区域及底层商铺"}},{"type":"Feature","geometry":{"type":"Point","coordinates":[109.473878,30.265268]},"properties":{"full_address":"湖北省恩施土家族苗族自治州恩施市六角亭街道首府壹品小区除7栋一单元以外的其他区域"}},{"type":"Feature","geometry":{"type":"Point","coordinates":[109.498383,30.309596]},"properties":{"full_address":"湖北省恩施土家族苗族自治州恩施市金子坝街道万福国际小区除7、8、9栋以外的其他区域及底层商铺"}},{"type":"Feature","geometry":{"type":"Point","coordinates":[109.495465,30.324921]},"properties":{"full_address":"湖北省恩施土家族苗族自治州恩施市金子坝街道花果山小区除9排4栋、5栋以外的其他区域"}},{"type":"Feature","geometry":{"type":"Point","coordinates":[109.530849,30.289532]},"properties":{"full_address":"湖北省恩施土家族苗族自治州恩施市七里坪街道七里坪产业园除14栋以外的其他区域"}},{"type":"Feature","geometry":{"type":"Point","coordinates":[114.142194,22.58058]},"properties":{"full_address":"广东省深圳市罗湖区东湖街道翠鹏社区鹏城花园一期7栋1单元"}},{"type":"Feature","geometry":{"type":"Point","coordinates":[114.134713,22.549624]},"properties":{"full_address":"广东省深圳市罗湖区黄贝街道华丽小区（除高风险区外）"}},{"type":"Feature","geometry":{"type":"Point","coordinates":[114.04467,22.555484]},"properties":{"full_address":"广东省深圳市福田区莲花街道布尾村第40栋"}},{"type":"Feature","geometry":{"type":"Point","coordinates":[114.100959,22.538919]},"properties":{"full_address":"广东省深圳市福田区南园街道巴登社区巴登村第99号"}},{"type":"Feature","geometry":{"type":"Point","coordinates":[114.081734,22.537759]},"properties":{"full_address":"广东省深圳市福田区福田街道广业大厦东座、北座（福华路110-4号除外）"}},{"type":"Feature","geometry":{"type":"Point","coordinates":[114.052462,22.520464]},"properties":{"full_address":"广东省深圳市福田区福保街道石厦新村第11栋、第12栋"}},{"type":"Feature","geometry":{"type":"Point","coordinates":[114.071407,22.524691]},"properties":{"full_address":"广东省深圳市福田区福田街道车检大厦"}},{"type":"Feature","geometry":{"type":"Point","coordinates":[114.100737,22.538989]},"properties":{"full_address":"广东省深圳市福田区南园街道巴登社区巴登村第97号、第98号、第106号-第108号、第114号-第116号"}},{"type":"Feature","geometry":{"type":"Point","coordinates":[114.084,22.531]},"properties":{"full_address":"广东省深圳市福田区南园街道汇港名苑北1栋-北3栋"}},{"type":"Feature","geometry":{"type":"Point","coordinates":[114.079021,22.532784]},"properties":{"full_address":"广东省深圳市福田区福田街道牛巷坊第2栋-第5栋、第20栋-第23栋、第28栋-第31栋"}},{"type":"Feature","geometry":{"type":"Point","coordinates":[114.089615,22.544865]},"properties":{"full_address":"广东省深圳市福田区华强北街道桑达大厦"}},{"type":"Feature","geometry":{"type":"Point","coordinates":[114.043618,22.562564]},"properties":{"full_address":"广东省深圳市福田区梅林街道梅林路277号宿舍楼"}},{"type":"Feature","geometry":{"type":"Point","coordinates":[114.078255,22.534046]},"properties":{"full_address":"广东省深圳市福田区福田街道祠堂坊第3栋-第5栋、第8栋-第10栋"}},{"type":"Feature","geometry":{"type":"Point","coordinates":[114.07756,22.535414]},"properties":{"full_address":"广东省深圳市福田区福田街道福华路155号小区第4栋"}},{"type":"Feature","geometry":{"type":"Point","coordinates":[114.081381,22.538294]},"properties":{"full_address":"广东省深圳市福田区福田街道福明路6号、18号、20号、22号、30号、34号"}},{"type":"Feature","geometry":{"type":"Point","coordinates":[114.062615,22.527279]},"properties":{"full_address":"广东省深圳市福田区福田街道上围一村第175栋、第178栋"}},{"type":"Feature","geometry":{"type":"Point","coordinates":[114.039357,22.561317]},"properties":{"full_address":"广东省深圳市福田区梅林街道绿景虹湾F栋、G栋"}},{"type":"Feature","geometry":{"type":"Point","coordinates":[114.038415,22.563066]},"properties":{"full_address":"广东省深圳市福田区梅林街道下梅林村第66栋-第69栋"}},{"type":"Feature","geometry":{"type":"Point","coordinates":[114.101637,22.538724]},"properties":{"full_address":"广东省深圳市福田区南园街道巴登村北区第70栋-第83栋、第86栋-第91栋、第100栋、第101栋"}},{"type":"Feature","geometry":{"type":"Point","coordinates":[114.039312,22.561317]},"properties":{"full_address":"广东省深圳市福田区梅林街道绿景虹湾A栋、B栋、C栋、D栋、E栋"}},{"type":"Feature","geometry":{"type":"Point","coordinates":[114.082868,22.535872]},"properties":{"full_address":"广东省深圳市福田区福田街道福星路162号福星花园大厦裙楼"}},{"type":"Feature","geometry":{"type":"Point","coordinates":[114.054793,22.565883]},"properties":{"full_address":"广东省深圳市福田区梅林街道上梅林新村第18-2栋、第19栋-第21栋、第26栋-第33栋、第38栋-第50栋、第52栋-第61栋、第154栋-第159栋、第161栋-第185栋、第188栋-第201栋、第206栋-第219栋、第223栋、第224栋"}},{"type":"Feature","geometry":{"type":"Point","coordinates":[114.083872,22.536833]},"properties":{"full_address":"广东省深圳市福田区福田街道福星路172号、福星路196号、福华路17号、福华路19号上武楼3-8楼"}},{"type":"Feature","geometry":{"type":"Point","coordinates":[114.231081,22.543475]},"properties":{"full_address":"广东省深圳市盐田区沙头角边境特别管理区"}},{"type":"Feature","geometry":{"type":"Point","coordinates":[114.010741,22.650547]},"properties":{"full_address":"广东省深圳市龙华区大浪街道高峰社区赤岭头新一村第50至63栋、80栋、82栋、84至93栋、115栋、116栋"}},{"type":"Feature","geometry":{"type":"Point","coordinates":[113.829518,22.694948]},"properties":{"full_address":"广东省深圳市龙华区观湖街道新田社区（除高风险区外）"}},{"type":"Feature","geometry":{"type":"Point","coordinates":[113.019189,22.515528]},"properties":{"full_address":"广东省江门市新会区圭峰会城汇侨花园小区27座"}},{"type":"Feature","geometry":{"type":"Point","coordinates":[113.042947,22.545147]},"properties":{"full_address":"广东省江门市新会区圭峰会城玉圭园小区B区38幢"}},{"type":"Feature","geometry":{"type":"Point","coordinates":[113.050995,22.514734]},"properties":{"full_address":"广东省江门市新会区圭峰会城光华里59座以南，名苑华庭42座以北，名苑华庭41座以西合围区域"}},{"type":"Feature","geometry":{"type":"Point","coordinates":[113.019369,22.509145]},"properties":{"full_address":"广东省江门市新会区圭峰会城新会大道以北，紫华园小区以东，东阳酒店以南，葵湖东路以西合围区域"}},{"type":"Feature","geometry":{"type":"Point","coordinates":[113.049945,22.493057]},"properties":{"full_address":"广东省江门市新会区梅江村梅苑中村1巷1号至6号、1巷5号至6巷5号、梅江小学以南至今洲路区域"}},{"type":"Feature","geometry":{"type":"Point","coordinates":[112.79087,22.249355]},"properties":{"full_address":"广东省江门市台山市麦当劳（台城街道台城通济路2-4号2层）"}},{"type":"Feature","geometry":{"type":"Point","coordinates":[112.826125,22.244025]},"properties":{"full_address":"广东省江门市台山市台城街道昌大昌广场"}},{"type":"Feature","geometry":{"type":"Point","coordinates":[112.798546,22.244262]},"properties":{"full_address":"广东省江门市台山市台城街道秀荷花城（高风险区除外）"}},{"type":"Feature","geometry":{"type":"Point","coordinates":[112.784934,22.25929]},"properties":{"full_address":"广东省江门市台山市中石化加油站（台城街道S273旧群厚工业区西南400米）"}},{"type":"Feature","geometry":{"type":"Point","coordinates":[114.524887,22.748494]},"properties":{"full_address":"广东省惠州市大亚湾区澳头街道国力凯旋城21栋"}},{"type":"Feature","geometry":{"type":"Point","coordinates":[114.523202,22.752025]},"properties":{"full_address":"广东省惠州市大亚湾区澳头街道天悦龙庭15栋"}},{"type":"Feature","geometry":{"type":"Point","coordinates":[113.618216,22.919769]},"properties":{"full_address":"广东省东莞市沙田镇海腾国际码头（除高风险区）"}},{"type":"Feature","geometry":{"type":"Point","coordinates":[107.967941,21.547289]},"properties":{"full_address":"广西壮族自治区防城港市东兴市七星社区第2网格"}},{"type":"Feature","geometry":{"type":"Point","coordinates":[107.967941,21.547289]},"properties":{"full_address":"广西壮族自治区防城港市东兴市七星社区第4网格"}},{"type":"Feature","geometry":{"type":"Point","coordinates":[107.96775,21.55367]},"properties":{"full_address":"广西壮族自治区防城港市东兴市七星社区天和路明秀小区"}},{"type":"Feature","geometry":{"type":"Point","coordinates":[107.967916,21.538029]},"properties":{"full_address":"广西壮族自治区防城港市东兴市公园社区第1网格"}},{"type":"Feature","geometry":{"type":"Point","coordinates":[107.972783,21.542026]},"properties":{"full_address":"广西壮族自治区防城港市东兴市中山社区第2网格"}},{"type":"Feature","geometry":{"type":"Point","coordinates":[107.975283,21.543677]},"properties":{"full_address":"广西壮族自治区防城港市东兴市中山社区北仑大道桂滨小区"}},{"type":"Feature","geometry":{"type":"Point","coordinates":[108.020438,21.565536]},"properties":{"full_address":"广西壮族自治区防城港市东兴市楠木山村"}},{"type":"Feature","geometry":{"type":"Point","coordinates":[107.979378,21.558403]},"properties":{"full_address":"广西壮族自治区防城港市东兴市深沟社区金湖路89号华隆凤翔阁小区"}},{"type":"Feature","geometry":{"type":"Point","coordinates":[107.967941,21.547289]},"properties":{"full_address":"广西壮族自治区防城港市东兴市七星社区第13网格成德国际贸易广场商住小区（含商铺）"}},{"type":"Feature","geometry":{"type":"Point","coordinates":[107.986687,21.55583]},"properties":{"full_address":"广西壮族自治区防城港市东兴市深沟社区第4网格喜盈门小区17栋、18栋、19栋、20栋"}},{"type":"Feature","geometry":{"type":"Point","coordinates":[107.977458,21.559778]},"properties":{"full_address":"广西壮族自治区防城港市东兴市深沟社区第13网格东盟花园小区"}},{"type":"Feature","geometry":{"type":"Point","coordinates":[107.975128,21.552825]},"properties":{"full_address":"广西壮族自治区防城港市东兴市深沟社区第22网格的明基花园"}},{"type":"Feature","geometry":{"type":"Point","coordinates":[107.967941,21.547289]},"properties":{"full_address":"广西壮族自治区防城港市东兴市七星社区第21网格"}},{"type":"Feature","geometry":{"type":"Point","coordinates":[108.008751,21.666996]},"properties":{"full_address":"广西壮族自治区防城港市东兴市马路镇大桥村大桥组"}},{"type":"Feature","geometry":{"type":"Point","coordinates":[109.537038,18.30166]},"properties":{"full_address":"海南省三亚市吉阳区南新居得月村"}},{"type":"Feature","geometry":{"type":"Point","coordinates":[109.51563,18.2454]},"properties":{"full_address":"海南省三亚市吉阳区商品街社区大东海安置区B、C栋"}},{"type":"Feature","geometry":{"type":"Point","coordinates":[109.521251,18.23118]},"properties":{"full_address":"海南省三亚市吉阳区下洋田社区海外宿舍2栋"}},{"type":"Feature","geometry":{"type":"Point","coordinates":[109.529022,18.291428]},"properties":{"full_address":"海南省三亚市吉阳区东岸村委会保利悦府小区（6、7、8栋除外）"}},{"type":"Feature","geometry":{"type":"Point","coordinates":[109.519358,18.294183]},"properties":{"full_address":"海南省三亚市吉阳区南新居食品厂小区，千百惠超市仓库"}},{"type":"Feature","geometry":{"type":"Point","coordinates":[109.527553,18.248668]},"properties":{"full_address":"海南省三亚市吉阳区临春社区第四网格： 东至四网格与五，七网格分界线，西至山水国际外围，北至三路五巷，南至临春农贸市场"}},{"type":"Feature","geometry":{"type":"Point","coordinates":[109.527553,18.248668]},"properties":{"full_address":"海南省三亚市吉阳区临春社区第七网格： 东至六路一巷，北至六网格与五网格分界线，西至大汇嘉园外围，南至临春七组安置区山顶"}},{"type":"Feature","geometry":{"type":"Point","coordinates":[109.515594,18.247499]},"properties":{"full_address":"海南省三亚市吉阳区商品街社区七巷48、50号楼"}},{"type":"Feature","geometry":{"type":"Point","coordinates":[109.52582641990186,18.248713826959992]},"properties":{"full_address":"海南省三亚市吉阳区临春社区第二网格：北至狗岭路，东至人民防空办公室，南至嘉诚超市，西至临春二路"}},{"type":"Feature","geometry":{"type":"Point","coordinates":[109.530308,18.251817]},"properties":{"full_address":"海南省三亚市吉阳区临春社区第三网格：东至临春二路 ，北至狗岭路，南至三路五巷，西至临春花都花卉苗圃"}},{"type":"Feature","geometry":{"type":"Point","coordinates":[109.51354034329587,18.23653066752376]},"properties":{"full_address":"海南省三亚市吉阳区港门村社区第一网格：教育巷3号、畜牧局宿舍"}},{"type":"Feature","geometry":{"type":"Point","coordinates":[109.516135,18.246801]},"properties":{"full_address":"海南省三亚市吉阳区港门村社区第二网格：临春河路十二巷11号"}},{"type":"Feature","geometry":{"type":"Point","coordinates":[109.514799,18.240461]},"properties":{"full_address":"海南省三亚市吉阳区港门村社区第三网格：东一路一巷、东一路二巷、东二路（除43号）"}},{"type":"Feature","geometry":{"type":"Point","coordinates":[109.51318551980786,18.236678870718432]},"properties":{"full_address":"海南省三亚市吉阳区港门村社区第四网格：三路（除48号）、四路（除24号）"}},{"type":"Feature","geometry":{"type":"Point","coordinates":[109.514887,18.241369]},"properties":{"full_address":"海南省三亚市吉阳区港门村社区第五网格：港门村上村路、一路一巷"}},{"type":"Feature","geometry":{"type":"Point","coordinates":[109.5147,18.239842]},"properties":{"full_address":"海南省三亚市吉阳区港门村社区第六网格：二路"}},{"type":"Feature","geometry":{"type":"Point","coordinates":[109.5131172300996,18.243744030053584]},"properties":{"full_address":"海南省三亚市吉阳区港门村社区第七网格：一路四巷、一路五巷（除聚龙公寓）"}},{"type":"Feature","geometry":{"type":"Point","coordinates":[109.513017,18.245168]},"properties":{"full_address":"海南省三亚市吉阳区港门村社区第八网格：港华街二巷"}},{"type":"Feature","geometry":{"type":"Point","coordinates":[109.515924,18.244766]},"properties":{"full_address":"海南省三亚市吉阳区港门村社区第九网格：一路二巷（除2号、4号、24号、天龙大厦）、一路三巷（除24号）"}},{"type":"Feature","geometry":{"type":"Point","coordinates":[109.50375,18.244219]},"properties":{"full_address":"海南省三亚市天涯区和平社区港务局二区小区（全部）"}},{"type":"Feature","geometry":{"type":"Point","coordinates":[109.451951,18.296619]},"properties":{"full_address":"海南省三亚市天涯区羊新社区龙眼园路437、438、439号"}},{"type":"Feature","geometry":{"type":"Point","coordinates":[109.446202,18.300311]},"properties":{"full_address":"海南省三亚市天涯区回辉社区东至金和通建材批发厂边界，西至金和通建材批发厂边界，南至凤凰路，北至金和通建材批发厂边界"}},{"type":"Feature","geometry":{"type":"Point","coordinates":[109.500816,18.257214]},"properties":{"full_address":"海南省三亚市天涯区儋州村社区第2-5网格（东至解放路，西至胜利路，南至团结路，北至第三中学外校园巷）"}},{"type":"Feature","geometry":{"type":"Point","coordinates":[109.451951,18.296619]},"properties":{"full_address":"海南省三亚市天涯区羊新社区龙眼园路一巷往东到居委会门口"}},{"type":"Feature","geometry":{"type":"Point","coordinates":[109.583324,19.526551]},"properties":{"full_address":"海南省儋州市市辖区那大镇先锋社区：文化北路泰安苑F3栋"}},{"type":"Feature","geometry":{"type":"Point","coordinates":[109.217784,19.744993]},"properties":{"full_address":"海南省儋州市市辖区新英湾办事处：黎屋水库旁新都居委会陈某养殖场（槟榔村、昌文村集体用地）"}},{"type":"Feature","geometry":{"type":"Point","coordinates":[106.452965,29.530242]},"properties":{"full_address":"重庆市重庆市渝中区凤驿来凤鱼璧山兔（解放碑步行街店）"}},{"type":"Feature","geometry":{"type":"Point","coordinates":[106.582207,29.558299]},"properties":{"full_address":"重庆市重庆市渝中区田土香老菜坊（解放碑店）"}},{"type":"Feature","geometry":{"type":"Point","coordinates":[106.573517,29.555678]},"properties":{"full_address":"重庆市重庆市渝中区邓记莽子老火锅（民生路店）"}},{"type":"Feature","geometry":{"type":"Point","coordinates":[106.582606,29.557467]},"properties":{"full_address":"重庆市重庆市渝中区练杰精品酒店（解放碑长江索道店）"}},{"type":"Feature","geometry":{"type":"Point","coordinates":[106.572768,29.560624]},"properties":{"full_address":"重庆市重庆市渝中区临江路16号文华大厦A、B、C栋"}},{"type":"Feature","geometry":{"type":"Point","coordinates":[106.571603,29.558197]},"properties":{"full_address":"重庆市重庆市渝中区华莱士炸鸡汉堡临江路店所在楼栋及临街店铺（渝中区临江路118号、118号附1-2号、126号）"}},{"type":"Feature","geometry":{"type":"Point","coordinates":[104.11222,30.615529]},"properties":{"full_address":"四川省成都市锦江区狮子山街道学府芳邻1-4栋"}},{"type":"Feature","geometry":{"type":"Point","coordinates":[104.10419,30.602574]},"properties":{"full_address":"四川省成都市锦江区锦华路街道经天路6号院1-7栋，包含底商"}},{"type":"Feature","geometry":{"type":"Point","coordinates":[103.96414,30.66723]},"properties":{"full_address":"四川省成都市青羊区蔡桥街道万科金色领域小区1-10、14-18栋（含底商）（光华南三路88号）"}},{"type":"Feature","geometry":{"type":"Point","coordinates":[104.041269,30.653074]},"properties":{"full_address":"四川省成都市青羊区草堂街道一环路西一段155号院1-4、6-10、12-19栋，（一环路西一段155号）"}},{"type":"Feature","geometry":{"type":"Point","coordinates":[104.081435,30.667436]},"properties":{"full_address":"四川省成都市青羊区草市街道帘官公所街57号院（帘官公所街57号）"}},{"type":"Feature","geometry":{"type":"Point","coordinates":[103.988392,30.674364]},"properties":{"full_address":"四川省成都市青羊区苏坡街道德商金沙十年小区1-4栋（清水滨河路131号）"}},{"type":"Feature","geometry":{"type":"Point","coordinates":[103.988685,30.676864]},"properties":{"full_address":"四川省成都市青羊区苏坡街道米兰香洲小区1-4栋（清水滨河路104号）"}},{"type":"Feature","geometry":{"type":"Point","coordinates":[103.987145,30.675946]},"properties":{"full_address":"四川省成都市青羊区苏坡街道清水河畔小区1-6栋（金福南路55号）"}},{"type":"Feature","geometry":{"type":"Point","coordinates":[103.990809,30.674426]},"properties":{"full_address":"四川省成都市青羊区苏坡街道英伦金沙小区1-3栋（清水滨河路99号）"}},{"type":"Feature","geometry":{"type":"Point","coordinates":[103.992562,30.682691]},"properties":{"full_address":"四川省成都市青羊区苏坡街道金沙海棠小区（蜀鑫东路88号）"}},{"type":"Feature","geometry":{"type":"Point","coordinates":[104.03603,30.687501]},"properties":{"full_address":"四川省成都市金牛区茶店子街道五里墩路东二巷1、3、5、7、9号院和二环路西三段62号院"}},{"type":"Feature","geometry":{"type":"Point","coordinates":[103.996862,30.708752]},"properties":{"full_address":"四川省成都市金牛区金泉街道白鸽岛尚2栋、3栋（含底商）"}},{"type":"Feature","geometry":{"type":"Point","coordinates":[104.039696,30.679663]},"properties":{"full_address":"四川省成都市金牛区抚琴街道营通街99号，金鱼街18号，金鱼街7号，抚琴西北街26号，营中巷32号，营通街16号，抚琴街1号院，金琴路164号9、10、11、12栋，抚琴街南四巷5号，抚琴街南一巷12号、14号"}},{"type":"Feature","geometry":{"type":"Point","coordinates":[104.072974,30.719819]},"properties":{"full_address":"四川省成都市金牛区沙河源街道王贾红豆华庭2栋、6栋"}},{"type":"Feature","geometry":{"type":"Point","coordinates":[104.068479,30.706049]},"properties":{"full_address":"四川省成都市金牛区五块石街道赛云台北路5号院和7号院"}},{"type":"Feature","geometry":{"type":"Point","coordinates":[104.062375,30.703231]},"properties":{"full_address":"四川省成都市金牛区五块石街道五福花园1-8栋（含底商）"}},{"type":"Feature","geometry":{"type":"Point","coordinates":[104.099487,30.772613]},"properties":{"full_address":"四川省成都市金牛区天回镇街道北斗七星城全部楼栋（含底商）"}},{"type":"Feature","geometry":{"type":"Point","coordinates":[104.057393,30.721722]},"properties":{"full_address":"四川省成都市金牛区沙河源街道凌江尚府1-2栋（含底商）"}},{"type":"Feature","geometry":{"type":"Point","coordinates":[104.066197,30.719564]},"properties":{"full_address":"四川省成都市金牛区沙河源街道水韵天府1栋、7栋（含底商）"}},{"type":"Feature","geometry":{"type":"Point","coordinates":[104.038434,30.647187]},"properties":{"full_address":"四川省成都市武侯区浆洗街街道菊乐路98号百乐佳苑"}},{"type":"Feature","geometry":{"type":"Point","coordinates":[104.042921,30.606942]},"properties":{"full_address":"四川省成都市武侯区浆洗街街道双楠社区除应急保供、医疗救助单位和已划定为高风险区的小区院落以外的其他区域"}},{"type":"Feature","geometry":{"type":"Point","coordinates":[104.030169,30.649755]},"properties":{"full_address":"四川省成都市武侯区浆洗街街道少陵社区除应急保供、医疗救助单位和已划定为高风险区的小区院落以外的其他区域"}},{"type":"Feature","geometry":{"type":"Point","coordinates":[104.042921,30.606942]},"properties":{"full_address":"四川省成都市武侯区浆洗街街道百花社区除应急保供、医疗救助单位和已划定为高风险区的小区院落以外的其他区域"}},{"type":"Feature","geometry":{"type":"Point","coordinates":[104.038102,30.642056]},"properties":{"full_address":"四川省成都市武侯区浆洗街街道七道堰社区除应急保供、医疗救助单位和已划定为高风险区的小区院落以外的其他区域"}},{"type":"Feature","geometry":{"type":"Point","coordinates":[104.0375,30.637495]},"properties":{"full_address":"四川省成都市武侯区浆洗街街道广福桥社区除应急保供、医疗救助单位和已划定为高风险区的小区院落以外的其他区域"}},{"type":"Feature","geometry":{"type":"Point","coordinates":[104.035452,30.636837]},"properties":{"full_address":"四川省成都市武侯区浆洗街街道楠欣社区除应急保供、医疗救助单位和已划定为高风险区的小区院落以外的其他区域"}},{"type":"Feature","geometry":{"type":"Point","coordinates":[104.031379,30.633505]},"properties":{"full_address":"四川省成都市武侯区红牌楼街道二环路南四段69号优客联邦一期（含底商）"}},{"type":"Feature","geometry":{"type":"Point","coordinates":[104.030331,30.6323]},"properties":{"full_address":"四川省成都市武侯区红牌楼街道董家湾北街3号优客联邦二期（含底商）"}},{"type":"Feature","geometry":{"type":"Point","coordinates":[104.029313,30.632749]},"properties":{"full_address":"四川省成都市武侯区红牌楼街道佳灵路7号红牌楼广场（含底商）"}},{"type":"Feature","geometry":{"type":"Point","coordinates":[104.030638,30.630282]},"properties":{"full_address":"四川省成都市武侯区红牌楼街道新马路24号长城嘉苑（含底商）"}},{"type":"Feature","geometry":{"type":"Point","coordinates":[104.029542,30.63071]},"properties":{"full_address":"四川省成都市武侯区红牌楼街道董家湾北街2号长城福苑（含底商）"}},{"type":"Feature","geometry":{"type":"Point","coordinates":[104.029466,30.6291]},"properties":{"full_address":"四川省成都市武侯区红牌楼街道董家湾正街1号长城馨苑（含底商）"}},{"type":"Feature","geometry":{"type":"Point","coordinates":[104.029859,30.630832]},"properties":{"full_address":"四川省成都市武侯区红牌楼街道新马路27号宿舍（含底商）"}},{"type":"Feature","geometry":{"type":"Point","coordinates":[104.028428,30.628546]},"properties":{"full_address":"四川省成都市武侯区红牌楼街道董家湾北街8号拉萨安居苑（含底商）"}},{"type":"Feature","geometry":{"type":"Point","coordinates":[104.026674,30.629542]},"properties":{"full_address":"四川省成都市武侯区红牌楼街道佳灵路39号优地A区（含底商）"}},{"type":"Feature","geometry":{"type":"Point","coordinates":[104.029125,30.633464]},"properties":{"full_address":"四川省成都市武侯区红牌楼街道董家湾北街15号院（含底商）"}},{"type":"Feature","geometry":{"type":"Point","coordinates":[104.02747,30.629034]},"properties":{"full_address":"四川省成都市武侯区红牌楼街道董家湾北街17号院（含底商）"}},{"type":"Feature","geometry":{"type":"Point","coordinates":[104.028184,30.634282]},"properties":{"full_address":"四川省成都市武侯区红牌楼街道佳灵路4号合力达泰基南棠（含底商）"}},{"type":"Feature","geometry":{"type":"Point","coordinates":[104.027558,30.633847]},"properties":{"full_address":"四川省成都市武侯区红牌楼街道佳灵路10号橙堡（含底商）"}},{"type":"Feature","geometry":{"type":"Point","coordinates":[104.001152,30.658997]},"properties":{"full_address":"四川省成都市武侯区晋阳街道金世纪皇家幼儿园、皇家别墅C34-C36、皇家花园10栋、12栋、17栋（含底商）"}},{"type":"Feature","geometry":{"type":"Point","coordinates":[103.998036,30.654597]},"properties":{"full_address":"四川省成都市武侯区晋阳街道中央花园二期除高风险楼栋以外的其他楼栋"}},{"type":"Feature","geometry":{"type":"Point","coordinates":[103.987886,30.602254]},"properties":{"full_address":"四川省成都市武侯区华兴街道三河社区沈家桥路以南、黄堰河以东、武侯大道以北、鸡公堰以西合围区域"}},{"type":"Feature","geometry":{"type":"Point","coordinates":[104.031557,30.633538]},"properties":{"full_address":"四川省成都市武侯区红牌楼街道红牌楼商业广场、翻胎厂宿舍（含底商）"}},{"type":"Feature","geometry":{"type":"Point","coordinates":[104.03127,30.631268]},"properties":{"full_address":"四川省成都市武侯区红牌楼街道长城西一路39号优客联邦三期（含底商）"}},{"type":"Feature","geometry":{"type":"Point","coordinates":[103.99556,30.639044]},"properties":{"full_address":"四川省成都市武侯区果盛路以东南、果堰街以东北、顺和路以西北、武草路以西南合围区域（除中海熙苑一期外）"}},{"type":"Feature","geometry":{"type":"Point","coordinates":[104.034078,30.636534]},"properties":{"full_address":"四川省成都市武侯区浆洗街街道红牌楼北街5号院"}},{"type":"Feature","geometry":{"type":"Point","coordinates":[104.002631,30.64533]},"properties":{"full_address":"四川省成都市武侯区晋阳街道晋康街289号民乐园东区1-2栋（含底商）"}},{"type":"Feature","geometry":{"type":"Point","coordinates":[104.032044,30.646629]},"properties":{"full_address":"四川省成都市武侯区浆洗街街道少陵路21号院1-4栋"}},{"type":"Feature","geometry":{"type":"Point","coordinates":[103.988312,30.63832]},"properties":{"full_address":"四川省成都市武侯区机投桥街道武海中华锦绣二期（含底商）"}},{"type":"Feature","geometry":{"type":"Point","coordinates":[104.116042,30.712182]},"properties":{"full_address":"四川省成都市成华区白莲池街道白莲池社区（致和路）"}},{"type":"Feature","geometry":{"type":"Point","coordinates":[104.128209,30.702558]},"properties":{"full_address":"四川省成都市成华区青龙街道梧桐栖一期（致兴三路509号）"}},{"type":"Feature","geometry":{"type":"Point","coordinates":[104.07152,30.708706]},"properties":{"full_address":"四川省成都市成华区双水碾街道花郡佳园及底商（花径路137号)"}},{"type":"Feature","geometry":{"type":"Point","coordinates":[104.098874,30.650779]},"properties":{"full_address":"四川省成都市成华区双桥子街道黄金洲公寓及底商（成华区水碾河北三街16号)"}},{"type":"Feature","geometry":{"type":"Point","coordinates":[104.104257,30.651009]},"properties":{"full_address":"四川省成都市成华区双桥子街道双桥路南四街小区、121苑、新华商住楼、双桥路178号2栋及底商（成华区双桥路南四街）"}},{"type":"Feature","geometry":{"type":"Point","coordinates":[104.102416,30.649178]},"properties":{"full_address":"四川省成都市成华区双桥子街道南五街184号院、双华南路小区、新华医院以南和攀钢集团成都医院以北区域住宅及底商（成华区双桥子街道双华南路）"}},{"type":"Feature","geometry":{"type":"Point","coordinates":[104.101798,30.651697]},"properties":{"full_address":"四川省成都市成华区双桥子街道双桥路南一街小区18-19栋、21-23栋、29栋、单身公寓及底商（成华区双桥路南一街)"}},{"type":"Feature","geometry":{"type":"Point","coordinates":[104.109909,30.647781]},"properties":{"full_address":"四川省成都市成华区双桥子街道七六苑及底商（双桥路南二街）"}},{"type":"Feature","geometry":{"type":"Point","coordinates":[104.099003,30.649291]},"properties":{"full_address":"四川省成都市成华区双桥子街道水碾河路北社区及底商（成华区水碾河路35号）"}},{"type":"Feature","geometry":{"type":"Point","coordinates":[104.101011,30.650395]},"properties":{"full_address":"四川省成都市成华区双桥子街道水碾社区及底商（双桥路南六街)"}},{"type":"Feature","geometry":{"type":"Point","coordinates":[104.097714,30.651937]},"properties":{"full_address":"四川省成都市成华区双桥子街道一环路东三段5号院、7号院、21号院、22号院及底商（一环路东三段5号、7号、21号、22号)"}},{"type":"Feature","geometry":{"type":"Point","coordinates":[104.109564,30.65106]},"properties":{"full_address":"四川省成都市成华区双桥子街道卓越融信云门望古及底商（成华区双华一巷58号)"}},{"type":"Feature","geometry":{"type":"Point","coordinates":[104.103861,30.647849]},"properties":{"full_address":"四川省成都市成华区双桥子街道紫悦府及底商（水碾河路1号）"}},{"type":"Feature","geometry":{"type":"Point","coordinates":[104.121177,30.656109]},"properties":{"full_address":"四川省成都市成华区跳蹬河街道紫藤铭苑及底商（万年路 251 号）"}},{"type":"Feature","geometry":{"type":"Point","coordinates":[104.098918,30.652592]},"properties":{"full_address":"四川省成都市成华区双桥子街道朝发苑及底商（成华区双桥路274号)"}},{"type":"Feature","geometry":{"type":"Point","coordinates":[104.104543,30.649686]},"properties":{"full_address":"四川省成都市成华区双桥子街道双桥路南四街小区134-135栋、160-166栋及底商(双桥路南四街)"}},{"type":"Feature","geometry":{"type":"Point","coordinates":[104.156483,30.638744]},"properties":{"full_address":"四川省成都市成华区保和街道胜天人居1栋-8栋及底商(天鹅一路33号)"}},{"type":"Feature","geometry":{"type":"Point","coordinates":[104.111817,30.711406]},"properties":{"full_address":"四川省成都市成华区青龙街道金科一城6-8栋、12-14栋、16栋、20栋及底商（东丽街138号）"}},{"type":"Feature","geometry":{"type":"Point","coordinates":[104.121105,30.709663]},"properties":{"full_address":"四川省成都市成华区青龙街道蓝光COCO国际二期及底商（龙厢街288号）"}},{"type":"Feature","geometry":{"type":"Point","coordinates":[104.157017,30.706929]},"properties":{"full_address":"四川省成都市成华区龙潭街道北湖国际城3期·溪檀10-13栋及底商(湖秀二路8号)"}},{"type":"Feature","geometry":{"type":"Point","coordinates":[104.096852,30.659422]},"properties":{"full_address":"四川省成都市成华区猛追湾街道信息产业电子第十一设计研究院科技工程股份有限公司宿舍10-21栋(双林路251号)。"}},{"type":"Feature","geometry":{"type":"Point","coordinates":[104.121016,30.709732]},"properties":{"full_address":"四川省成都市成华区青龙街道蓝光COCO国际一期1-5栋及底商(龙厢街299号)"}},{"type":"Feature","geometry":{"type":"Point","coordinates":[104.113725,30.698892]},"properties":{"full_address":"四川省成都市成华区青龙街道西林豫府A区及底商（致顺路500号）"}},{"type":"Feature","geometry":{"type":"Point","coordinates":[104.117628,30.651914]},"properties":{"full_address":"四川省成都市成华区万年场街道花样年花郡1-10栋及底商（双庆路99号）"}},{"type":"Feature","geometry":{"type":"Point","coordinates":[104.158891,30.710893]},"properties":{"full_address":"四川省成都市成华区白莲池街道怡里馨居及底商（湖山路139号)"}},{"type":"Feature","geometry":{"type":"Point","coordinates":[104.115523,30.710951]},"properties":{"full_address":"四川省成都市成华区青龙街道首创光和城一期及底商（东丽街58号）"}},{"type":"Feature","geometry":{"type":"Point","coordinates":[104.10795,30.70215]},"properties":{"full_address":"四川省成都市成华区青龙街道致祥路 37 号院（致祥路 37 号）"}},{"type":"Feature","geometry":{"type":"Point","coordinates":[104.115919,30.715754]},"properties":{"full_address":"四川省成都市成华区青龙街道华宇阳光尚座及底商（东荆路988号）"}},{"type":"Feature","geometry":{"type":"Point","coordinates":[104.153116,30.640398]},"properties":{"full_address":"四川省成都市成华区保和街道保和二期1-22栋(东虹路33号)"}},{"type":"Feature","geometry":{"type":"Point","coordinates":[104.11514,30.68132]},"properties":{"full_address":"四川省成都市成华区府青路街道桃源街2号院及底商(桃源街2号)"}},{"type":"Feature","geometry":{"type":"Point","coordinates":[104.11897,30.65782]},"properties":{"full_address":"四川省成都市成华区跳蹬河街道九龙仓·御园·御公馆（东秀二路 138 号）"}},{"type":"Feature","geometry":{"type":"Point","coordinates":[104.173928,30.803629]},"properties":{"full_address":"四川省成都市新都区新都街道叠香庄园所有楼栋（成都市新都区学院路东段600号）"}},{"type":"Feature","geometry":{"type":"Point","coordinates":[104.180677,30.799048]},"properties":{"full_address":"四川省成都市新都区新都街道汇景花园小区及底商（成都市新都区新都镇育英路987号）"}},{"type":"Feature","geometry":{"type":"Point","coordinates":[103.936206,30.631843]},"properties":{"full_address":"四川省成都市双流区九江街道成新蒲大道（香薰大道）、千桐路、惠民路二段、大井北街、大井南街、成新蒲大道（香薰大道）合围区域"}},{"type":"Feature","geometry":{"type":"Point","coordinates":[104.000195,30.577794]},"properties":{"full_address":"四川省成都市双流区西航港街道空港16区"}},{"type":"Feature","geometry":{"type":"Point","coordinates":[103.955732,30.627721]},"properties":{"full_address":"四川省成都市双流区九江街道蜀镇领秀湖、蜀镇御景湖、蜀镇金悦湖、观澜湖、九江幼儿园(观澜湖分园)、成都双流双华医院、邻里优选超市(蜀镇店) 综合体"}},{"type":"Feature","geometry":{"type":"Point","coordinates":[103.598767,30.978151]},"properties":{"full_address":"四川省成都市双流区九江街道蓝光长岛国际社区1期"}},{"type":"Feature","geometry":{"type":"Point","coordinates":[103.969417,30.810102]},"properties":{"full_address":"四川省成都市郫都区团结街道靖源上街390号公园御景小区"}},{"type":"Feature","geometry":{"type":"Point","coordinates":[104.034918,30.547801]},"properties":{"full_address":"四川省成都市高新区桂溪街道万科金域名邸一期、二期（均含商户）"}},{"type":"Feature","geometry":{"type":"Point","coordinates":[101.729745,26.557044]},"properties":{"full_address":"四川省攀枝花市东区帝景华廷小区16栋（含底层商铺）"}},{"type":"Feature","geometry":{"type":"Point","coordinates":[105.44262,28.86023]},"properties":{"full_address":"四川省泸州市江阳区蓝田街道东升桥社区除高风险区以外的其他区域"}},{"type":"Feature","geometry":{"type":"Point","coordinates":[105.42398,28.868686]},"properties":{"full_address":"四川省泸州市江阳区华阳街道学院中路39号、41号、43号、45号、47号、49号、51号、53号、55号、57号"}},{"type":"Feature","geometry":{"type":"Point","coordinates":[105.367693,28.831257]},"properties":{"full_address":"四川省泸州市江阳区邻玉街道石油路97号"}},{"type":"Feature","geometry":{"type":"Point","coordinates":[105.488478,28.774617]},"properties":{"full_address":"四川省泸州市纳溪区丰乐镇五里村除高风险地区以外区域"}},{"type":"Feature","geometry":{"type":"Point","coordinates":[105.479298,28.753827]},"properties":{"full_address":"四川省泸州市纳溪区丰乐镇保安村除高风险区以外区域"}},{"type":"Feature","geometry":{"type":"Point","coordinates":[105.424148,28.886506]},"properties":{"full_address":"四川省泸州市龙马潭区红星街道阳光水岸B区8号楼"}},{"type":"Feature","geometry":{"type":"Point","coordinates":[105.713245,28.93989]},"properties":{"full_address":"四川省泸州市泸县太伏镇石坝村6社"}},{"type":"Feature","geometry":{"type":"Point","coordinates":[105.695787,28.962774]},"properties":{"full_address":"四川省泸州市泸县太伏镇林桥村4社"}},{"type":"Feature","geometry":{"type":"Point","coordinates":[105.572948,28.508835]},"properties":{"full_address":"四川省泸州市合江县白沙镇双水井村除4社以外的区域"}},{"type":"Feature","geometry":{"type":"Point","coordinates":[105.710404,28.927972]},"properties":{"full_address":"四川省泸州市合江县白沙镇马鹿村除1社以外的区域"}},{"type":"Feature","geometry":{"type":"Point","coordinates":[105.716081,28.907038]},"properties":{"full_address":"四川省泸州市合江县白沙镇灵丹村除12社以外的区域"}},{"type":"Feature","geometry":{"type":"Point","coordinates":[105.07199,29.58203]},"properties":{"full_address":"四川省内江市市中区世纪滨江4期（含底层商铺）"}},{"type":"Feature","geometry":{"type":"Point","coordinates":[105.064516,29.582605]},"properties":{"full_address":"四川省内江市市中区交通路、环城路、新华路、玉溪路、公园街合围区域（除新华路249号）"}},{"type":"Feature","geometry":{"type":"Point","coordinates":[105.070615,29.581899]},"properties":{"full_address":"四川省内江市市中区沿江路-文英街--团结街-劳动巷合围区域（除新宇大厦）"}},{"type":"Feature","geometry":{"type":"Point","coordinates":[105.072033,29.580992]},"properties":{"full_address":"四川省内江市市中区世纪滨江2,3期(含底层商铺)"}},{"type":"Feature","geometry":{"type":"Point","coordinates":[105.045379,29.575271]},"properties":{"full_address":"四川省内江市市中区玉溪街脚盆田社区"}},{"type":"Feature","geometry":{"type":"Point","coordinates":[105.027093,29.558854]},"properties":{"full_address":"四川省内江市市中区白马镇同意村"}},{"type":"Feature","geometry":{"type":"Point","coordinates":[105.076029,29.600839]},"properties":{"full_address":"四川省内江市东兴区平安路金属厂家属区（含底层商铺）"}},{"type":"Feature","geometry":{"type":"Point","coordinates":[105.073457,29.595004]},"properties":{"full_address":"四川省内江市东兴区眺洲路与平安路交汇处至眺洲路与龙都路交汇处的居民区及底层商铺"}},{"type":"Feature","geometry":{"type":"Point","coordinates":[105.094195,29.740034]},"properties":{"full_address":"四川省内江市东兴区双才镇贾家新街"}},{"type":"Feature","geometry":{"type":"Point","coordinates":[105.051299,29.592906]},"properties":{"full_address":"四川省内江市东兴区西林街道桐梓小区二期"}},{"type":"Feature","geometry":{"type":"Point","coordinates":[105.145334,29.546257]},"properties":{"full_address":"四川省内江市东兴区郭北镇农贸市场"}},{"type":"Feature","geometry":{"type":"Point","coordinates":[104.599516,28.745961]},"properties":{"full_address":"四川省宜宾市翠屏区西郊街道除滨江国际B区、滨江国际A区、金帝庄园A区2栋、建设路51号以外的区域"}},{"type":"Feature","geometry":{"type":"Point","coordinates":[104.625539,28.767907]},"properties":{"full_address":"四川省宜宾市翠屏区大观楼街道除女学街9号、翠屏区刘臣街14号2栋、中山街35号创吉客11号公寓以外的区域"}},{"type":"Feature","geometry":{"type":"Point","coordinates":[104.644534,28.758563]},"properties":{"full_address":"四川省宜宾市翠屏区北门车站片区：北至北门客运站、南至人民广场、西至真武路、东至水井街。"}},{"type":"Feature","geometry":{"type":"Point","coordinates":[104.620529,28.770647]},"properties":{"full_address":"四川省宜宾市翠屏区长春街片区：北至酒之源广场、南至刘臣街、西至北正街、东至长春街。"}},{"type":"Feature","geometry":{"type":"Point","coordinates":[104.533244,28.690068]},"properties":{"full_address":"四川省宜宾市叙州区宜都花园除8栋外其他楼栋"}},{"type":"Feature","geometry":{"type":"Point","coordinates":[104.627211,28.756882]},"properties":{"full_address":"四川省宜宾市叙州区长江大道西段13号丝丽雅生活小区"}},{"type":"Feature","geometry":{"type":"Point","coordinates":[104.612224,28.744467]},"properties":{"full_address":"四川省宜宾市叙州区锦绣龙城除6栋外其他楼栋"}},{"type":"Feature","geometry":{"type":"Point","coordinates":[104.544858,28.720481]},"properties":{"full_address":"四川省宜宾市叙州区拉菲好望山1期除2栋外其他楼栋"}},{"type":"Feature","geometry":{"type":"Point","coordinates":[104.533482,28.688157]},"properties":{"full_address":"四川省宜宾市叙州区金沙首座A区除4栋外其余区域"}},{"type":"Feature","geometry":{"type":"Point","coordinates":[104.616714,28.746957]},"properties":{"full_address":"四川省宜宾市叙州区丽雅龙城除2栋外其余区域"}},{"type":"Feature","geometry":{"type":"Point","coordinates":[104.636923,28.761742]},"properties":{"full_address":"四川省宜宾市叙州区长江大道中段26号所在下渡口社区"}},{"type":"Feature","geometry":{"type":"Point","coordinates":[104.965935,28.827822]},"properties":{"full_address":"四川省宜宾市三江新区白沙湾街道除长江国际·青年城外其余区域"}},{"type":"Feature","geometry":{"type":"Point","coordinates":[107.508995,31.200363]},"properties":{"full_address":"四川省达州市达川区达川大道一段与万达路交叉口东南140米鸿瑞堂筋骨养护"}},{"type":"Feature","geometry":{"type":"Point","coordinates":[107.503561,31.203292]},"properties":{"full_address":"四川省达州市达川区翠屏街道美嘉年街、无名巷、达川大道一段、通州大道合围区域"}},{"type":"Feature","geometry":{"type":"Point","coordinates":[107.511845,31.196118]},"properties":{"full_address":"四川省达州市达川区通州大道864号"}},{"type":"Feature","geometry":{"type":"Point","coordinates":[107.505455,31.197204]},"properties":{"full_address":"四川省达州市达川区翠屏街道金丝街鑫星大苑"}},{"type":"Feature","geometry":{"type":"Point","coordinates":[107.513969,31.203819]},"properties":{"full_address":"四川省达州市达川区三里坪街道金都景苑小区"}},{"type":"Feature","geometry":{"type":"Point","coordinates":[107.508282,31.193685]},"properties":{"full_address":"四川省达州市达川区翠屏街道南方花园"}},{"type":"Feature","geometry":{"type":"Point","coordinates":[107.508732,31.195643]},"properties":{"full_address":"四川省达州市达川区新南社区晨曦小区"}},{"type":"Feature","geometry":{"type":"Point","coordinates":[107.506316,31.195818]},"properties":{"full_address":"四川省达州市达川区保险街平安巷19号"}},{"type":"Feature","geometry":{"type":"Point","coordinates":[107.512479,31.207796]},"properties":{"full_address":"四川省达州市达川区绥定大道一段与南滨路二段交叉口久昌花苑"}},{"type":"Feature","geometry":{"type":"Point","coordinates":[107.51784,31.187809]},"properties":{"full_address":"四川省达州市达川区富民街165号"}},{"type":"Feature","geometry":{"type":"Point","coordinates":[107.520377,31.188155]},"properties":{"full_address":"四川省达州市达川区骑龙大道一品南庭"}},{"type":"Feature","geometry":{"type":"Point","coordinates":[107.514689,31.208384]},"properties":{"full_address":"四川省达州市达川区南滨路一段449号清晨丽苑"}},{"type":"Feature","geometry":{"type":"Point","coordinates":[107.497583,31.169409]},"properties":{"full_address":"四川省达州市高新区堰坝安心小区11栋"}},{"type":"Feature","geometry":{"type":"Point","coordinates":[102.21713,31.903727]},"properties":{"full_address":"四川省阿坝藏族羌族自治州马尔康市马尔康镇达萨街马江社区172-196号小胖烧烤所在楼栋"}},{"type":"Feature","geometry":{"type":"Point","coordinates":[102.216377,31.903776]},"properties":{"full_address":"四川省阿坝藏族羌族自治州马尔康市马尔康滨河菜市场所在楼栋"}},{"type":"Feature","geometry":{"type":"Point","coordinates":[102.232255,31.90475]},"properties":{"full_address":"四川省阿坝藏族羌族自治州马尔康市马尔康镇达尔玛街54-60号楼栋"}},{"type":"Feature","geometry":{"type":"Point","coordinates":[102.232255,31.90475]},"properties":{"full_address":"四川省阿坝藏族羌族自治州马尔康市马尔康镇达尔玛街193-195号楼栋"}},{"type":"Feature","geometry":{"type":"Point","coordinates":[102.21199,31.905357]},"properties":{"full_address":"四川省阿坝藏族羌族自治州马尔康市马尔康镇达萨街（阿坝州人民法院宿舍）"}},{"type":"Feature","geometry":{"type":"Point","coordinates":[102.226457,31.902052]},"properties":{"full_address":"四川省阿坝藏族羌族自治州马尔康市马尔康镇达尔玛街163号"}},{"type":"Feature","geometry":{"type":"Point","coordinates":[102.253412,31.88503]},"properties":{"full_address":"四川省阿坝藏族羌族自治州马尔康市马尔康镇美姑街71号（如缘茶楼所在楼栋）"}},{"type":"Feature","geometry":{"type":"Point","coordinates":[102.227179,31.897867]},"properties":{"full_address":"四川省阿坝藏族羌族自治州马尔康市马尔康镇美谷街68号（茶外茶茶楼所在楼栋）"}},{"type":"Feature","geometry":{"type":"Point","coordinates":[102.22569,31.898347]},"properties":{"full_address":"四川省阿坝藏族羌族自治州马尔康市马尔康镇美谷街20-29号（沈包子和美谷街小卖部所在楼栋）"}},{"type":"Feature","geometry":{"type":"Point","coordinates":[102.258621,31.881177]},"properties":{"full_address":"四川省阿坝藏族羌族自治州马尔康市马尔康镇格央街阳光新城小区"}},{"type":"Feature","geometry":{"type":"Point","coordinates":[102.240281,31.89057]},"properties":{"full_address":"四川省阿坝藏族羌族自治州马尔康市马尔康镇马江街222号新绒家园小区"}},{"type":"Feature","geometry":{"type":"Point","coordinates":[102.215721,31.904573]},"properties":{"full_address":"四川省阿坝藏族羌族自治州马尔康市马尔康镇达萨街135号所在楼栋"}},{"type":"Feature","geometry":{"type":"Point","coordinates":[102.217506,31.901859]},"properties":{"full_address":"四川省阿坝藏族羌族自治州马尔康市马尔康镇绕城路3号所在楼栋"}},{"type":"Feature","geometry":{"type":"Point","coordinates":[102.228012,31.89637]},"properties":{"full_address":"四川省阿坝藏族羌族自治州马尔康市马尔康镇马江街俄尔雅五组阿拉羌色大酒店旁18号所在楼栋"}},{"type":"Feature","geometry":{"type":"Point","coordinates":[102.228012,31.89637]},"properties":{"full_address":"四川省阿坝藏族羌族自治州马尔康市马尔康镇马江街11号所在楼栋"}},{"type":"Feature","geometry":{"type":"Point","coordinates":[102.232255,31.90475]},"properties":{"full_address":"四川省阿坝藏族羌族自治州马尔康市马尔康镇达尔玛街241号二期廉租房1栋、3栋整栋"}},{"type":"Feature","geometry":{"type":"Point","coordinates":[102.219591,31.900389]},"properties":{"full_address":"四川省阿坝藏族羌族自治州马尔康市马尔康镇益多百货超市马尔康镇滨河路92-103号整栋"}},{"type":"Feature","geometry":{"type":"Point","coordinates":[102.222106,31.898376]},"properties":{"full_address":"四川省阿坝藏族羌族自治州马尔康市马尔康镇建设银行办公楼及住宿楼马尔康镇团结街24号"}},{"type":"Feature","geometry":{"type":"Point","coordinates":[102.243059,31.89012]},"properties":{"full_address":"四川省阿坝藏族羌族自治州马尔康市马尔康镇人民银行住宿区马尔康镇美谷街200号"}},{"type":"Feature","geometry":{"type":"Point","coordinates":[102.243004,31.890166]},"properties":{"full_address":"四川省阿坝藏族羌族自治州马尔康市马尔康镇自然资源局美谷街198号"}},{"type":"Feature","geometry":{"type":"Point","coordinates":[102.226451,31.898505]},"properties":{"full_address":"四川省阿坝藏族羌族自治州马尔康市马尔康镇美谷街菜农一村二组6号整栋"}},{"type":"Feature","geometry":{"type":"Point","coordinates":[102.232255,31.90475]},"properties":{"full_address":"四川省阿坝藏族羌族自治州马尔康市马尔康镇达尔玛街241号二期廉租房2栋整栋"}},{"type":"Feature","geometry":{"type":"Point","coordinates":[102.253412,31.88503]},"properties":{"full_address":"四川省阿坝藏族羌族自治州马尔康市马尔康镇美谷街菜农二组1、2、3、4号整栋楼及4栋对面的小卖部"}},{"type":"Feature","geometry":{"type":"Point","coordinates":[100.950562,32.287862]},"properties":{"full_address":"四川省阿坝藏族羌族自治州壤塘县岗木达镇章光村1组13号"}},{"type":"Feature","geometry":{"type":"Point","coordinates":[100.950562,32.287862]},"properties":{"full_address":"四川省阿坝藏族羌族自治州壤塘县岗木达镇章光村1组16号"}},{"type":"Feature","geometry":{"type":"Point","coordinates":[102.274628,27.878972]},"properties":{"full_address":"四川省凉山彝族自治州西昌市邦泰花园城小区3期（除17栋以外的区域，含底层商铺）"}},{"type":"Feature","geometry":{"type":"Point","coordinates":[106.695859,26.571044]},"properties":{"full_address":"贵州省贵阳市南明区花果园金融街1号楼"}},{"type":"Feature","geometry":{"type":"Point","coordinates":[106.681787,26.560411]},"properties":{"full_address":"贵州省贵阳市南明区兰花广场2号楼"}},{"type":"Feature","geometry":{"type":"Point","coordinates":[106.683913,26.567714]},