{"type":"FeatureCollection","features":[{"type":"Feature","geometry":{"type":"Point","coordinates":[108.929949,34.206575]},"properties":{"full_address":"陕西省西安市雁塔区长延堡街道"}},{"type":"Feature","geometry":{"type":"Point","coordinates":[113.464144,34.146597]},"properties":{"full_address":"河南省许昌市禹州市夏都街道"}},{"type":"Feature","geometry":{"type":"Point","coordinates":[113.443493,34.121417]},"properties":{"full_address":"河南省许昌市禹州市梁北镇郭村"}},{"type":"Feature","geometry":{"type":"Point","coordinates":[113.364051,34.316587]},"properties":{"full_address":"河南省许昌市禹州市火龙镇郭楼村"}},{"type":"Feature","geometry":{"type":"Point","coordinates":[114.357763,35.924515]},"properties":{"full_address":"河南省安阳市汤阴县育才中学"}},{"type":"Feature","geometry":{"type":"Point","coordinates":[114.462468,35.946031]},"properties":{"full_address":"河南省安阳市汤阴县古贤镇"}},{"type":"Feature","geometry":{"type":"Point","coordinates":[117.352308,39.033667]},"properties":{"full_address":"天津市市辖区津南区辛庄镇林锦花园"}},{"type":"Feature","geometry":{"type":"Point","coordinates":[117.350111,39.031872]},"properties":{"full_address":"天津市天津市津南区林绣花园"}},{"type":"Feature","geometry":{"type":"Point","coordinates":[117.351557,39.029502]},"properties":{"full_address":"天津市天津市津南区鑫昱花园"}},{"type":"Feature","geometry":{"type":"Point","coordinates":[117.322692,39.031907]},"properties":{"full_address":"天津市天津市津南区上悦花园"}},{"type":"Feature","geometry":{"type":"Point","coordinates":[117.339821,39.022655]},"properties":{"full_address":"天津市天津市津南区首创星景苑"}},{"type":"Feature","geometry":{"type":"Point","coordinates":[117.347639,39.022943]},"properties":{"full_address":"天津市天津市津南区鑫旺里"}},{"type":"Feature","geometry":{"type":"Point","coordinates":[117.327864,39.03205]},"properties":{"full_address":"天津市天津市津南区义佳花园"}},{"type":"Feature","geometry":{"type":"Point","coordinates":[117.400421,38.984162]},"properties":{"full_address":"天津市天津市津南区咸水沽镇丰达园"}},{"type":"Feature","geometry":{"type":"Point","coordinates":[117.401621,38.978393]},"properties":{"full_address":"天津市天津市津南区龙湖紫宸"}},{"type":"Feature","geometry":{"type":"Point","coordinates":[117.059995,39.382024]},"properties":{"full_address":"天津市天津市武清区同泽园"}},{"type":"Feature","geometry":{"type":"Point","coordinates":[117.324533,39.048464]},"properties":{"full_address":"天津市天津市津南区双港镇欣桃园"}},{"type":"Feature","geometry":{"type":"Point","coordinates":[117.212395,39.028173]},"properties":{"full_address":"天津市市辖区西青区大寺镇宇泰家园C区"}}]}