{"type":"FeatureCollection","features":[{"type":"Feature","geometry":{"type":"Point","coordinates":[116.474454,39.869267]},"properties":{"province":"北京市","city":"朝阳区","county":"南磨房（地区）乡","community":"南新园社区","full_address":"北京市朝阳区南磨房（地区）乡南新园社区","info":""}},{"type":"Feature","geometry":{"type":"Point","coordinates":[116.494264,39.853492]},"properties":{"province":"北京市","city":"朝阳区","county":"十八里店（地区）乡","community":"小武基村","full_address":"北京市朝阳区十八里店（地区）乡小武基村","info":""}},{"type":"Feature","geometry":{"type":"Point","coordinates":[116.290609,39.844952]},"properties":{"province":"北京市","city":"丰台区","county":"五里店街道","community":"彩虹北社区","full_address":"北京市丰台区五里店街道彩虹北社区","info":""}},{"type":"Feature","geometry":{"type":"Point","coordinates":[116.360403,39.946471]},"properties":{"province":"北京市","city":"海淀区","county":"北太平庄街道","community":"金晖远洋社区远洋风景小区","full_address":"北京市海淀区北太平庄街道金晖远洋社区远洋风景小区","info":""}},{"type":"Feature","geometry":{"type":"Point","coordinates":[115.986119,39.64438]},"properties":{"province":"北京市","city":"房山区","county":"石楼镇","community":"石楼村","full_address":"北京市房山区石楼镇石楼村","info":""}},{"type":"Feature","geometry":{"type":"Point","coordinates":[116.089531,39.75499]},"properties":{"province":"北京市","city":"房山区","county":"青龙湖镇","community":"果各庄村","full_address":"北京市房山区青龙湖镇果各庄村","info":""}},{"type":"Feature","geometry":{"type":"Point","coordinates":[115.924703,39.608771]},"properties":{"province":"北京市","city":"房山区","county":"韩村河镇","community":"五侯村","full_address":"北京市房山区韩村河镇五侯村","info":""}},{"type":"Feature","geometry":{"type":"Point","coordinates":[116.177603,39.74338]},"properties":{"province":"北京市","city":"房山区","county":"拱辰街道","community":"世茂维拉社区","full_address":"北京市房山区拱辰街道世茂维拉社区","info":""}},{"type":"Feature","geometry":{"type":"Point","coordinates":[116.163804,39.760771]},"properties":{"province":"北京市","city":"房山区","county":"长阳镇","community":"碧桂园小区","full_address":"北京市房山区长阳镇碧桂园小区","info":""}},{"type":"Feature","geometry":{"type":"Point","coordinates":[116.209175,39.772253]},"properties":{"province":"北京市","city":"房山区","county":"长阳镇","community":"赛木小镇","full_address":"北京市房山区长阳镇赛木小镇","info":""}},{"type":"Feature","geometry":{"type":"Point","coordinates":[116.614664,39.834226]},"properties":{"province":"北京市","city":"通州区","county":"台湖镇","community":"胡家垡村","full_address":"北京市通州区台湖镇胡家垡村","info":""}},{"type":"Feature","geometry":{"type":"Point","coordinates":[116.499028,39.321794]},"properties":{"province":"河北省","city":"廊坊市","county":"永清县","community":"海森威工业小区","full_address":"河北省廊坊市永清县海森威工业小区","info":""}},{"type":"Feature","geometry":{"type":"Point","coordinates":[121.43573,31.226361]},"properties":{"province":"上海市","city":"上海市","county":"静安区","community":"曹家渡街道武定西路1189号","full_address":"上海市上海市静安区曹家渡街道武定西路1189号","info":""}},{"type":"Feature","geometry":{"type":"Point","coordinates":[121.454844,31.256438]},"properties":{"province":"上海市","city":"上海市","county":"静安区","community":"天目西路街道芷江西路593弄","full_address":"上海市上海市静安区天目西路街道芷江西路593弄","info":""}},{"type":"Feature","geometry":{"type":"Point","coordinates":[121.46665,31.041281]},"properties":{"province":"上海市","city":"上海市","county":"闵行区","community":"吴泾镇剑川路165号","full_address":"上海市上海市闵行区吴泾镇剑川路165号","info":""}},{"type":"Feature","geometry":{"type":"Point","coordinates":[121.25944,31.40798]},"properties":{"province":"上海市","city":"上海市","county":"嘉定区","community":"菊园新区永靖路898弄（北区）","full_address":"上海市上海市嘉定区菊园新区永靖路898弄（北区）","info":""}},{"type":"Feature","geometry":{"type":"Point","coordinates":[121.555815,31.22565]},"properties":{"province":"上海市","city":"上海市","county":"浦东新区","community":"花木街道丁香路910弄","full_address":"上海市上海市浦东新区花木街道丁香路910弄","info":""}},{"type":"Feature","geometry":{"type":"Point","coordinates":[121.76146,31.05088]},"properties":{"province":"上海市","city":"上海市","county":"浦东新区","community":"惠南镇梅花新邨","full_address":"上海市上海市浦东新区惠南镇梅花新邨","info":""}},{"type":"Feature","geometry":{"type":"Point","coordinates":[121.559255,31.212756]},"properties":{"province":"上海市","city":"上海市","county":"浦东新区","community":"花木街道银霄路39弄","full_address":"上海市上海市浦东新区花木街道银霄路39弄","info":""}},{"type":"Feature","geometry":{"type":"Point","coordinates":[121.205715,31.041095]},"properties":{"province":"上海市","city":"上海市","county":"松江区","community":"方松街道滨湖路585弄","full_address":"上海市上海市松江区方松街道滨湖路585弄","info":""}},{"type":"Feature","geometry":{"type":"Point","coordinates":[121.258417,31.173229]},"properties":{"province":"上海市","city":"上海市","county":"青浦区","community":"徐泾镇迮庵村（杨巷西区）","full_address":"上海市上海市青浦区徐泾镇迮庵村（杨巷西区）","info":""}},{"type":"Feature","geometry":{"type":"Point","coordinates":[122.690037,37.393545]},"properties":{"province":"山东省","city":"威海市","county":"荣成市","community":"金鑫水产有限公司（荣成市黄海北路 888号）","full_address":"山东省威海市荣成市金鑫水产有限公司（荣成市黄海北路 888号）","info":""}}]}