{"type":"FeatureCollection","features":[{"type":"Feature","geometry":{"type":"Point","coordinates":[116.449044,39.885582]},"properties":{"full_address":"北京市朝阳区双井街道广和南里二条"}},{"type":"Feature","geometry":{"type":"Point","coordinates":[116.848867,40.383512]},"properties":{"full_address":"北京市朝阳区双井街道黄木厂社区"}},{"type":"Feature","geometry":{"type":"Point","coordinates":[116.510722,39.864433]},"properties":{"full_address":"北京市朝阳区垡头街道垡头西里社区"}},{"type":"Feature","geometry":{"type":"Point","coordinates":[116.509688,39.862818]},"properties":{"full_address":"北京市朝阳区垡头街道垡头西里三区"}},{"type":"Feature","geometry":{"type":"Point","coordinates":[116.480004,39.91898]},"properties":{"full_address":"北京市朝阳区八里庄街道红庙北里社区"}},{"type":"Feature","geometry":{"type":"Point","coordinates":[116.474732,39.873125]},"properties":{"full_address":"北京市朝阳区潘家园街道松榆东里社区"}},{"type":"Feature","geometry":{"type":"Point","coordinates":[116.469673,39.877948]},"properties":{"full_address":"北京市朝阳区潘家园街道武圣东里"}},{"type":"Feature","geometry":{"type":"Point","coordinates":[116.464375,39.87376]},"properties":{"full_address":"北京市朝阳区潘家园街道松榆西里社区"}},{"type":"Feature","geometry":{"type":"Point","coordinates":[116.474454,39.869267]},"properties":{"full_address":"北京市朝阳区南磨房（地区）乡南新园社区"}},{"type":"Feature","geometry":{"type":"Point","coordinates":[116.48198,39.869661]},"properties":{"full_address":"北京市朝阳区南磨房（地区）乡双龙南里"}},{"type":"Feature","geometry":{"type":"Point","coordinates":[116.44805,39.870565]},"properties":{"full_address":"北京市朝阳区十八里店（地区）乡弘善家园"}},{"type":"Feature","geometry":{"type":"Point","coordinates":[116.492067,40.043867]},"properties":{"full_address":"北京市朝阳区十八里店（地区）乡周家庄中路20号院"}},{"type":"Feature","geometry":{"type":"Point","coordinates":[116.562776,39.904949]},"properties":{"full_address":"北京市朝阳区三间房（地区）乡艺水芳园社区"}},{"type":"Feature","geometry":{"type":"Point","coordinates":[116.542489,40.03547]},"properties":{"full_address":"北京市朝阳区孙河（地区）乡康营家园三社区"}},{"type":"Feature","geometry":{"type":"Point","coordinates":[116.068652,39.659157]},"properties":{"full_address":"北京市房山区窦店镇田家园村"}},{"type":"Feature","geometry":{"type":"Point","coordinates":[116.113926,39.664581]},"properties":{"full_address":"北京市房山区窦店镇小高舍村"}},{"type":"Feature","geometry":{"type":"Point","coordinates":[118.672429,39.880166]},"properties":{"full_address":"河北省唐山市迁安市野鸡坨镇邵家营村"}},{"type":"Feature","geometry":{"type":"Point","coordinates":[114.774245,36.886488]},"properties":{"full_address":"河北省邯郸市鸡泽县浮图店镇"}},{"type":"Feature","geometry":{"type":"Point","coordinates":[114.96318,36.239794]},"properties":{"full_address":"河北省邯郸市魏县双井镇野庄村"}},{"type":"Feature","geometry":{"type":"Point","coordinates":[114.857974,37.073041]},"properties":{"full_address":"河北省邢台市南和区史召乡李牌村片区（史召乡果寨村以北、340国道以南、留垒河以西、史召桥村以东合围区域）"}},{"type":"Feature","geometry":{"type":"Point","coordinates":[112.52823,37.605501]},"properties":{"full_address":"山西省太原市清徐县王答乡元跃物流园区"}},{"type":"Feature","geometry":{"type":"Point","coordinates":[117.537741,49.580289]},"properties":{"full_address":"内蒙古自治区呼伦贝尔市满洲里市南区街道"}},{"type":"Feature","geometry":{"type":"Point","coordinates":[117.477144,49.588341]},"properties":{"full_address":"内蒙古自治区呼伦贝尔市满洲里市北区街道"}},{"type":"Feature","geometry":{"type":"Point","coordinates":[117.459632,49.592082]},"properties":{"full_address":"内蒙古自治区呼伦贝尔市满洲里市兴华街道"}},{"type":"Feature","geometry":{"type":"Point","coordinates":[117.477144,49.588341]},"properties":{"full_address":"内蒙古自治区呼伦贝尔市满洲里市东山街道"}},{"type":"Feature","geometry":{"type":"Point","coordinates":[124.350231,40.098558]},"properties":{"full_address":"辽宁省丹东市振兴区知春园小区一期"}},{"type":"Feature","geometry":{"type":"Point","coordinates":[124.354849,40.104742]},"properties":{"full_address":"辽宁省丹东市振兴区丹建锦园93号楼"}},{"type":"Feature","geometry":{"type":"Point","coordinates":[124.354174,40.104129]},"properties":{"full_address":"辽宁省丹东市振兴区丹建锦园95号楼"}},{"type":"Feature","geometry":{"type":"Point","coordinates":[124.36721,40.104225]},"properties":{"full_address":"辽宁省丹东市振兴区福临花园小区"}},{"type":"Feature","geometry":{"type":"Point","coordinates":[124.348167,40.004713]},"properties":{"full_address":"辽宁省丹东市振兴区文安新村小区"}},{"type":"Feature","geometry":{"type":"Point","coordinates":[125.349553,43.838087]},"properties":{"full_address":"吉林省长春市南关区鸿城街道卫星花园"}},{"type":"Feature","geometry":{"type":"Point","coordinates":[125.335509,43.810922]},"properties":{"full_address":"吉林省长春市南关区明珠街道万科金域长春"}},{"type":"Feature","geometry":{"type":"Point","coordinates":[125.332371,43.897818]},"properties":{"full_address":"吉林省长春市宽城区凯旋街道友谊花园小区"}},{"type":"Feature","geometry":{"type":"Point","coordinates":[125.247924,43.910786]},"properties":{"full_address":"吉林省长春市绿园区林园街道3535小区"}},{"type":"Feature","geometry":{"type":"Point","coordinates":[125.291183,43.920892]},"properties":{"full_address":"吉林省长春市绿园区青年街道133厂小区"}},{"type":"Feature","geometry":{"type":"Point","coordinates":[125.289015,43.922344]},"properties":{"full_address":"吉林省长春市绿园区青年街道宇航社区日鑫小区B区"}},{"type":"Feature","geometry":{"type":"Point","coordinates":[125.369752,43.782667]},"properties":{"full_address":"吉林省长春市净月区德容街道福临花园"}},{"type":"Feature","geometry":{"type":"Point","coordinates":[125.368909,43.809792]},"properties":{"full_address":"吉林省长春市净月区德正街道保利香槟"}},{"type":"Feature","geometry":{"type":"Point","coordinates":[125.393589,43.950179]},"properties":{"full_address":"吉林省长春市经开区兴隆山镇中海寰宇天下"}},{"type":"Feature","geometry":{"type":"Point","coordinates":[125.392061,43.954743]},"properties":{"full_address":"吉林省长春市经开区兴隆山镇金色家园"}},{"type":"Feature","geometry":{"type":"Point","coordinates":[126.225734,43.979173]},"properties":{"full_address":"吉林省吉林市昌邑区桦皮厂镇桦皮厂社区"}},{"type":"Feature","geometry":{"type":"Point","coordinates":[126.262059,44.073294]},"properties":{"full_address":"吉林省吉林市昌邑区两家子乡李屯村"}},{"type":"Feature","geometry":{"type":"Point","coordinates":[126.544244,43.853315]},"properties":{"full_address":"吉林省吉林市船营区北极街道望云山景小区"}},{"type":"Feature","geometry":{"type":"Point","coordinates":[122.807963,45.615534]},"properties":{"full_address":"吉林省白城市经济开发区白城师范学院校园整体"}},{"type":"Feature","geometry":{"type":"Point","coordinates":[126.569844,45.739734]},"properties":{"full_address":"黑龙江省哈尔滨市道里区城乡路街道汇智广场B座（东方大街与规划路交叉口）"}},{"type":"Feature","geometry":{"type":"Point","coordinates":[126.599462,45.734886]},"properties":{"full_address":"黑龙江省哈尔滨市道里区城乡路街道悦庭清湾小区（顾新路497号）"}},{"type":"Feature","geometry":{"type":"Point","coordinates":[126.564567,45.722669]},"properties":{"full_address":"黑龙江省哈尔滨市道里区群力新苑小区C区（工农大街625号）"}},{"type":"Feature","geometry":{"type":"Point","coordinates":[126.641227,45.740301]},"properties":{"full_address":"黑龙江省哈尔滨市南岗区文汇家园小区1栋"}},{"type":"Feature","geometry":{"type":"Point","coordinates":[126.626207,45.748738]},"properties":{"full_address":"黑龙江省哈尔滨市南岗区上夹树街75号院"}},{"type":"Feature","geometry":{"type":"Point","coordinates":[126.634333,45.693195]},"properties":{"full_address":"黑龙江省哈尔滨市南岗区大众新城220栋"}},{"type":"Feature","geometry":{"type":"Point","coordinates":[126.631063,45.756896]},"properties":{"full_address":"黑龙江省哈尔滨市南岗区海城街176号院"}},{"type":"Feature","geometry":{"type":"Point","coordinates":[126.607796,45.700024]},"properties":{"full_address":"黑龙江省哈尔滨市南岗区新境街10号新华印刷厂家属楼小区10栋"}},{"type":"Feature","geometry":{"type":"Point","coordinates":[126.633811,45.757645]},"properties":{"full_address":"黑龙江省哈尔滨市南岗区建筑街84号居民楼"}},{"type":"Feature","geometry":{"type":"Point","coordinates":[126.634804,45.758163]},"properties":{"full_address":"黑龙江省哈尔滨市南岗区建筑街78号所在居民楼和海关街144号所在居民楼及其合围区域"}},{"type":"Feature","geometry":{"type":"Point","coordinates":[126.63344,45.682796]},"properties":{"full_address":"黑龙江省哈尔滨市南岗区鲁商凤凰城3栋"}},{"type":"Feature","geometry":{"type":"Point","coordinates":[126.638341,45.66194]},"properties":{"full_address":"黑龙江省哈尔滨市香坊区朝阳镇前进村居民区"}},{"type":"Feature","geometry":{"type":"Point","coordinates":[126.606994,45.650868]},"properties":{"full_address":"黑龙江省哈尔滨市香坊区朝阳镇永胜村居民区"}},{"type":"Feature","geometry":{"type":"Point","coordinates":[126.77602,45.712059]},"properties":{"full_address":"黑龙江省哈尔滨市香坊区新香坊街道办事处金源蓝城小区11号楼"}},{"type":"Feature","geometry":{"type":"Point","coordinates":[126.594436,45.618744]},"properties":{"full_address":"黑龙江省哈尔滨市香坊区朝阳镇平安村居民区"}},{"type":"Feature","geometry":{"type":"Point","coordinates":[126.336232,45.371599]},"properties":{"full_address":"黑龙江省哈尔滨市双城区承旭街道社保局东边胡同平房片区"}},{"type":"Feature","geometry":{"type":"Point","coordinates":[126.311982,45.365889]},"properties":{"full_address":"黑龙江省哈尔滨市双城区永治街道团结大街235号幸福e家1栋"}},{"type":"Feature","geometry":{"type":"Point","coordinates":[126.371909,45.460288]},"properties":{"full_address":"黑龙江省哈尔滨市双城区幸福街道庆宁村"}},{"type":"Feature","geometry":{"type":"Point","coordinates":[126.298179,45.389768]},"properties":{"full_address":"黑龙江省哈尔滨市双城区永治街道奋斗社区温馨小区1栋"}},{"type":"Feature","geometry":{"type":"Point","coordinates":[126.24858,45.414338]},"properties":{"full_address":"黑龙江省哈尔滨市双城区乐群满族乡乐民村"}},{"type":"Feature","geometry":{"type":"Point","coordinates":[126.295425,45.39092]},"properties":{"full_address":"黑龙江省哈尔滨市双城区永治街道车站街一委四组"}},{"type":"Feature","geometry":{"type":"Point","coordinates":[126.306161,45.391833]},"properties":{"full_address":"黑龙江省哈尔滨市双城区永治街道天富名苑小区"}},{"type":"Feature","geometry":{"type":"Point","coordinates":[126.306714,45.384589]},"properties":{"full_address":"黑龙江省哈尔滨市双城区永治街道洗涤剂家属楼小区"}},{"type":"Feature","geometry":{"type":"Point","coordinates":[126.303811,45.385381]},"properties":{"full_address":"黑龙江省哈尔滨市双城区永治街道财富名苑小区"}},{"type":"Feature","geometry":{"type":"Point","coordinates":[126.321428,45.380756]},"properties":{"full_address":"黑龙江省哈尔滨市双城区永治街道民乐小区B区"}},{"type":"Feature","geometry":{"type":"Point","coordinates":[126.311769,45.378679]},"properties":{"full_address":"黑龙江省哈尔滨市双城区永治街道明城华都5栋"}},{"type":"Feature","geometry":{"type":"Point","coordinates":[126.308265,45.37835]},"properties":{"full_address":"黑龙江省哈尔滨市双城区永治街道鑫马家园小区"}},{"type":"Feature","geometry":{"type":"Point","coordinates":[126.297742,45.360648]},"properties":{"full_address":"黑龙江省哈尔滨市双城区承恩街道承恩村六组二委"}},{"type":"Feature","geometry":{"type":"Point","coordinates":[126.329111,45.360939]},"properties":{"full_address":"黑龙江省哈尔滨市双城区承旭街道党校家属楼小区"}},{"type":"Feature","geometry":{"type":"Point","coordinates":[126.439674,45.424944]},"properties":{"full_address":"黑龙江省哈尔滨市双城区幸福街道永支村"}},{"type":"Feature","geometry":{"type":"Point","coordinates":[126.390369,45.331452]},"properties":{"full_address":"黑龙江省哈尔滨市双城区联兴镇安乐村"}},{"type":"Feature","geometry":{"type":"Point","coordinates":[126.327848,45.380773]},"properties":{"full_address":"黑龙江省哈尔滨市双城区承旭街道枫桥郡小区"}},{"type":"Feature","geometry":{"type":"Point","coordinates":[126.329316,45.368591]},"properties":{"full_address":"黑龙江省哈尔滨市双城区律政花园"}},{"type":"Feature","geometry":{"type":"Point","coordinates":[126.317889,45.381923]},"properties":{"full_address":"黑龙江省哈尔滨市双城区金园一品小区2栋"}},{"type":"Feature","geometry":{"type":"Point","coordinates":[126.317465,45.382391]},"properties":{"full_address":"黑龙江省哈尔滨市双城区金园一品小区4栋"}},{"type":"Feature","geometry":{"type":"Point","coordinates":[121.479018,31.211278]},"properties":{"full_address":"上海市上海市黄浦区打浦桥街道顺昌路612弄20号"}},{"type":"Feature","geometry":{"type":"Point","coordinates":[121.434136,31.075312]},"properties":{"full_address":"上海市上海市闵行区梅陇镇许泾村八组"}},{"type":"Feature","geometry":{"type":"Point","coordinates":[121.427627,31.115935]},"properties":{"full_address":"上海市上海市闵行区梅陇镇行南村三队"}},{"type":"Feature","geometry":{"type":"Point","coordinates":[121.330245,31.226634]},"properties":{"full_address":"上海市上海市闵行区华漕镇许浦村三队"}},{"type":"Feature","geometry":{"type":"Point","coordinates":[121.273533,31.319578]},"properties":{"full_address":"上海市上海市嘉定区马陆镇康年路261号工地宿舍"}},{"type":"Feature","geometry":{"type":"Point","coordinates":[121.290151,31.242066]},"properties":{"full_address":"上海市上海市嘉定区江桥镇增建村柴中村民组"}},{"type":"Feature","geometry":{"type":"Point","coordinates":[121.583173,31.275461]},"properties":{"full_address":"上海市上海市浦东新区日京路88号"}},{"type":"Feature","geometry":{"type":"Point","coordinates":[121.583173,31.275461]},"properties":{"full_address":"上海市上海市浦东新区北蔡镇联勤村冯桥南宅"}},{"type":"Feature","geometry":{"type":"Point","coordinates":[121.556073,31.171023]},"properties":{"full_address":"上海市上海市浦东新区北蔡镇鹏飞路411弄6号"}},{"type":"Feature","geometry":{"type":"Point","coordinates":[121.583173,31.275461]},"properties":{"full_address":"上海市上海市浦东新区康桥镇苗桥路935弄19号"}},{"type":"Feature","geometry":{"type":"Point","coordinates":[121.583173,31.275461]},"properties":{"full_address":"上海市上海市浦东新区北蔡镇御北路235号"}},{"type":"Feature","geometry":{"type":"Point","coordinates":[121.7325,31.38375]},"properties":{"full_address":"上海市上海市崇明区长兴镇长明村21队"}},{"type":"Feature","geometry":{"type":"Point","coordinates":[121.714608,31.38134]},"properties":{"full_address":"上海市上海市崇明区长兴镇新港村15队"}},{"type":"Feature","geometry":{"type":"Point","coordinates":[117.949817,33.934166]},"properties":{"full_address":"江苏省徐州市睢宁县景湖小区一期4号楼"}},{"type":"Feature","geometry":{"type":"Point","coordinates":[117.95348,33.917102]},"properties":{"full_address":"江苏省徐州市睢宁县李岳小区18号楼"}},{"type":"Feature","geometry":{"type":"Point","coordinates":[120.92878,31.272748]},"properties":{"full_address":"江苏省苏州市昆山市通湖路公园壹号13幢"}},{"type":"Feature","geometry":{"type":"Point","coordinates":[120.949162,31.386972]},"properties":{"full_address":"江苏省苏州市昆山市中山路假日花苑3幢、4幢"}},{"type":"Feature","geometry":{"type":"Point","coordinates":[119.526504,26.664921]},"properties":{"full_address":"福建省宁德市蕉城区七都镇浦源社区"}},{"type":"Feature","geometry":{"type":"Point","coordinates":[119.550477,26.757597]},"properties":{"full_address":"福建省宁德市蕉城区七都镇官亭村"}},{"type":"Feature","geometry":{"type":"Point","coordinates":[119.549061,26.776494]},"properties":{"full_address":"福建省宁德市蕉城区七都镇贝河村"}},{"type":"Feature","geometry":{"type":"Point","coordinates":[119.569201,26.808991]},"properties":{"full_address":"福建省宁德市蕉城区八都镇八都村"}},{"type":"Feature","geometry":{"type":"Point","coordinates":[119.551087,26.809965]},"properties":{"full_address":"福建省宁德市蕉城区八都镇下坂村"}},{"type":"Feature","geometry":{"type":"Point","coordinates":[113.990914,33.587453]},"properties":{"full_address":"河南省漯河市郾城区海河路沙澧文景苑小区"}},{"type":"Feature","geometry":{"type":"Point","coordinates":[115.846834,32.074969]},"properties":{"full_address":"河南省信阳市固始县石佛店镇漂桥村"}},{"type":"Feature","geometry":{"type":"Point","coordinates":[115.858527,32.054626]},"properties":{"full_address":"河南省信阳市固始县张广庙镇龙井村"}},{"type":"Feature","geometry":{"type":"Point","coordinates":[111.495698,27.254346]},"properties":{"full_address":"湖南省邵阳市双清区龙须塘街道龙须塘社区"}},{"type":"Feature","geometry":{"type":"Point","coordinates":[111.494707,27.231602]},"properties":{"full_address":"湖南省邵阳市双清区石桥街道和谐社区"}},{"type":"Feature","geometry":{"type":"Point","coordinates":[111.472169,27.251919]},"properties":{"full_address":"湖南省邵阳市双清区小江湖街道滨湖社区"}},{"type":"Feature","geometry":{"type":"Point","coordinates":[111.446187,27.23675]},"properties":{"full_address":"湖南省邵阳市大祥区城北路街道西外街社区的西外街路以南、民族二巷路以西、红旗西路以北、恒大未来城三期围墙以东的围合区域"}},{"type":"Feature","geometry":{"type":"Point","coordinates":[111.457769,27.260667]},"properties":{"full_address":"湖南省邵阳市北塔区陈家桥镇的云山路以北、资兴路以东、龙源路以南、宝苑路以西的围合区域和杨旗岭社区"}},{"type":"Feature","geometry":{"type":"Point","coordinates":[108.81236,34.302455]},"properties":{"full_address":"陕西省西安市西咸新区沣东新城三桥街道秦汉酒店（天台路店）"}}]}