{"type":"FeatureCollection","features":[{"type":"Feature","geometry":{"type":"Point","coordinates":[117.256492,39.138911]},"properties":{"full_address":"天津市天津市河东区向阳楼街道昕旺南苑1号楼、2号楼"}},{"type":"Feature","geometry":{"type":"Point","coordinates":[117.282535,39.095591]},"properties":{"full_address":"天津市天津市河东区二号桥街道金地紫云庭13号楼、14号楼"}},{"type":"Feature","geometry":{"type":"Point","coordinates":[117.24318,39.148279]},"properties":{"full_address":"天津市天津市河东区鲁山道街道皓阳园（4号楼除外）"}},{"type":"Feature","geometry":{"type":"Point","coordinates":[117.261132,39.102843]},"properties":{"full_address":"天津市天津市河东区中山门街道中山门西里（21号楼独院除外）和互助南里（16号楼、18号楼除外）"}},{"type":"Feature","geometry":{"type":"Point","coordinates":[117.262074,39.155391]},"properties":{"full_address":"天津市天津市河东区常州道街道东惠家园（9号楼除外）"}},{"type":"Feature","geometry":{"type":"Point","coordinates":[117.270317,39.075814]},"properties":{"full_address":"天津市天津市河西区柳林街金海湾花园21号楼"}},{"type":"Feature","geometry":{"type":"Point","coordinates":[117.231908,39.08687]},"properties":{"full_address":"天津市天津市河西区尖山街红升里41、43、45、47门"}},{"type":"Feature","geometry":{"type":"Point","coordinates":[117.201759,39.104094]},"properties":{"full_address":"天津市天津市河西区桃园街湛江路4-18门（双号门）、湛江路新村除上述高风险区以外的其他区域"}},{"type":"Feature","geometry":{"type":"Point","coordinates":[117.209673,39.098774]},"properties":{"full_address":"天津市天津市河西区越秀路街恩德西里1-47门、恩德东里1-42门"}},{"type":"Feature","geometry":{"type":"Point","coordinates":[117.207156,39.095007]},"properties":{"full_address":"天津市天津市河西区越秀路街育红楼13至19门"}},{"type":"Feature","geometry":{"type":"Point","coordinates":[117.260395,39.076446]},"properties":{"full_address":"天津市天津市河西区陈塘庄街幸福家园除高风险区外的其他区域、钢厂宿舍、副食大楼"}},{"type":"Feature","geometry":{"type":"Point","coordinates":[117.26326,39.070007]},"properties":{"full_address":"天津市天津市河西区柳林街恒山里46门、48门"}},{"type":"Feature","geometry":{"type":"Point","coordinates":[117.26326,39.070007]},"properties":{"full_address":"天津市天津市河西区柳林街恒山里12门、14门、16门、26门至32门"}},{"type":"Feature","geometry":{"type":"Point","coordinates":[117.207161,39.098526]},"properties":{"full_address":"天津市天津市河西区越秀路街黄埔里2、4、9、13、27、29、30门"}},{"type":"Feature","geometry":{"type":"Point","coordinates":[117.141144,39.143575]},"properties":{"full_address":"天津市天津市南开区长虹街雅云里小区2、3、7、9、10号楼和雅云里平房"}},{"type":"Feature","geometry":{"type":"Point","coordinates":[117.170367,39.1766]},"properties":{"full_address":"天津市天津市红桥区丁字沽街桃花园东里除高风险区外其他区域、光荣楼小区"}},{"type":"Feature","geometry":{"type":"Point","coordinates":[117.305219,39.086369]},"properties":{"full_address":"天津市天津市东丽区张贵庄街詹滨西里小区南院19、27号楼"}},{"type":"Feature","geometry":{"type":"Point","coordinates":[117.311722,39.086208]},"properties":{"full_address":"天津市天津市东丽区张贵庄街津门里小区除高风险区以外区域"}},{"type":"Feature","geometry":{"type":"Point","coordinates":[117.328544,39.094431]},"properties":{"full_address":"天津市天津市东丽区丰年村街万科民和巷花园小区5、12、13、16、17、19、20、21、24、25、26、27、29号楼"}},{"type":"Feature","geometry":{"type":"Point","coordinates":[117.277164,39.111013]},"properties":{"full_address":"天津市天津市东丽区万新街增兴家园小区除高风险区以外区域"}},{"type":"Feature","geometry":{"type":"Point","coordinates":[117.216739,38.993891]},"properties":{"full_address":"天津市天津市西青区大寺镇芦欣家园小区四区8号楼"}},{"type":"Feature","geometry":{"type":"Point","coordinates":[117.173751,39.048094]},"properties":{"full_address":"天津市天津市西青区李七庄街盛阳园（除1号楼、2号楼外）"}},{"type":"Feature","geometry":{"type":"Point","coordinates":[117.236941,38.92198]},"properties":{"full_address":"天津市天津市西青区王稳庄镇大侯庄村平房区（津淄公路以东）"}},{"type":"Feature","geometry":{"type":"Point","coordinates":[117.347413,39.02642]},"properties":{"full_address":"天津市天津市津南区辛庄镇首创星景苑3号楼、6号楼"}},{"type":"Feature","geometry":{"type":"Point","coordinates":[117.332188,38.938644]},"properties":{"full_address":"天津市天津市津南区八里台镇碧桂园映月庭院除2号楼以外区域"}},{"type":"Feature","geometry":{"type":"Point","coordinates":[117.680818,39.006933]},"properties":{"full_address":"天津市天津市滨海新区“东至海滨大道，西至秦滨高速，北至永定新河，南至海河”为四至区域，涉及北塘街、新河街、新北街、杭州道街、泰达街、胡家园街、新村街、塘沽街、新港街等9个街道在以上四至范围内高风险区域之外的区域"}},{"type":"Feature","geometry":{"type":"Point","coordinates":[114.52575,38.024125]},"properties":{"full_address":"河北省石家庄市裕华区槐底街道槐底二区"}},{"type":"Feature","geometry":{"type":"Point","coordinates":[114.544576,38.011241]},"properties":{"full_address":"河北省石家庄市裕华区裕兴街道天海誉天下B区2号楼"}},{"type":"Feature","geometry":{"type":"Point","coordinates":[115.517572,38.871032]},"properties":{"full_address":"河北省保定市莲池区河北大学五四路校区（五四东路180号）"}},{"type":"Feature","geometry":{"type":"Point","coordinates":[115.214905,37.932313]},"properties":{"full_address":"河北省辛集市辛集市维也纳酒店（兴华路与方碑大街交口西北角）"}},{"type":"Feature","geometry":{"type":"Point","coordinates":[115.210636,37.93772]},"properties":{"full_address":"河北省辛集市辛集市亨盛小区南区东院2号楼"}},{"type":"Feature","geometry":{"type":"Point","coordinates":[112.554443,37.824196]},"properties":{"full_address":"山西省太原市小店区水总花园小区"}},{"type":"Feature","geometry":{"type":"Point","coordinates":[112.547732,37.967843]},"properties":{"full_address":"山西省太原市尖草坪区新店小区二期（3、4、5号楼）；荣兴天顺小区1号楼；太钢青楼宿舍（12、13、14、15、16、17、18、19、20号楼及社区食堂）"}},{"type":"Feature","geometry":{"type":"Point","coordinates":[112.563644,37.808288]},"properties":{"full_address":"山西省太原市万柏林区山西大众电子信息产业集团有限公司厂区"}},{"type":"Feature","geometry":{"type":"Point","coordinates":[112.508578,37.79503]},"properties":{"full_address":"山西省太原市晋源区太原科技大学南校区"}},{"type":"Feature","geometry":{"type":"Point","coordinates":[113.611557,40.034962]},"properties":{"full_address":"山西省大同市云州区云州区交通小区"}},{"type":"Feature","geometry":{"type":"Point","coordinates":[113.896706,40.055986]},"properties":{"full_address":"山西省大同市阳高县阳高县东小村（包括新村）"}},{"type":"Feature","geometry":{"type":"Point","coordinates":[111.711172,40.865628]},"properties":{"full_address":"内蒙古自治区呼和浩特市新城区泽信加州华府B区（除2、3、4、5、7、8号楼）"}},{"type":"Feature","geometry":{"type":"Point","coordinates":[111.729585,40.855758]},"properties":{"full_address":"内蒙古自治区呼和浩特市新城区巨华世纪城和谐园（除1、3号楼）"}},{"type":"Feature","geometry":{"type":"Point","coordinates":[111.742096,40.867825]},"properties":{"full_address":"内蒙古自治区呼和浩特市新城区舜和慢城（除一期1、2、4、5号楼）"}},{"type":"Feature","geometry":{"type":"Point","coordinates":[111.640617,40.820814]},"properties":{"full_address":"内蒙古自治区呼和浩特市回民区光明路探矿小区（除简易楼南排一楼）"}},{"type":"Feature","geometry":{"type":"Point","coordinates":[111.635409,40.815691]},"properties":{"full_address":"内蒙古自治区呼和浩特市回民区阿吉拉沁北路与新华西街交叉口工行家属院（除三号楼）"}},{"type":"Feature","geometry":{"type":"Point","coordinates":[111.65395,40.8185]},"properties":{"full_address":"内蒙古自治区呼和浩特市回民区回民区通道街新华桥铁路小区（除一号楼）"}},{"type":"Feature","geometry":{"type":"Point","coordinates":[111.658655,40.805693]},"properties":{"full_address":"内蒙古自治区呼和浩特市回民区新民街世纪御园（除5号楼）及相邻城市之光小区"}},{"type":"Feature","geometry":{"type":"Point","coordinates":[111.600581,40.826695]},"properties":{"full_address":"内蒙古自治区呼和浩特市回民区攸攸板镇青城美墅时代天骄（除5号楼）"}},{"type":"Feature","geometry":{"type":"Point","coordinates":[111.654118,40.8058]},"properties":{"full_address":"内蒙古自治区呼和浩特市玉泉区九龙湾街兰德公寓(除6-17层)"}},{"type":"Feature","geometry":{"type":"Point","coordinates":[107.467651,40.854113]},"properties":{"full_address":"内蒙古自治区巴彦淖尔市临河区曙光乡治丰二组"}},{"type":"Feature","geometry":{"type":"Point","coordinates":[112.349978,43.228509]},"properties":{"full_address":"内蒙古自治区锡林郭勒盟二连浩特市格日勒敖都苏木呼格吉勒图雅嘎查35号"}},{"type":"Feature","geometry":{"type":"Point","coordinates":[111.980601,43.645488]},"properties":{"full_address":"内蒙古自治区锡林郭勒盟二连浩特市步行街中段东、西侧街面楼"}},{"type":"Feature","geometry":{"type":"Point","coordinates":[126.761453,45.727293]},"properties":{"full_address":"黑龙江省哈尔滨市香坊区金源幸福小区"}},{"type":"Feature","geometry":{"type":"Point","coordinates":[126.726039,45.729561]},"properties":{"full_address":"黑龙江省哈尔滨市香坊区城东新居D区8号楼"}},{"type":"Feature","geometry":{"type":"Point","coordinates":[126.677798,45.725027]},"properties":{"full_address":"黑龙江省哈尔滨市香坊区香木街副12-10号院1号楼"}},{"type":"Feature","geometry":{"type":"Point","coordinates":[126.679488,45.726504]},"properties":{"full_address":"黑龙江省哈尔滨市香坊区古香街44号楼"}},{"type":"Feature","geometry":{"type":"Point","coordinates":[126.75841,45.727079]},"properties":{"full_address":"黑龙江省哈尔滨市香坊区高丽风情小镇全域"}},{"type":"Feature","geometry":{"type":"Point","coordinates":[126.73983,45.721534]},"properties":{"full_address":"黑龙江省哈尔滨市香坊区幸福镇安居社区4号楼"}},{"type":"Feature","geometry":{"type":"Point","coordinates":[126.797418,45.700963]},"properties":{"full_address":"黑龙江省哈尔滨市香坊区哈纺社区210栋"}},{"type":"Feature","geometry":{"type":"Point","coordinates":[126.679885,45.722312]},"properties":{"full_address":"黑龙江省哈尔滨市香坊区香坊大街200号院"}},{"type":"Feature","geometry":{"type":"Point","coordinates":[126.684216,45.724776]},"properties":{"full_address":"黑龙江省哈尔滨市香坊区香武胡同4号"}},{"type":"Feature","geometry":{"type":"Point","coordinates":[126.6842,45.724847]},"properties":{"full_address":"黑龙江省哈尔滨市香坊区香武胡同6号"}},{"type":"Feature","geometry":{"type":"Point","coordinates":[126.684229,45.725]},"properties":{"full_address":"黑龙江省哈尔滨市香坊区香武胡同10号1单元、2单元、3单元风险等级调整为中风险区"}},{"type":"Feature","geometry":{"type":"Point","coordinates":[130.362288,46.819308]},"properties":{"full_address":"黑龙江省佳木斯市向阳区市委22号楼"}},{"type":"Feature","geometry":{"type":"Point","coordinates":[130.36703,46.811155]},"properties":{"full_address":"黑龙江省佳木斯市向阳区时代景城小区"}},{"type":"Feature","geometry":{"type":"Point","coordinates":[130.373844,46.796295]},"properties":{"full_address":"黑龙江省佳木斯市向阳区中山名苑7号楼"}},{"type":"Feature","geometry":{"type":"Point","coordinates":[130.355583,46.811417]},"properties":{"full_address":"黑龙江省佳木斯市向阳区建业小区"}},{"type":"Feature","geometry":{"type":"Point","coordinates":[130.366323,46.812309]},"properties":{"full_address":"黑龙江省佳木斯市向阳区红旗嘉苑"}},{"type":"Feature","geometry":{"type":"Point","coordinates":[130.355074,46.817015]},"properties":{"full_address":"黑龙江省佳木斯市向阳区金地家园"}},{"type":"Feature","geometry":{"type":"Point","coordinates":[130.339624,46.826899]},"properties":{"full_address":"黑龙江省佳木斯市向阳区港龙东方城11号楼"}},{"type":"Feature","geometry":{"type":"Point","coordinates":[130.354916,46.802967]},"properties":{"full_address":"黑龙江省佳木斯市向阳区鹤电小区1号楼"}},{"type":"Feature","geometry":{"type":"Point","coordinates":[130.355774,46.802872]},"properties":{"full_address":"黑龙江省佳木斯市向阳区鹤电小区3号楼"}},{"type":"Feature","geometry":{"type":"Point","coordinates":[130.35123,46.816986]},"properties":{"full_address":"黑龙江省佳木斯市向阳区嘉园小区独栋楼"}},{"type":"Feature","geometry":{"type":"Point","coordinates":[130.363071,46.801679]},"properties":{"full_address":"黑龙江省佳木斯市向阳区杏湖壹品4号楼"}},{"type":"Feature","geometry":{"type":"Point","coordinates":[130.366833,46.81125]},"properties":{"full_address":"黑龙江省佳木斯市向阳区珍铭苑3号楼"}},{"type":"Feature","geometry":{"type":"Point","coordinates":[130.35912,46.80531]},"properties":{"full_address":"黑龙江省佳木斯市向阳区光明社区佳大26号楼"}},{"type":"Feature","geometry":{"type":"Point","coordinates":[130.348775,46.798434]},"properties":{"full_address":"黑龙江省佳木斯市向阳区金地家园7号楼"}},{"type":"Feature","geometry":{"type":"Point","coordinates":[130.3552,46.815]},"properties":{"full_address":"黑龙江省佳木斯市向阳区牧工商小区"}},{"type":"Feature","geometry":{"type":"Point","coordinates":[130.36803,46.804326]},"properties":{"full_address":"黑龙江省佳木斯市向阳区永房教育一小区"}},{"type":"Feature","geometry":{"type":"Point","coordinates":[130.367242,46.790403]},"properties":{"full_address":"黑龙江省佳木斯市向阳区翰林名苑小区"}},{"type":"Feature","geometry":{"type":"Point","coordinates":[130.362545,46.810295]},"properties":{"full_address":"黑龙江省佳木斯市向阳区爱心家园小区"}},{"type":"Feature","geometry":{"type":"Point","coordinates":[130.360668,46.811921]},"properties":{"full_address":"黑龙江省佳木斯市向阳区滨江小区二期"}},{"type":"Feature","geometry":{"type":"Point","coordinates":[130.35455,46.8155]},"properties":{"full_address":"黑龙江省佳木斯市向阳区帝景豪庭小区"}},{"type":"Feature","geometry":{"type":"Point","coordinates":[130.356375,46.811]},"properties":{"full_address":"黑龙江省佳木斯市向阳区九州社区永房小区"}},{"type":"Feature","geometry":{"type":"Point","coordinates":[130.362871,46.801909]},"properties":{"full_address":"黑龙江省佳木斯市向阳区杏湖壹品小区"}},{"type":"Feature","geometry":{"type":"Point","coordinates":[130.348223,46.804335]},"properties":{"full_address":"黑龙江省佳木斯市向阳区长青街教育一小区"}},{"type":"Feature","geometry":{"type":"Point","coordinates":[130.365346,46.80779]},"properties":{"full_address":"黑龙江省佳木斯市向阳区璞院3号楼"}},{"type":"Feature","geometry":{"type":"Point","coordinates":[130.355571,46.819232]},"properties":{"full_address":"黑龙江省佳木斯市向阳区德祥小区33号楼"}},{"type":"Feature","geometry":{"type":"Point","coordinates":[130.339624,46.826899]},"properties":{"full_address":"黑龙江省佳木斯市向阳区港龙东方城12号楼"}},{"type":"Feature","geometry":{"type":"Point","coordinates":[130.369281,46.806078]},"properties":{"full_address":"黑龙江省佳木斯市向阳区佳里中心C座"}},{"type":"Feature","geometry":{"type":"Point","coordinates":[130.365346,46.80779]},"properties":{"full_address":"黑龙江省佳木斯市向阳区中央公园7号楼"}},{"type":"Feature","geometry":{"type":"Point","coordinates":[130.36803,46.804326]},"properties":{"full_address":"黑龙江省佳木斯市向阳区体委小区2号楼"}},{"type":"Feature","geometry":{"type":"Point","coordinates":[130.361121,46.813337]},"properties":{"full_address":"黑龙江省佳木斯市向阳区龙海大厦"}},{"type":"Feature","geometry":{"type":"Point","coordinates":[130.36145,46.816806]},"properties":{"full_address":"黑龙江省佳木斯市向阳区西林兴城小区A楼"}},{"type":"Feature","geometry":{"type":"Point","coordinates":[130.359982,46.800633]},"properties":{"full_address":"黑龙江省佳木斯市向阳区杏林南苑A栋"}},{"type":"Feature","geometry":{"type":"Point","coordinates":[130.367949,46.812382]},"properties":{"full_address":"黑龙江省佳木斯市向阳区金鑫综合楼"}},{"type":"Feature","geometry":{"type":"Point","coordinates":[130.350622,46.789402]},"properties":{"full_address":"黑龙江省佳木斯市向阳区昌隆世家小区"}},{"type":"Feature","geometry":{"type":"Point","coordinates":[130.357408,46.812907]},"properties":{"full_address":"黑龙江省佳木斯市向阳区宏安小区"}},{"type":"Feature","geometry":{"type":"Point","coordinates":[130.360546,46.799885]},"properties":{"full_address":"黑龙江省佳木斯市向阳区杏林南苑"}},{"type":"Feature","geometry":{"type":"Point","coordinates":[130.351394,46.807064]},"properties":{"full_address":"黑龙江省佳木斯市向阳区志兴社区林业楼"}},{"type":"Feature","geometry":{"type":"Point","coordinates":[130.360567,46.81225]},"properties":{"full_address":"黑龙江省佳木斯市向阳区滨江小区一期"}},{"type":"Feature","geometry":{"type":"Point","coordinates":[130.367458,46.811988]},"properties":{"full_address":"黑龙江省佳木斯市向阳区枫和林里小区"}},{"type":"Feature","geometry":{"type":"Point","coordinates":[130.365028,46.811729]},"properties":{"full_address":"黑龙江省佳木斯市向阳区帝景豪庭三期F区10号楼"}},{"type":"Feature","geometry":{"type":"Point","coordinates":[130.3585,46.81795]},"properties":{"full_address":"黑龙江省佳木斯市向阳区临江花园8号楼"}},{"type":"Feature","geometry":{"type":"Point","coordinates":[130.34808,46.81072]},"properties":{"full_address":"黑龙江省佳木斯市向阳区宏光新天地G栋"}},{"type":"Feature","geometry":{"type":"Point","coordinates":[130.351659,46.807111]},"properties":{"full_address":"黑龙江省佳木斯市向阳区志兴小区8号楼"}},{"type":"Feature","geometry":{"type":"Point","coordinates":[130.369246,46.806088]},"properties":{"full_address":"黑龙江省佳木斯市向阳区佳里中心B座"}},{"type":"Feature","geometry":{"type":"Point","coordinates":[130.350725,46.798299]},"properties":{"full_address":"黑龙江省佳木斯市向阳区金地家园15号楼"}},{"type":"Feature","geometry":{"type":"Point","coordinates":[130.366558,46.809235]},"properties":{"full_address":"黑龙江省佳木斯市向阳区安民社区一建17号楼"}},{"type":"Feature","geometry":{"type":"Point","coordinates":[130.348635,46.814176]},"properties":{"full_address":"黑龙江省佳木斯市向阳区帝景豪庭G3栋"}},{"type":"Feature","geometry":{"type":"Point","coordinates":[130.339076,46.789078]},"properties":{"full_address":"黑龙江省佳木斯市向阳区万象府6号楼"}},{"type":"Feature","geometry":{"type":"Point","coordinates":[130.367452,46.798753]},"properties":{"full_address":"黑龙江省佳木斯市向阳区迪尔小区D楼"}},{"type":"Feature","geometry":{"type":"Point","coordinates":[130.364284,46.784347]},"properties":{"full_address":"黑龙江省佳木斯市向阳区永房26号楼"}},{"type":"Feature","geometry":{"type":"Point","coordinates":[130.362313,46.8195]},"properties":{"full_address":"黑龙江省佳木斯市向阳区市委24号楼"}},{"type":"Feature","geometry":{"type":"Point","coordinates":[130.365579,46.807417]},"properties":{"full_address":"黑龙江省佳木斯市向阳区政府34号楼"}},{"type":"Feature","geometry":{"type":"Point","coordinates":[130.360397,46.812261]},"properties":{"full_address":"黑龙江省佳木斯市向阳区慧海家园C楼"}},{"type":"Feature","geometry":{"type":"Point","coordinates":[130.353911,46.80461]},"properties":{"full_address":"黑龙江省佳木斯市向阳区群英巷科技楼"}},{"type":"Feature","geometry":{"type":"Point","coordinates":[130.366947,46.798848]},"properties":{"full_address":"黑龙江省佳木斯市向阳区迪尔小区"}},{"type":"Feature","geometry":{"type":"Point","coordinates":[130.355707,46.816699]},"properties":{"full_address":"黑龙江省佳木斯市向阳区中央公馆K区1号楼"}},{"type":"Feature","geometry":{"type":"Point","coordinates":[130.355063,46.817896]},"properties":{"full_address":"黑龙江省佳木斯市向阳区三江商贸城E区6号楼"}},{"type":"Feature","geometry":{"type":"Point","coordinates":[130.365759,46.786449]},"properties":{"full_address":"黑龙江省佳木斯市向阳区佳木斯大学一区B院42号楼"}},{"type":"Feature","geometry":{"type":"Point","coordinates":[130.365346,46.80779]},"properties":{"full_address":"黑龙江省佳木斯市向阳区中央公园家榆园（不包含2号楼、4号楼）"}},{"type":"Feature","geometry":{"type":"Point","coordinates":[130.356375,46.81025]},"properties":{"full_address":"黑龙江省佳木斯市向阳区玻璃厂家属楼"}},{"type":"Feature","geometry":{"type":"Point","coordinates":[130.359853,46.790301]},"properties":{"full_address":"黑龙江省佳木斯市向阳区学府嘉园小区"}},{"type":"Feature","geometry":{"type":"Point","coordinates":[130.371415,46.802604]},"properties":{"full_address":"黑龙江省佳木斯市向阳区圣泰嘉苑小区"}},{"type":"Feature","geometry":{"type":"Point","coordinates":[130.373127,46.810139]},"properties":{"full_address":"黑龙江省佳木斯市向阳区志兴社区光大小区"}},{"type":"Feature","geometry":{"type":"Point","coordinates":[130.361444,46.81203]},"properties":{"full_address":"黑龙江省佳木斯市向阳区万达公寓"}},{"type":"Feature","geometry":{"type":"Point","coordinates":[130.355266,46.817168]},"properties":{"full_address":"黑龙江省佳木斯市向阳区九洲社区美丽家园"}},{"type":"Feature","geometry":{"type":"Point","coordinates":[130.351394,46.807064]},"properties":{"full_address":"黑龙江省佳木斯市向阳区志兴社区沪鸭楼"}},{"type":"Feature","geometry":{"type":"Point","coordinates":[130.350796,46.816765]},"properties":{"full_address":"黑龙江省佳木斯市向阳区祥瑞嘉园小区、果品综合楼"}},{"type":"Feature","geometry":{"type":"Point","coordinates":[130.367796,46.817379]},"properties":{"full_address":"黑龙江省佳木斯市向阳区御景华庭一期6号楼"}},{"type":"Feature","geometry":{"type":"Point","coordinates":[130.355625,46.783437]},"properties":{"full_address":"黑龙江省佳木斯市向阳区天福城56号楼"}},{"type":"Feature","geometry":{"type":"Point","coordinates":[130.355063,46.817896]},"properties":{"full_address":"黑龙江省佳木斯市向阳区三江商贸城E区1号楼"}},{"type":"Feature","geometry":{"type":"Point","coordinates":[130.355583,46.811417]},"properties":{"full_address":"黑龙江省佳木斯市向阳区建业小区3号楼"}},{"type":"Feature","geometry":{"type":"Point","coordinates":[130.360421,46.803699]},"properties":{"full_address":"黑龙江省佳木斯市向阳区杏林公馆A座"}},{"type":"Feature","geometry":{"type":"Point","coordinates":[130.361301,46.810899]},"properties":{"full_address":"黑龙江省佳木斯市向阳区沁香华庭H栋"}},{"type":"Feature","geometry":{"type":"Point","coordinates":[130.356375,46.811]},"properties":{"full_address":"黑龙江省佳木斯市向阳区永房小区39号楼"}},{"type":"Feature","geometry":{"type":"Point","coordinates":[130.350535,46.815514]},"properties":{"full_address":"黑龙江省佳木斯市向阳区同福嘉园G栋"}},{"type":"Feature","geometry":{"type":"Point","coordinates":[130.344523,46.801875]},"properties":{"full_address":"黑龙江省佳木斯市向阳区珍铭苑10号楼"}},{"type":"Feature","geometry":{"type":"Point","coordinates":[130.376464,46.79375]},"properties":{"full_address":"黑龙江省佳木斯市向阳区南铁西小区41号楼"}},{"type":"Feature","geometry":{"type":"Point","coordinates":[130.340722,46.811522]},"properties":{"full_address":"黑龙江省佳木斯市向阳区御景华庭5号楼"}},{"type":"Feature","geometry":{"type":"Point","coordinates":[130.361852,46.810944]},"properties":{"full_address":"黑龙江省佳木斯市向阳区美好家园11号楼"}},{"type":"Feature","geometry":{"type":"Point","coordinates":[130.363362,46.811075]},"properties":{"full_address":"黑龙江省佳木斯市向阳区美好家园13号楼"}},{"type":"Feature","geometry":{"type":"Point","coordinates":[130.355583,46.811417]},"properties":{"full_address":"黑龙江省佳木斯市向阳区建业小区2号楼"}},{"type":"Feature","geometry":{"type":"Point","coordinates":[130.357,46.80545]},"properties":{"full_address":"黑龙江省佳木斯市向阳区沁香华庭U栋"}},{"type":"Feature","geometry":{"type":"Point","coordinates":[130.372571,46.791411]},"properties":{"full_address":"黑龙江省佳木斯市向阳区佳大尚都55号楼"}},{"type":"Feature","geometry":{"type":"Point","coordinates":[130.34693,46.813426]},"properties":{"full_address":"黑龙江省佳木斯市向阳区谷丰家园8号楼"}},{"type":"Feature","geometry":{"type":"Point","coordinates":[130.343399,46.825009]},"properties":{"full_address":"黑龙江省佳木斯市向阳区枫和万嘉L栋"}},{"type":"Feature","geometry":{"type":"Point","coordinates":[130.363951,46.813079]},"properties":{"full_address":"黑龙江省佳木斯市向阳区富怡雅居独栋楼"}},{"type":"Feature","geometry":{"type":"Point","coordinates":[130.364899,46.807368]},"properties":{"full_address":"黑龙江省佳木斯市向阳区恒基乐园独栋楼"}},{"type":"Feature","geometry":{"type":"Point","coordinates":[130.349266,46.811029]},"properties":{"full_address":"黑龙江省佳木斯市向阳区宏光新天地C栋"}},{"type":"Feature","geometry":{"type":"Point","coordinates":[130.351394,46.807064]},"properties":{"full_address":"黑龙江省佳木斯市向阳区志兴社区托管1号楼"}},{"type":"Feature","geometry":{"type":"Point","coordinates":[130.36145,46.816806]},"properties":{"full_address":"黑龙江省佳木斯市向阳区西林兴城小区C栋"}},{"type":"Feature","geometry":{"type":"Point","coordinates":[130.368509,46.807444]},"properties":{"full_address":"黑龙江省佳木斯市向阳区金夏佳苑独栋楼"}},{"type":"Feature","geometry":{"type":"Point","coordinates":[130.367927,46.811683]},"properties":{"full_address":"黑龙江省佳木斯市向阳区万达华府一期3号楼"}},{"type":"Feature","geometry":{"type":"Point","coordinates":[130.376421,46.787363]},"properties":{"full_address":"黑龙江省佳木斯市向阳区佳大尚都三角地"}},{"type":"Feature","geometry":{"type":"Point","coordinates":[130.354967,46.80286]},"properties":{"full_address":"黑龙江省佳木斯市向阳区群英社区"}},{"type":"Feature","geometry":{"type":"Point","coordinates":[130.369246,46.806088]},"properties":{"full_address":"黑龙江省佳木斯市向阳区佳里中心及其东面永房1号楼"}},{"type":"Feature","geometry":{"type":"Point","coordinates":[130.35786,46.81787]},"properties":{"full_address":"黑龙江省佳木斯市向阳区时代景城一期"}},{"type":"Feature","geometry":{"type":"Point","coordinates":[130.357188,46.808031]},"properties":{"full_address":"黑龙江省佳木斯市向阳区环卫小区"}},{"type":"Feature","geometry":{"type":"Point","coordinates":[130.367355,46.812543]},"properties":{"full_address":"黑龙江省佳木斯市向阳区宏光新天地小区"}},{"type":"Feature","geometry":{"type":"Point","coordinates":[130.372113,46.792673]},"properties":{"full_address":"黑龙江省佳木斯市向阳区佳大尚都九栋洋房小区"}},{"type":"Feature","geometry":{"type":"Point","coordinates":[130.362288,46.819308]},"properties":{"full_address":"黑龙江省佳木斯市向阳区市委25号楼"}},{"type":"Feature","geometry":{"type":"Point","coordinates":[130.365346,46.80779]},"properties":{"full_address":"黑龙江省佳木斯市向阳区新宜社区公企2号楼"}},{"type":"Feature","geometry":{"type":"Point","coordinates":[130.368917,46.812083]},"properties":{"full_address":"黑龙江省佳木斯市向阳区馨泰家园A楼"}},{"type":"Feature","geometry":{"type":"Point","coordinates":[130.367927,46.811683]},"properties":{"full_address":"黑龙江省佳木斯市向阳区万达华府一期"}},{"type":"Feature","geometry":{"type":"Point","coordinates":[130.369409,46.805797]},"properties":{"full_address":"黑龙江省佳木斯市向阳区鸿业大厦--向阳区"}},{"type":"Feature","geometry":{"type":"Point","coordinates":[130.398416,46.804523]},"properties":{"full_address":"黑龙江省佳木斯市向阳区康居嘉园R2栋"}},{"type":"Feature","geometry":{"type":"Point","coordinates":[130.386265,46.819277]},"properties":{"full_address":"黑龙江省佳木斯市前进区金港湾小区"}},{"type":"Feature","geometry":{"type":"Point","coordinates":[130.403347,46.799846]},"properties":{"full_address":"黑龙江省佳木斯市前进区胜利小区E栋"}},{"type":"Feature","geometry":{"type":"Point","coordinates":[130.403134,46.799793]},"properties":{"full_address":"黑龙江省佳木斯市前进区胜利小区"}},{"type":"Feature","geometry":{"type":"Point","coordinates":[130.38413,46.81915]},"properties":{"full_address":"黑龙江省佳木斯市前进区金港湾一期多层6号楼"}},{"type":"Feature","geometry":{"type":"Point","coordinates":[130.388554,46.819976]},"properties":{"full_address":"黑龙江省佳木斯市前进区金港湾二期高层10号楼"}},{"type":"Feature","geometry":{"type":"Point","coordinates":[130.371936,46.818577]},"properties":{"full_address":"黑龙江省佳木斯市前进区航运小区8号楼（沿江巷西）"}},{"type":"Feature","geometry":{"type":"Point","coordinates":[130.37537,46.810055]},"properties":{"full_address":"黑龙江省佳木斯市前进区园林社区天麒2号楼"}},{"type":"Feature","geometry":{"type":"Point","coordinates":[130.375063,46.814103]},"properties":{"full_address":"黑龙江省佳木斯市前进区永和街大厦楼1-4单元"}},{"type":"Feature","geometry":{"type":"Point","coordinates":[130.374708,46.816336]},"properties":{"full_address":"黑龙江省佳木斯市前进区港务小区28号楼"}},{"type":"Feature","geometry":{"type":"Point","coordinates":[130.402458,46.799977]},"properties":{"full_address":"黑龙江省佳木斯市前进区胜利小区A栋"}},{"type":"Feature","geometry":{"type":"Point","coordinates":[130.380061,46.807929]},"properties":{"full_address":"黑龙江省佳木斯市前进区地质小区及院内地质勘探院"}},{"type":"Feature","geometry":{"type":"Point","coordinates":[130.381204,46.790389]},"properties":{"full_address":"黑龙江省佳木斯市前进区林业局家属楼B栋"}},{"type":"Feature","geometry":{"type":"Point","coordinates":[130.372087,46.818323]},"properties":{"full_address":"黑龙江省佳木斯市前进区航运小区22号楼、23号楼"}},{"type":"Feature","geometry":{"type":"Point","coordinates":[130.389452,46.798426]},"properties":{"full_address":"黑龙江省佳木斯市前进区枫桥社区Z4栋、Z2栋1单元"}},{"type":"Feature","geometry":{"type":"Point","coordinates":[130.396984,46.790702]},"properties":{"full_address":"黑龙江省佳木斯市前进区江南府邸小区"}},{"type":"Feature","geometry":{"type":"Point","coordinates":[130.382063,46.815746]},"properties":{"full_address":"黑龙江省佳木斯市前进区春光电业小区19号楼"}},{"type":"Feature","geometry":{"type":"Point","coordinates":[130.391434,46.81212]},"properties":{"full_address":"黑龙江省佳木斯市前进区教育二小区13号楼"}},{"type":"Feature","geometry":{"type":"Point","coordinates":[130.389374,46.820459]},"properties":{"full_address":"黑龙江省佳木斯市前进区金港湾2期11号楼"}},{"type":"Feature","geometry":{"type":"Point","coordinates":[130.365027,46.817201]},"properties":{"full_address":"黑龙江省佳木斯市前进区唐人中心D栋"}},{"type":"Feature","geometry":{"type":"Point","coordinates":[130.365027,46.817201]},"properties":{"full_address":"黑龙江省佳木斯市前进区唐人中心小区"}},{"type":"Feature","geometry":{"type":"Point","coordinates":[130.373183,46.802788]},"properties":{"full_address":"黑龙江省佳木斯市前进区吉祥福苑（独栋楼）"}},{"type":"Feature","geometry":{"type":"Point","coordinates":[130.399364,46.815533]},"properties":{"full_address":"黑龙江省佳木斯市前进区玫瑰园小区C2栋"}},{"type":"Feature","geometry":{"type":"Point","coordinates":[130.399507,46.816912]},"properties":{"full_address":"黑龙江省佳木斯市东风区阳光绿洲H栋"}},{"type":"Feature","geometry":{"type":"Point","coordinates":[130.403028,46.827823]},"properties":{"full_address":"黑龙江省佳木斯市东风区发电北区33号楼"}},{"type":"Feature","geometry":{"type":"Point","coordinates":[130.398726,46.816616]},"properties":{"full_address":"黑龙江省佳木斯市东风区阳光绿洲小区"}},{"type":"Feature","geometry":{"type":"Point","coordinates":[130.403664,46.822572]},"properties":{"full_address":"黑龙江省佳木斯市东风区东兴城C区43号楼"}},{"type":"Feature","geometry":{"type":"Point","coordinates":[130.403096,46.827924]},"properties":{"full_address":"黑龙江省佳木斯市东风区兴电社区33号楼"}},{"type":"Feature","geometry":{"type":"Point","coordinates":[130.397492,46.814555]},"properties":{"full_address":"黑龙江省佳木斯市东风区玫瑰园小区U栋"}},{"type":"Feature","geometry":{"type":"Point","coordinates":[130.398871,46.823278]},"properties":{"full_address":"黑龙江省佳木斯市东风区东湾假日小区"}},{"type":"Feature","geometry":{"type":"Point","coordinates":[130.404958,46.816808]},"properties":{"full_address":"黑龙江省佳木斯市东风区东方花园1号楼"}},{"type":"Feature","geometry":{"type":"Point","coordinates":[130.430948,46.82703]},"properties":{"full_address":"黑龙江省佳木斯市东风区东兴城G区99号楼"}},{"type":"Feature","geometry":{"type":"Point","coordinates":[130.4185,46.8125]},"properties":{"full_address":"黑龙江省佳木斯市东风区农家小区2号楼"}},{"type":"Feature","geometry":{"type":"Point","coordinates":[130.340542,46.799046]},"properties":{"full_address":"黑龙江省佳木斯市郊区长安社区P栋"}},{"type":"Feature","geometry":{"type":"Point","coordinates":[130.329344,46.807797]},"properties":{"full_address":"黑龙江省佳木斯市郊区欧亚小镇F栋"}},{"type":"Feature","geometry":{"type":"Point","coordinates":[130.368566,46.812271]},"properties":{"full_address":"黑龙江省佳木斯市郊区长安新城小区"}},{"type":"Feature","geometry":{"type":"Point","coordinates":[130.402714,46.822482]},"properties":{"full_address":"黑龙江省佳木斯市郊区物价小区"}},{"type":"Feature","geometry":{"type":"Point","coordinates":[130.328485,46.804589]},"properties":{"full_address":"黑龙江省佳木斯市郊区英伦尚城小区"}},{"type":"Feature","geometry":{"type":"Point","coordinates":[130.320609,46.803399]},"properties":{"full_address":"黑龙江省佳木斯市郊区荷兰城观湖小区"}},{"type":"Feature","geometry":{"type":"Point","coordinates":[130.315951,46.817032]},"properties":{"full_address":"黑龙江省佳木斯市郊区江南雅居小区"}},{"type":"Feature","geometry":{"type":"Point","coordinates":[130.32692,46.78937]},"properties":{"full_address":"黑龙江省佳木斯市郊区万兴华城B2栋"}},{"type":"Feature","geometry":{"type":"Point","coordinates":[130.333909,46.801163]},"properties":{"full_address":"黑龙江省佳木斯市郊区长安新城10号楼"}},{"type":"Feature","geometry":{"type":"Point","coordinates":[130.341388,46.79845]},"properties":{"full_address":"黑龙江省佳木斯市郊区荣军社区良种场2号楼"}},{"type":"Feature","geometry":{"type":"Point","coordinates":[130.361966,46.810883]},"properties":{"full_address":"黑龙江省佳木斯市郊区金融小区A3栋"}},{"type":"Feature","geometry":{"type":"Point","coordinates":[130.37228,46.869492]},"properties":{"full_address":"黑龙江省佳木斯市郊区平安乡群英村2组"}},{"type":"Feature","geometry":{"type":"Point","coordinates":[130.318945,46.857964]},"properties":{"full_address":"黑龙江省佳木斯市郊区莲江口镇鑫城小区厢楼"}},{"type":"Feature","geometry":{"type":"Point","coordinates":[130.361966,46.810883]},"properties":{"full_address":"黑龙江省佳木斯市郊区金融小区A11号楼"}},{"type":"Feature","geometry":{"type":"Point","coordinates":[130.342927,46.799839]},"properties":{"full_address":"黑龙江省佳木斯市郊区长安嘉苑检察院楼B栋"}},{"type":"Feature","geometry":{"type":"Point","coordinates":[130.311438,46.821393]},"properties":{"full_address":"黑龙江省佳木斯市郊区东升江畔小区"}},{"type":"Feature","geometry":{"type":"Point","coordinates":[130.329299,46.810746]},"properties":{"full_address":"黑龙江省佳木斯市郊区　　农行家属楼（友谊路和红旗路交叉口附近）"}},{"type":"Feature","geometry":{"type":"Point","coordinates":[130.358181,46.757541]},"properties":{"full_address":"黑龙江省佳木斯市郊区四丰湖小镇"}},{"type":"Feature","geometry":{"type":"Point","coordinates":[130.368957,46.81206]},"properties":{"full_address":"黑龙江省佳木斯市郊区金融小区21栋"}},{"type":"Feature","geometry":{"type":"Point","coordinates":[130.302986,46.809612]},"properties":{"full_address":"黑龙江省佳木斯市郊区五一社区（1组）三合J栋13号楼"}},{"type":"Feature","geometry":{"type":"Point","coordinates":[130.26729,46.81352]},"properties":{"full_address":"黑龙江省佳木斯市郊区中兴小区14号楼"}},{"type":"Feature","geometry":{"type":"Point","coordinates":[130.368887,46.812198]},"properties":{"full_address":"黑龙江省佳木斯市郊区吉运花园小区"}},{"type":"Feature","geometry":{"type":"Point","coordinates":[130.368957,46.81206]},"properties":{"full_address":"黑龙江省佳木斯市郊区金融小区"}},{"type":"Feature","geometry":{"type":"Point","coordinates":[130.070529,46.687861]},"properties":{"full_address":"黑龙江省佳木斯市郊区胜利华城小区"}},{"type":"Feature","geometry":{"type":"Point","coordinates":[130.395715,46.815571]},"properties":{"full_address":"黑龙江省佳木斯市郊区和平街道解困楼"}},{"type":"Feature","geometry":{"type":"Point","coordinates":[130.726037,47.015047]},"properties":{"full_address":"黑龙江省佳木斯市富锦市新开社区多喜客超市"}},{"type":"Feature","geometry":{"type":"Point","coordinates":[132.035078,47.251425]},"properties":{"full_address":"黑龙江省佳木斯市富锦市新开社区枫悦肉店"}},{"type":"Feature","geometry":{"type":"Point","coordinates":[132.034553,47.245412]},"properties":{"full_address":"黑龙江省佳木斯市富锦市向阳社区百亿超市"}},{"type":"Feature","geometry":{"type":"Point","coordinates":[132.040324,47.260439]},"properties":{"full_address":"黑龙江省佳木斯市富锦市繁荣社区风情城一期13号楼"}},{"type":"Feature","geometry":{"type":"Point","coordinates":[132.03974,47.241533]},"properties":{"full_address":"黑龙江省佳木斯市富锦市太东林场"}},{"type":"Feature","geometry":{"type":"Point","coordinates":[132.623286,47.414628]},"properties":{"full_address":"黑龙江省佳木斯市富锦市二龙山镇太东村"}},{"type":"Feature","geometry":{"type":"Point","coordinates":[132.043068,47.255378]},"properties":{"full_address":"黑龙江省佳木斯市富锦市向阳社区星语新苑C区"}},{"type":"Feature","geometry":{"type":"Point","coordinates":[130.571243,45.749897]},"properties":{"full_address":"黑龙江省七台河市勃利县勃利桥以东，转盘道（由西至东方向）以北，学府路以西，转盘道（由东至西方向）以南，合围区域（无症状感染者的工作区域）"}},{"type":"Feature","geometry":{"type":"Point","coordinates":[130.563659,45.747325]},"properties":{"full_address":"黑龙江省七台河市勃利县　城西街润育华庭小区3栋以外区域"}},{"type":"Feature","geometry":{"type":"Point","coordinates":[127.502441,50.239295]},"properties":{"full_address":"黑龙江省黑河市爱辉区花园街道长海社区龙滨嘉苑小区2号楼1单元及1单元附属门市、4号楼1单元及1单元楼下车库"}},{"type":"Feature","geometry":{"type":"Point","coordinates":[127.530603,50.238833]},"properties":{"full_address":"黑龙江省黑河市爱辉区花园街道长海社区组织部集资楼及附属门市"}},{"type":"Feature","geometry":{"type":"Point","coordinates":[127.530701,50.237656]},"properties":{"full_address":"黑龙江省黑河市爱辉区花园街道武庙屯社区之路佳苑小区10号楼3单元"}},{"type":"Feature","geometry":{"type":"Point","coordinates":[127.522418,50.234325]},"properties":{"full_address":"黑龙江省黑河市爱辉区花园街道博文社区安发小区7号楼4单元"}},{"type":"Feature","geometry":{"type":"Point","coordinates":[127.53045,50.230125]},"properties":{"full_address":"黑龙江省黑河市爱辉区花园街道博文社区学府家园小区2号楼7单元及7单元附属门市"}},{"type":"Feature","geometry":{"type":"Point","coordinates":[127.509752,50.231367]},"properties":{"full_address":"黑龙江省黑河市爱辉区花园街道博文社区中房尚城小区1号楼2单元及2单元附属门市、5号楼4单元及4单元附属门市"}},{"type":"Feature","geometry":{"type":"Point","coordinates":[127.49554,50.243425]},"properties":{"full_address":"黑龙江省黑河市爱辉区兴安街道热电社区民政小区61号楼5单元、一建2号楼3单元"}},{"type":"Feature","geometry":{"type":"Point","coordinates":[127.478895,50.244896]},"properties":{"full_address":"黑龙江省黑河市爱辉区海兰街道温馨社区北国明珠小区7号楼1单元及1单元附属车库、18号楼2单元及2单元附属车库"}},{"type":"Feature","geometry":{"type":"Point","coordinates":[127.489122,50.246789]},"properties":{"full_address":"黑龙江省黑河市爱辉区海兰街道鹿源春社区金达之家小区民航家属楼6单元及6单元附属门市、国际公司改造楼2单元及2单元附属门市"}},{"type":"Feature","geometry":{"type":"Point","coordinates":[127.501834,50.238791]},"properties":{"full_address":"黑龙江省黑河市爱辉区花园街道长海社区龙滨嘉苑小区1号楼、2号楼（不含1单元及1单元附属门市）、4号楼（不含1单元及1单元楼下车库）、8号楼"}},{"type":"Feature","geometry":{"type":"Point","coordinates":[127.512145,50.241397]},"properties":{"full_address":"黑龙江省黑河市爱辉区海兰街道温馨社区供销社家属楼（不含3单元）、盛世华庭小区、多客隆食杂店、迎恩路110—2号、万顺叫车黑河分公司喇嘛台社区服务站（迎恩路110—3号）、澳创集团（迎恩路112—1号）、罗曼蒂克婚纱馆（迎恩路112—4号）、乡村铁锅炖（迎恩路114—2号）、洪森沙发（迎恩路114—3号）门市"}},{"type":"Feature","geometry":{"type":"Point","coordinates":[127.505825,50.233663]},"properties":{"full_address":"黑龙江省黑河市爱辉区花园街道长海社区国税小区1号楼及附属门市（不含4单元及4单元附属门市）、2号楼"}},{"type":"Feature","geometry":{"type":"Point","coordinates":[127.521489,50.234591]},"properties":{"full_address":"黑龙江省黑河市爱辉区花园街道博文社区安发小区及附属门市（不含3号楼1单元、7号楼4单元）"}},{"type":"Feature","geometry":{"type":"Point","coordinates":[127.509752,50.231367]},"properties":{"full_address":"黑龙江省黑河市爱辉区花园街道博文社区中房尚城小区及附属门市（不含1号楼2单元及2单元附属门市、5号楼4单元及4单元附属门市）"}},{"type":"Feature","geometry":{"type":"Point","coordinates":[127.489122,50.246789]},"properties":{"full_address":"黑龙江省黑河市爱辉区海兰街道鹿源春社区金达之家小区及附属门市（不含民航家属楼6单元及6单元附属门市、国际公司改造楼2单元及2单元附属门市）"}},{"type":"Feature","geometry":{"type":"Point","coordinates":[127.505825,50.233663]},"properties":{"full_address":"黑龙江省黑河市爱辉区花园街道长海社区国税小区1号楼4单元及4单元附属门市"}},{"type":"Feature","geometry":{"type":"Point","coordinates":[127.507217,50.246904]},"properties":{"full_address":"黑龙江省黑河市爱辉区花园街道网通社区楼中楼小区地开发30号楼3单元及3单元附属门市"}},{"type":"Feature","geometry":{"type":"Point","coordinates":[127.520241,50.242368]},"properties":{"full_address":"黑龙江省黑河市爱辉区花园街道金兰社区建行家属楼小区2号楼4单元"}},{"type":"Feature","geometry":{"type":"Point","coordinates":[127.533424,50.238059]},"properties":{"full_address":"黑龙江省黑河市爱辉区花园街道武庙屯社区华泰颐和国际小区3号楼2单元"}},{"type":"Feature","geometry":{"type":"Point","coordinates":[127.482755,50.251722]},"properties":{"full_address":"黑龙江省黑河市爱辉区西兴街道人保财险社区林业小区11区3号楼3单元"}},{"type":"Feature","geometry":{"type":"Point","coordinates":[127.487701,50.253547]},"properties":{"full_address":"黑龙江省黑河市爱辉区西兴街道人保财险社区节能小区7号楼3单元及3单元附属门市"}},{"type":"Feature","geometry":{"type":"Point","coordinates":[127.4195,50.1432]},"properties":{"full_address":"黑龙江省黑河市爱辉区锦河农场金河小区10号楼1单元"}},{"type":"Feature","geometry":{"type":"Point","coordinates":[127.493629,50.2458]},"properties":{"full_address":"黑龙江省黑河市爱辉区兴安街道金融社区国信楼小区"}},{"type":"Feature","geometry":{"type":"Point","coordinates":[127.52282,50.238765]},"properties":{"full_address":"黑龙江省黑河市爱辉区花园街道网通社区地开发商30号楼（不含3单元及3单元附属门市）、31号楼、32号楼、33号楼及附属门市"}},{"type":"Feature","geometry":{"type":"Point","coordinates":[127.533424,50.238059]},"properties":{"full_address":"黑龙江省黑河市爱辉区花园街道武庙屯社区华泰颐和国际小区3号楼（不含2单元）"}},{"type":"Feature","geometry":{"type":"Point","coordinates":[127.503723,50.239185]},"properties":{"full_address":"黑龙江省黑河市爱辉区花园街道长海社区龙滨嘉苑小区3号楼"}},{"type":"Feature","geometry":{"type":"Point","coordinates":[127.52282,50.238765]},"properties":{"full_address":"黑龙江省黑河市爱辉区花园街道网通社区交警队家属楼小区"}},{"type":"Feature","geometry":{"type":"Point","coordinates":[127.523979,50.239513]},"properties":{"full_address":"黑龙江省黑河市爱辉区兴安街道邮政社区松辽委小区中房94号楼4单元及4单元附属门市"}},{"type":"Feature","geometry":{"type":"Point","coordinates":[127.496451,50.242701]},"properties":{"full_address":"黑龙江省黑河市爱辉区兴安街道热电社区爱家佳苑小区2号楼2单元及2单元附属门市"}},{"type":"Feature","geometry":{"type":"Point","coordinates":[127.488387,50.241911]},"properties":{"full_address":"黑龙江省黑河市爱辉区兴安街道热电社区南湖雅苑小区17号楼2单元及2单元附属门市"}},{"type":"Feature","geometry":{"type":"Point","coordinates":[127.490963,50.2368]},"properties":{"full_address":"黑龙江省黑河市爱辉区兴安街道热电社区惠民小区9号地9号楼3单元"}},{"type":"Feature","geometry":{"type":"Point","coordinates":[127.498771,50.237077]},"properties":{"full_address":"黑龙江省黑河市爱辉区兴安街道热电社区新生活家园小区（铁路街）3号楼2单元"}},{"type":"Feature","geometry":{"type":"Point","coordinates":[127.483444,50.246046]},"properties":{"full_address":"黑龙江省黑河市爱辉区海兰街道温馨社区金地花园小区13号楼4单元及4单元附属门市"}},{"type":"Feature","geometry":{"type":"Point","coordinates":[127.489956,50.249542]},"properties":{"full_address":"黑龙江省黑河市爱辉区西兴街道福龙社区益民二区17区11号楼6单元及6单元附属车库"}},{"type":"Feature","geometry":{"type":"Point","coordinates":[127.489956,50.249542]},"properties":{"full_address":"黑龙江省黑河市爱辉区西兴街道福龙社区益民二区18区18号楼9单元及9单元附属门市"}},{"type":"Feature","geometry":{"type":"Point","coordinates":[127.52282,50.238765]},"properties":{"full_address":"黑龙江省黑河市爱辉区花园街道网通社区卧牛湖小区中房2开楼4单元及4单元附属门市"}},{"type":"Feature","geometry":{"type":"Point","coordinates":[127.517233,50.242845]},"properties":{"full_address":"黑龙江省黑河市爱辉区花园街道金兰社区园丁小区1号楼3单元及3单元附属门市"}},{"type":"Feature","geometry":{"type":"Point","coordinates":[127.515297,50.236049]},"properties":{"full_address":"黑龙江省黑河市爱辉区花园街道博文社区黑供小区2号楼3单元"}},{"type":"Feature","geometry":{"type":"Point","coordinates":[127.344707,49.425638]},"properties":{"full_address":"黑龙江省黑河市爱辉区花园街道喇嘛台社区尚品世纪经典小区7号楼3单元"}},{"type":"Feature","geometry":{"type":"Point","coordinates":[127.492289,50.24577]},"properties":{"full_address":"黑龙江省黑河市爱辉区海兰街道温馨社区盛世华庭小区1号楼1单元"}},{"type":"Feature","geometry":{"type":"Point","coordinates":[127.521283,50.234314]},"properties":{"full_address":"黑龙江省黑河市爱辉区花园街道博文社区安发家园小区8号楼5单元"}},{"type":"Feature","geometry":{"type":"Point","coordinates":[127.511584,50.239075]},"properties":{"full_address":"黑龙江省黑河市爱辉区花园街道长海社区地税家属楼小区（龙滨路）地税家属楼"}},{"type":"Feature","geometry":{"type":"Point","coordinates":[127.500209,50.2385]},"properties":{"full_address":"黑龙江省黑河市爱辉区花园街道长海社区黑龙大厦水利家属楼小区水利家属楼"}},{"type":"Feature","geometry":{"type":"Point","coordinates":[127.493629,50.2458]},"properties":{"full_address":"黑龙江省黑河市爱辉区兴安街道金融社区兴林家园测绘楼小区测绘楼及附属门市"}},{"type":"Feature","geometry":{"type":"Point","coordinates":[127.488456,50.241535]},"properties":{"full_address":"黑龙江省黑河市爱辉区兴安街道热电社区南湖雅苑小区16号楼、17号楼（不含2单元及2单元附属门市）、18号楼及附属门市"}},{"type":"Feature","geometry":{"type":"Point","coordinates":[127.489956,50.249542]},"properties":{"full_address":"黑龙江省黑河市爱辉区西兴街道福龙社区益民二区17区9号楼及附属车库和门市、10号楼及附属车库、11号楼及附属车库（不含6单元及6单元附属车库）"}},{"type":"Feature","geometry":{"type":"Point","coordinates":[127.504605,50.238491]},"properties":{"full_address":"黑龙江省黑河市爱辉区花园街道长海社区龙滨嘉苑小区6号楼及附属车库（不含2单元及2单元附属车库）"}},{"type":"Feature","geometry":{"type":"Point","coordinates":[127.527871,50.238199]},"properties":{"full_address":"黑龙江省黑河市爱辉区花园街道博文社区法院集资楼小区"}},{"type":"Feature","geometry":{"type":"Point","coordinates":[127.493629,50.2458]},"properties":{"full_address":"黑龙江省黑河市爱辉区兴安街道金融社区兴都家园小区广播局家属楼"}},{"type":"Feature","geometry":{"type":"Point","coordinates":[127.523979,50.239513]},"properties":{"full_address":"黑龙江省黑河市爱辉区兴安街道邮政社区松辽委小区松辽委商服楼"}},{"type":"Feature","geometry":{"type":"Point","coordinates":[127.520241,50.242368]},"properties":{"full_address":"黑龙江省黑河市爱辉区花园街道金兰社区路桥小区及附属门市车库（不含路桥楼及附属车库）"}},{"type":"Feature","geometry":{"type":"Point","coordinates":[127.477338,50.24906]},"properties":{"full_address":"黑龙江省黑河市爱辉区西兴街道福龙社区翰林雅居小区5号楼及附属门市、6号楼及附属门市"}},{"type":"Feature","geometry":{"type":"Point","coordinates":[127.583914,50.217807]},"properties":{"full_address":"黑龙江省黑河市爱辉区幸福乡长发村西6道街230号"}},{"type":"Feature","geometry":{"type":"Point","coordinates":[127.489571,50.251398]},"properties":{"full_address":"黑龙江省黑河市爱辉区海兰街道鹿源春社区教委2号楼及附属门市、二院烧火楼"}},{"type":"Feature","geometry":{"type":"Point","coordinates":[127.497957,50.252053]},"properties":{"full_address":"黑龙江省黑河市爱辉区海兰街道鹿源春社区西城老居小区及附属门市（不含药厂楼1单元及1单元附属门市、2单元及2单元附属门市、3单元及3单元附属门市）"}},{"type":"Feature","geometry":{"type":"Point","coordinates":[127.497957,50.252053]},"properties":{"full_address":"黑龙江省黑河市爱辉区海兰街道鹿源春社区热电商助小区及附属门市（不含2号楼及附属门市）"}},{"type":"Feature","geometry":{"type":"Point","coordinates":[127.486965,50.255329]},"properties":{"full_address":"黑龙江省黑河市爱辉区西兴街道人保财险社区建信B区6号楼及附属门市"}},{"type":"Feature","geometry":{"type":"Point","coordinates":[127.482375,50.256592]},"properties":{"full_address":"黑龙江省黑河市爱辉区西兴街道人保财险社区水岸华府小区1号楼及附属门市、2号楼及附属门市（不含1单元及1单元附属门市）、3号楼及附属门市、4号楼及附属门市车库、5号楼及附属门市车库"}},{"type":"Feature","geometry":{"type":"Point","coordinates":[127.488624,50.248131]},"properties":{"full_address":"黑龙江省黑河市爱辉区西兴街道向阳社区在水一方小区及附属门市车库（不含15号楼及附属门市车库）"}},{"type":"Feature","geometry":{"type":"Point","coordinates":[127.47686,50.25269]},"properties":{"full_address":"黑龙江省黑河市爱辉区西兴街道向阳社区水岸阳光小区及附属门市车库（不含3号楼及附属门市）"}},{"type":"Feature","geometry":{"type":"Point","coordinates":[127.499116,50.238844]},"properties":{"full_address":"黑龙江省黑河市爱辉区花园街道长海社区黑龙小区6号楼及附属门市、黑龙大市场"}},{"type":"Feature","geometry":{"type":"Point","coordinates":[127.498237,50.239974]},"properties":{"full_address":"黑龙江省黑河市爱辉区花园街道长海社区天丝小区及附属门市（不含D座8号楼及附属门市）"}},{"type":"Feature","geometry":{"type":"Point","coordinates":[127.518173,50.240237]},"properties":{"full_address":"黑龙江省黑河市爱辉区花园街道长海社区土地水利小区及附属门市（不含土地局集资楼及附属门市）"}},{"type":"Feature","geometry":{"type":"Point","coordinates":[127.515266,50.234344]},"properties":{"full_address":"黑龙江省黑河市爱辉区花园街道博文社区闽江佳苑小区及附属门市（不含4号楼及附属门市）"}},{"type":"Feature","geometry":{"type":"Point","coordinates":[127.530011,50.239083]},"properties":{"full_address":"黑龙江省黑河市爱辉区花园街道武庙屯社区大公馆小区7号楼及附属门市（不含2单元及2单元附属门市）"}},{"type":"Feature","geometry":{"type":"Point","coordinates":[127.52282,50.238765]},"properties":{"full_address":"黑龙江省黑河市爱辉区花园街道网通社区贝贝龙小区及附属门市车库（不含市房开59号楼及附属门市）"}},{"type":"Feature","geometry":{"type":"Point","coordinates":[127.501738,50.247087]},"properties":{"full_address":"黑龙江省黑河市爱辉区兴安街道邮政社区富绅小区及附属门市（不含区房产4号楼及附属门市、区房产21号楼及附属门市）"}},{"type":"Feature","geometry":{"type":"Point","coordinates":[127.497957,50.252053]},"properties":{"full_address":"黑龙江省黑河市爱辉区海兰街道鹿源春社区兴成生活小区及附属门市（不含经贸委集资楼及附属门市）"}},{"type":"Feature","geometry":{"type":"Point","coordinates":[127.489956,50.249542]},"properties":{"full_address":"黑龙江省黑河市爱辉区西兴街道福龙社区益民二区18区15号楼、18号楼及附属门市（不含9单元及9单元附属门市）、21号楼"}},{"type":"Feature","geometry":{"type":"Point","coordinates":[127.507217,50.246904]},"properties":{"full_address":"黑龙江省黑河市爱辉区花园街道网通社区楼中楼小区地开发30号楼（不含3单元及3单元附属门市）、31号楼、32号楼、33号楼及附属门市"}},{"type":"Feature","geometry":{"type":"Point","coordinates":[127.470269,50.253504]},"properties":{"full_address":"黑龙江省黑河市爱辉区西兴街道向阳社区福临家园及附属门市（不含3号楼及附属门市）"}},{"type":"Feature","geometry":{"type":"Point","coordinates":[127.520241,50.242368]},"properties":{"full_address":"黑龙江省黑河市爱辉区花园街道金兰社区工行家属楼小区（不含2号楼及附属门市）"}},{"type":"Feature","geometry":{"type":"Point","coordinates":[127.518714,50.245669]},"properties":{"full_address":"黑龙江省黑河市爱辉区花园街道金兰社区世纪花园小区及附属门市车库（不含12号楼及附属车库、14号楼及附属车库）"}},{"type":"Feature","geometry":{"type":"Point","coordinates":[127.520241,50.242368]},"properties":{"full_address":"黑龙江省黑河市爱辉区花园街道金兰社区公用局小区及附属门市车库（不含公用事业局2号楼及附属门市）、海关小区及附属门市车库"}},{"type":"Feature","geometry":{"type":"Point","coordinates":[127.530701,50.237656]},"properties":{"full_address":"黑龙江省黑河市爱辉区花园街道武庙屯社区之路佳苑小区及附属门市车库（不含5号楼及附属车库）"}},{"type":"Feature","geometry":{"type":"Point","coordinates":[127.499882,50.236724]},"properties":{"full_address":"黑龙江省黑河市爱辉区兴安街道热电社区惠民11号地小区及附属门市车库（不含6号楼及附属门市车库、1号楼及附属门市）"}},{"type":"Feature","geometry":{"type":"Point","coordinates":[127.491774,50.252528]},"properties":{"full_address":"黑龙江省黑河市爱辉区海兰街道鹿源春社区宏运小区及附属门市车库（不含2号楼及附属门市）"}},{"type":"Feature","geometry":{"type":"Point","coordinates":[127.432203,50.003468]},"properties":{"full_address":"黑龙江省黑河市爱辉区瑷珲镇北三家子村一组92号—99号"}},{"type":"Feature","geometry":{"type":"Point","coordinates":[127.497957,50.252053]},"properties":{"full_address":"黑龙江省黑河市爱辉区海兰街道鹿源春社区保健佳苑小区妇幼保健院家属楼及附属门市"}},{"type":"Feature","geometry":{"type":"Point","coordinates":[127.493618,50.253114]},"properties":{"full_address":"黑龙江省黑河市爱辉区海兰街道鹿源春社区北港嘉园小区2单元及2单元附属门市"}},{"type":"Feature","geometry":{"type":"Point","coordinates":[127.494526,50.253789]},"properties":{"full_address":"黑龙江省黑河市爱辉区海兰街道鹿源春社区恒基高层3单元及附属门市"}},{"type":"Feature","geometry":{"type":"Point","coordinates":[127.477974,50.244343]},"properties":{"full_address":"黑龙江省黑河市爱辉区海兰街道温馨社区北国明珠二期小区1A东楼及附属门市"}},{"type":"Feature","geometry":{"type":"Point","coordinates":[127.478792,50.244845]},"properties":{"full_address":"黑龙江省黑河市爱辉区海兰街道温馨社区北国明珠小区11号楼1单元及1单元附属车库"}},{"type":"Feature","geometry":{"type":"Point","coordinates":[127.491933,50.245233]},"properties":{"full_address":"黑龙江省黑河市爱辉区海兰街道温馨社区建行小区建行15号楼及附属门市"}},{"type":"Feature","geometry":{"type":"Point","coordinates":[127.483444,50.246046]},"properties":{"full_address":"黑龙江省黑河市爱辉区海兰街道温馨社区金地花园小区11号楼及附属门市车库"}},{"type":"Feature","geometry":{"type":"Point","coordinates":[127.481946,50.240165]},"properties":{"full_address":"黑龙江省黑河市爱辉区海兰街道温馨社区阳光嘉园小区3号楼及附属车库"}},{"type":"Feature","geometry":{"type":"Point","coordinates":[127.545117,49.785786]},"properties":{"full_address":"黑龙江省黑河市爱辉区红色边疆农场福苑小区3号楼"}},{"type":"Feature","geometry":{"type":"Point","coordinates":[127.521653,50.235038]},"properties":{"full_address":"黑龙江省黑河市爱辉区花园街道博文社区安发小区3号楼1单元"}},{"type":"Feature","geometry":{"type":"Point","coordinates":[127.521516,50.237484]},"properties":{"full_address":"黑龙江省黑河市爱辉区花园街道博文社区昌辉雅典城小区1号楼及附属车库"}},{"type":"Feature","geometry":{"type":"Point","coordinates":[127.521516,50.237484]},"properties":{"full_address":"黑龙江省黑河市爱辉区花园街道博文社区昌辉雅典城小区3号楼1单元及1单元附属门市"}},{"type":"Feature","geometry":{"type":"Point","coordinates":[127.510382,50.230265]},"properties":{"full_address":"黑龙江省黑河市爱辉区花园街道博文社区尚品观景国际小区8号楼及附属车库"}},{"type":"Feature","geometry":{"type":"Point","coordinates":[127.519503,50.236365]},"properties":{"full_address":"黑龙江省黑河市爱辉区花园街道博文社区星辉小区2号楼及附属门市车库、6号楼高层区及附属门市车库"}},{"type":"Feature","geometry":{"type":"Point","coordinates":[127.520125,50.233375]},"properties":{"full_address":"黑龙江省黑河市爱辉区花园街道博文社区中超三期小区5号楼及附属门市车库、8号楼及附属门市车库"}},{"type":"Feature","geometry":{"type":"Point","coordinates":[127.52787,50.238199]},"properties":{"full_address":"黑龙江省黑河市爱辉区花园街道博文社区中超一期小区2号楼2单元及2单元附属门市、3单元及3单元附属门市、4单元及4单元附属门市"}},{"type":"Feature","geometry":{"type":"Point","coordinates":[127.506147,50.2332]},"properties":{"full_address":"黑龙江省黑河市爱辉区花园街道长海社区国税小区2号楼1单元"}},{"type":"Feature","geometry":{"type":"Point","coordinates":[127.497179,50.249071]},"properties":{"full_address":"黑龙江省黑河市爱辉区花园街道长海社区宏远小区宏鹏1号楼及附属门市车库"}},{"type":"Feature","geometry":{"type":"Point","coordinates":[127.503329,50.236132]},"properties":{"full_address":"黑龙江省黑河市爱辉区花园街道长海社区华寓小区5号楼及附属车库、2号楼4单元及4单元附属门市"}},{"type":"Feature","geometry":{"type":"Point","coordinates":[127.505803,50.236145]},"properties":{"full_address":"黑龙江省黑河市爱辉区花园街道长海社区金通花园小区2号楼及附属门市"}},{"type":"Feature","geometry":{"type":"Point","coordinates":[127.512691,50.243996]},"properties":{"full_address":"黑龙江省黑河市爱辉区花园街道长海社区鹏瑞新起点小区1单元及1单元附属门市"}},{"type":"Feature","geometry":{"type":"Point","coordinates":[127.52001,50.242435]},"properties":{"full_address":"黑龙江省黑河市爱辉区花园街道金兰社区海兰行小区1号楼及附属门市"}},{"type":"Feature","geometry":{"type":"Point","coordinates":[127.528114,50.245159]},"properties":{"full_address":"黑龙江省黑河市爱辉区花园街道金兰社区华泰滨江锦苑小区3号楼1单元及1单元附属车库、2单元及2单元附属车库"}},{"type":"Feature","geometry":{"type":"Point","coordinates":[126.72052,48.683955]},"properties":{"full_address":"黑龙江省黑河市爱辉区花园街道喇嘛台社区鸿城名苑小区3号楼4单元及4单元附属车库"}},{"type":"Feature","geometry":{"type":"Point","coordinates":[127.527376,50.232746]},"properties":{"full_address":"黑龙江省黑河市爱辉区花园街道喇嘛台社区荣耀世纪小区11号楼5单元及5单元附属车库"}},{"type":"Feature","geometry":{"type":"Point","coordinates":[127.50132,50.250397]},"properties":{"full_address":"黑龙江省黑河市爱辉区花园街道喇嘛台社区学府佳苑小区8号楼及附属车库"}},{"type":"Feature","geometry":{"type":"Point","coordinates":[127.512145,50.241397]},"properties":{"full_address":"黑龙江省黑河市爱辉区花园街道联通社区建行小区农业小楼（独立单元楼）、荣升久食杂店"}},{"type":"Feature","geometry":{"type":"Point","coordinates":[127.507401,50.241864]},"properties":{"full_address":"黑龙江省黑河市爱辉区花园街道联通社区教委集资楼2号楼及附属门市"}},{"type":"Feature","geometry":{"type":"Point","coordinates":[127.52282,50.238765]},"properties":{"full_address":"黑龙江省黑河市爱辉区花园街道网通社区楼中楼小区房产34号楼及附属门市"}},{"type":"Feature","geometry":{"type":"Point","coordinates":[127.530011,50.239083]},"properties":{"full_address":"黑龙江省黑河市爱辉区花园街道武庙屯社区大公馆小区11号楼1单元"}},{"type":"Feature","geometry":{"type":"Point","coordinates":[127.533424,50.238059]},"properties":{"full_address":"黑龙江省黑河市爱辉区花园街道武庙屯社区华泰颐和国际小区9号楼1单元及1单元附属门市"}},{"type":"Feature","geometry":{"type":"Point","coordinates":[127.528206,50.2399]},"properties":{"full_address":"黑龙江省黑河市爱辉区花园街道武庙屯社区隆福家园小区2号楼"}},{"type":"Feature","geometry":{"type":"Point","coordinates":[127.530701,50.237656]},"properties":{"full_address":"黑龙江省黑河市爱辉区花园街道武庙屯社区之路佳苑小区11号楼1单元"}},{"type":"Feature","geometry":{"type":"Point","coordinates":[127.41675,50.144056]},"properties":{"full_address":"黑龙江省黑河市爱辉区锦河农场16号楼"}},{"type":"Feature","geometry":{"type":"Point","coordinates":[127.477338,50.24906]},"properties":{"full_address":"黑龙江省黑河市爱辉区西兴街道福龙社区翰林雅居小区7号楼3单元"}},{"type":"Feature","geometry":{"type":"Point","coordinates":[127.479416,50.247849]},"properties":{"full_address":"黑龙江省黑河市爱辉区西兴街道福龙社区力波家园小区8号楼、14号楼"}},{"type":"Feature","geometry":{"type":"Point","coordinates":[127.517396,50.237886]},"properties":{"full_address":"黑龙江省黑河市爱辉区西兴街道福龙社区粮保小区保险家属楼1单元及1单元附属车库门市"}},{"type":"Feature","geometry":{"type":"Point","coordinates":[127.489956,50.249542]},"properties":{"full_address":"黑龙江省黑河市爱辉区西兴街道福龙社区益民二区16区8号楼及附属门市车库"}},{"type":"Feature","geometry":{"type":"Point","coordinates":[127.486772,50.251868]},"properties":{"full_address":"黑龙江省黑河市爱辉区西兴街道人保财险社区林业11区2号楼2单元及2单元附属门市"}},{"type":"Feature","geometry":{"type":"Point","coordinates":[127.470076,50.253777]},"properties":{"full_address":"黑龙江省黑河市爱辉区西兴街道向阳社区福临家园3号楼及附属门市"}},{"type":"Feature","geometry":{"type":"Point","coordinates":[127.474117,50.255179]},"properties":{"full_address":"黑龙江省黑河市爱辉区西兴街道向阳社区在水一方小区4号楼2单元及2单元附属门市、3单元及3单元附属门市"}},{"type":"Feature","geometry":{"type":"Point","coordinates":[127.50025,50.249333]},"properties":{"full_address":"黑龙江省黑河市爱辉区兴安街道金融社区华富小区地开发6号楼及附属门市"}},{"type":"Feature","geometry":{"type":"Point","coordinates":[127.493629,50.2458]},"properties":{"full_address":"黑龙江省黑河市爱辉区兴安街道金融社区华和小区节能5号楼及附属门市"}},{"type":"Feature","geometry":{"type":"Point","coordinates":[127.493629,50.2458]},"properties":{"full_address":"黑龙江省黑河市爱辉区兴安街道金融社区华和小区闽龙3号楼及附属门市"}},{"type":"Feature","geometry":{"type":"Point","coordinates":[127.49442,50.246545]},"properties":{"full_address":"黑龙江省黑河市爱辉区兴安街道金融社区建材小区地开发8号楼2单元及2单元附属门市、3单元及3单元附属门市、4单元及4单元附属门市、建材2号楼9单元及9单元附属门市"}},{"type":"Feature","geometry":{"type":"Point","coordinates":[127.509261,50.240156]},"properties":{"full_address":"黑龙江省黑河市爱辉区兴安街道金融社区锦江佳苑小区保险公司家属楼2单元及2单元附属门市"}},{"type":"Feature","geometry":{"type":"Point","coordinates":[127.499882,50.236724]},"properties":{"full_address":"黑龙江省黑河市爱辉区兴安街道热电社区惠民12号地小区10号楼及附属车库"}},{"type":"Feature","geometry":{"type":"Point","coordinates":[127.488731,50.241997]},"properties":{"full_address":"黑龙江省黑河市爱辉区兴安街道热电社区南湖雅苑小区新8号楼1单元及1单元附属车库、新6号楼3单元及3单元附属车库"}},{"type":"Feature","geometry":{"type":"Point","coordinates":[127.497101,50.24162]},"properties":{"full_address":"黑龙江省黑河市爱辉区兴安街道热电社区艺苑小区1号楼1单元及1单元附属门市、1号楼二楼半及附属门市"}},{"type":"Feature","geometry":{"type":"Point","coordinates":[127.501442,50.245003]},"properties":{"full_address":"黑龙江省黑河市爱辉区兴安街道邮政社区西沟圣欣小区东兴路96号楼及附属门市"}},{"type":"Feature","geometry":{"type":"Point","coordinates":[127.506065,50.249198]},"properties":{"full_address":"黑龙江省黑河市爱辉区花园街道联通社区建行小区建行3号楼及附属门市、建行4号楼及附属门市（不含荣升久食杂店）"}},{"type":"Feature","geometry":{"type":"Point","coordinates":[127.526622,50.233326]},"properties":{"full_address":"黑龙江省黑河市爱辉区花园街道喇嘛台社区荣耀世纪小区6号楼及附属车库门市、10号楼及附属车库门市、11号楼及附属车库门市（不含5单元及5单元附属车库）、12号楼及附属车库门市"}},{"type":"Feature","geometry":{"type":"Point","coordinates":[127.506147,50.2332]},"properties":{"full_address":"黑龙江省黑河市爱辉区花园街道长海社区国税小区2号楼（不含1单元）"}},{"type":"Feature","geometry":{"type":"Point","coordinates":[127.478034,50.252369]},"properties":{"full_address":"黑龙江省黑河市爱辉区西兴街道福龙社区御景湾小区4号楼、5号楼（不含2单元）、6号楼（不含1单元）、9号楼"}},{"type":"Feature","geometry":{"type":"Point","coordinates":[127.510382,50.230265]},"properties":{"full_address":"黑龙江省黑河市爱辉区花园街道博文社区尚品观景国际小区7号楼及附属车库"}},{"type":"Feature","geometry":{"type":"Point","coordinates":[127.488731,50.241997]},"properties":{"full_address":"黑龙江省黑河市爱辉区兴安街道热电社区南湖雅苑小区新8号楼及附属车库（不含1单元及1单元附属车库）、新6号楼及附属车库门市（除3单元及3单元附属车库）"}},{"type":"Feature","geometry":{"type":"Point","coordinates":[127.502188,50.236542]},"properties":{"full_address":"黑龙江省黑河市爱辉区花园街道长海社区华寓小区1号楼及附属门市、2号楼及附属门市（不含4单元及4单元附属门市）、3号楼及附属门市、4号楼及附属门市、6号楼及附属车库"}},{"type":"Feature","geometry":{"type":"Point","coordinates":[127.533424,50.238059]},"properties":{"full_address":"黑龙江省黑河市爱辉区花园街道武庙屯社区华泰颐和国际小区9号楼及附属门市（不含1单元及1单元附属门市）"}},{"type":"Feature","geometry":{"type":"Point","coordinates":[127.489956,50.249542]},"properties":{"full_address":"黑龙江省黑河市爱辉区西兴街道福龙社区益民二区18区22号楼及附属门市车库"}},{"type":"Feature","geometry":{"type":"Point","coordinates":[127.518173,50.240237]},"properties":{"full_address":"黑龙江省黑河市爱辉区花园街道长海社区社保集资楼小区及附属门市车库（不含3号楼及附属门市）"}},{"type":"Feature","geometry":{"type":"Point","coordinates":[127.477974,50.244343]},"properties":{"full_address":"黑龙江省黑河市爱辉区海兰街道温馨社区北国明珠二期小区3号楼及附属车库（不含3单元及3单元附属车库）"}},{"type":"Feature","geometry":{"type":"Point","coordinates":[127.514709,50.239951]},"properties":{"full_address":"黑龙江省黑河市爱辉区花园街道长海社区龙滨花园小区及附属门市车库（不含3号楼及附属门市车库）"}},{"type":"Feature","geometry":{"type":"Point","coordinates":[127.516533,50.240419]},"properties":{"full_address":"黑龙江省黑河市爱辉区花园街道长海社区金盾小区及附属门市（不含1号楼及附属门市）"}},{"type":"Feature","geometry":{"type":"Point","coordinates":[127.497957,50.252053]},"properties":{"full_address":"黑龙江省黑河市爱辉区海兰街道鹿源春社区中房家园小区（大众浴池卡口通行楼宇）及附属门市（不含中房42号楼及附属门市）"}},{"type":"Feature","geometry":{"type":"Point","coordinates":[127.509689,50.241528]},"properties":{"full_address":"黑龙江省黑河市爱辉区花园街道长海社区学苑小区及附属门市车库（不含学苑1号楼及附属门市、学苑2号楼及附属门市车库）"}},{"type":"Feature","geometry":{"type":"Point","coordinates":[127.477974,50.244343]},"properties":{"full_address":"黑龙江省黑河市爱辉区海兰街道温馨社区北国明珠二期小区及附属门市（不含1A东楼及附属门市）"}},{"type":"Feature","geometry":{"type":"Point","coordinates":[127.488683,50.241086]},"properties":{"full_address":"黑龙江省黑河市爱辉区兴安街道热电社区南湖雅苑小区15号楼及附属车库"}},{"type":"Feature","geometry":{"type":"Point","coordinates":[127.499882,50.236724]},"properties":{"full_address":"黑龙江省黑河市爱辉区兴安街道热电社区铁路家属楼小区及附属门市（不含1号楼及附属门市）"}},{"type":"Feature","geometry":{"type":"Point","coordinates":[127.491541,50.244766]},"properties":{"full_address":"黑龙江省黑河市爱辉区兴安街道热电社区和谐家园小区及附属门市（不含1号楼及附属门市）"}},{"type":"Feature","geometry":{"type":"Point","coordinates":[127.481801,50.238572]},"properties":{"full_address":"黑龙江省黑河市爱辉区兴安街道热电社区阳光家园小区及附属门市（不含8号楼及附属门市）"}},{"type":"Feature","geometry":{"type":"Point","coordinates":[127.501968,50.248272]},"properties":{"full_address":"黑龙江省黑河市爱辉区兴安街道邮政社区无委会小区及附属门市车库（不含鹏瑞二期及附属门市）"}},{"type":"Feature","geometry":{"type":"Point","coordinates":[127.514997,50.247766]},"properties":{"full_address":"黑龙江省黑河市爱辉区花园街道联通社区体育场小区及附属门市（不含计委家属楼及附属门市）"}},{"type":"Feature","geometry":{"type":"Point","coordinates":[127.473538,50.25155]},"properties":{"full_address":"黑龙江省黑河市爱辉区西兴街道向阳社区幸福佳苑小区及附属门市车库（不含4号楼及附属车库）"}},{"type":"Feature","geometry":{"type":"Point","coordinates":[127.521391,50.234544]},"properties":{"full_address":"黑龙江省黑河市爱辉区花园街道博文社区安发小区6号楼及附属门市"}},{"type":"Feature","geometry":{"type":"Point","coordinates":[125.215513,49.184133]},"properties":{"full_address":"黑龙江省黑河市嫩江市颐江园高层1号楼、高层2号楼、多层1号楼、多层2号楼"}},{"type":"Feature","geometry":{"type":"Point","coordinates":[125.221192,49.185766]},"properties":{"full_address":"黑龙江省黑河市嫩江市农行招待所"}},{"type":"Feature","geometry":{"type":"Point","coordinates":[126.668238,51.725499]},"properties":{"full_address":"黑龙江省大兴安岭地区呼玛县三村林海二巷"}},{"type":"Feature","geometry":{"type":"Point","coordinates":[126.66078,51.725664]},"properties":{"full_address":"黑龙江省大兴安岭地区呼玛县气象小区、合顺家园1号、2号、3号楼、教育局办公楼合围区域（除高风险区外）"}},{"type":"Feature","geometry":{"type":"Point","coordinates":[121.49936,31.25216]},"properties":{"full_address":"上海市上海市虹口区北外滩街道旅顺路66号"}},{"type":"Feature","geometry":{"type":"Point","coordinates":[121.349088,31.178441]},"properties":{"full_address":"上海市上海市闵行区新虹街道沪青平公路249弄晟虹新景苑小区（包括沿街商铺）"}},{"type":"Feature","geometry":{"type":"Point","coordinates":[121.348049,31.1685]},"properties":{"full_address":"上海市上海市闵行区七宝镇航华二村三街坊183-211号景丽苑小区（包括沿街商铺）"}},{"type":"Feature","geometry":{"type":"Point","coordinates":[121.355709,31.174718]},"properties":{"full_address":"上海市上海市闵行区七宝镇航北路180弄新明星花园二期（包括沿街商铺）"}},{"type":"Feature","geometry":{"type":"Point","coordinates":[121.388482,31.320961]},"properties":{"full_address":"上海市上海市宝山区大场镇锦秋路743号智尚酒店"}},{"type":"Feature","geometry":{"type":"Point","coordinates":[121.56316,31.195396]},"properties":{"full_address":"上海市上海市浦东新区陆家嘴街道上海浦东丽思卡尔顿酒店"}},{"type":"Feature","geometry":{"type":"Point","coordinates":[121.656363,31.219462]},"properties":{"full_address":"上海市上海市浦东新区唐镇齐爱路99弄绿城玉兰花园-御园"}},{"type":"Feature","geometry":{"type":"Point","coordinates":[121.593735,31.041226]},"properties":{"full_address":"上海市上海市浦东新区航头镇沪南公路5298号浦航5298文创园"}},{"type":"Feature","geometry":{"type":"Point","coordinates":[118.789484,32.0242]},"properties":{"full_address":"江苏省南京市秦淮区布丁严选酒店（秦淮区洪武路街道太平南路585号）"}},{"type":"Feature","geometry":{"type":"Point","coordinates":[118.803186,32.027237]},"properties":{"full_address":"江苏省南京市秦淮区网鱼网咖（秦淮区洪武路街道长白街88号）"}},{"type":"Feature","geometry":{"type":"Point","coordinates":[117.967813,34.30139]},"properties":{"full_address":"江苏省徐州市邳州市运河街道向阳社区月亮湾小区（三岔河路211号）"}},{"type":"Feature","geometry":{"type":"Point","coordinates":[117.964966,34.307569]},"properties":{"full_address":"江苏省徐州市邳州市“在水一方”浴室（青年东路25号）"}},{"type":"Feature","geometry":{"type":"Point","coordinates":[117.967531,34.330278]},"properties":{"full_address":"江苏省徐州市邳州市天鸿金陵大酒店（世纪大道888号）"}},{"type":"Feature","geometry":{"type":"Point","coordinates":[120.522705,31.281997]},"properties":{"full_address":"江苏省苏州市吴中区木渎镇尼盛青年城小区（吴中区玉山路699号）"}},{"type":"Feature","geometry":{"type":"Point","coordinates":[119.51938,32.193046]},"properties":{"full_address":"江苏省镇江市京口区水木阳光小区"}},{"type":"Feature","geometry":{"type":"Point","coordinates":[119.474713,32.211419]},"properties":{"full_address":"江苏省镇江市京口区吉麦隆超市（江大店）"}},{"type":"Feature","geometry":{"type":"Point","coordinates":[119.461886,32.201951]},"properties":{"full_address":"江苏省镇江市京口区牛得多牛肉面馆（香江店）"}},{"type":"Feature","geometry":{"type":"Point","coordinates":[119.48906,32.212196]},"properties":{"full_address":"江苏省镇江市京口区夏文龙面馆（学府路、宗泽路交叉口附近）"}},{"type":"Feature","geometry":{"type":"Point","coordinates":[119.47016,32.19828]},"properties":{"full_address":"江苏省镇江市京口区江大后街（XY欧韩女装店、秀依阁服装店）"}},{"type":"Feature","geometry":{"type":"Point","coordinates":[115.786726,32.870261]},"properties":{"full_address":"安徽省阜阳市颍州区碧水雅苑小区B2区及其附属商铺门店"}},{"type":"Feature","geometry":{"type":"Point","coordinates":[118.094574,24.466573]},"properties":{"full_address":"福建省厦门市思明区禾祥西路234-246（万禾花园）"}},{"type":"Feature","geometry":{"type":"Point","coordinates":[118.085526,24.445085]},"properties":{"full_address":"福建省厦门市思明区碧山路1、3、3-1、3-2、5-1、5-3、7、7-1、7-2、7-3、9-1、9-2、11-1、11-2、13-1、13-2、15-1、17、19-1、21、21-1、21-2、21-3、23、25、27、27-1、27-2、29-1、29-2、29-3、29-9、29-10号"}},{"type":"Feature","geometry":{"type":"Point","coordinates":[118.094599,24.469394]},"properties":{"full_address":"福建省厦门市思明区后江埭路104、106、108、110、112、114、116号；湖滨南路116-115至116-126号（店铺）、128-115至128-128号（店铺）"}},{"type":"Feature","geometry":{"type":"Point","coordinates":[116.993531,36.695961]},"properties":{"full_address":"山东省济南市天桥区宝华街道宝华街26-12号包子客"}},{"type":"Feature","geometry":{"type":"Point","coordinates":[116.98261,36.671823]},"properties":{"full_address":"山东省济南市天桥区宝华街道宝华街36-5号田园果超市"}},{"type":"Feature","geometry":{"type":"Point","coordinates":[116.991413,36.670795]},"properties":{"full_address":"山东省济南市天桥区宝华街道宝华街36-1号可好便利店"}},{"type":"Feature","geometry":{"type":"Point","coordinates":[116.984377,36.670875]},"properties":{"full_address":"山东省济南市天桥区宝华街道宝华街36-8号康成花园菜鸟驿站"}},{"type":"Feature","geometry":{"type":"Point","coordinates":[116.98153,36.675346]},"properties":{"full_address":"山东省济南市天桥区宝华街道堤口路80号A-49-1蜜雪冰城"}},{"type":"Feature","geometry":{"type":"Point","coordinates":[116.98072,36.67426]},"properties":{"full_address":"山东省济南市天桥区宝华街道堤口路80号A-50-1杨铭宇黄焖鸡"}},{"type":"Feature","geometry":{"type":"Point","coordinates":[120.436753,36.101271]},"properties":{"full_address":"山东省青岛市崂山区鲁信长春花园小区高风险区以外的其他区域及该小区对外网点等区域"}},{"type":"Feature","geometry":{"type":"Point","coordinates":[118.585123,37.370109]},"properties":{"full_address":"山东省东营市东营区六户镇商业街（六户镇繁荣路镇前街到六户集街路段、六户集街文明路到昌盛路段）"}},{"type":"Feature","geometry":{"type":"Point","coordinates":[118.600688,37.239428]},"properties":{"full_address":"山东省东营市山东省黄河三角洲农业高新技术产业示范区丁庄街道首集市场合围区域（北至丁庄街道育英路，南至清河路，西至昂坤城市广场中心路，东至聚财路）"}},{"type":"Feature","geometry":{"type":"Point","coordinates":[118.641276,37.428834]},"properties":{"full_address":"山东省东营市经济技术开发区东城街道运河路663号融创V公馆片区除高风险区以外的其他楼宇"}},{"type":"Feature","geometry":{"type":"Point","coordinates":[116.589143,35.440544]},"properties":{"full_address":"山东省济宁市任城区李营街道培文社区苗营西区片区（东起建设路，西至片区西墙，南起苗营棚改区南墙，北至任城大道）除高风险区以外的其他区域"}},{"type":"Feature","geometry":{"type":"Point","coordinates":[116.580785,35.404176]},"properties":{"full_address":"山东省济宁市任城区观音阁街道长城工业园片区（东起洸府河，西至火炬路东200米，南起海南东路，北至深圳东路）"}},{"type":"Feature","geometry":{"type":"Point","coordinates":[116.585153,35.399996]},"properties":{"full_address":"山东省济宁市任城区越河街道望湖小区（东起武胜桥南街，西至小区内南北主通道，南起越河北岸，北至武胜桥街）"}},{"type":"Feature","geometry":{"type":"Point","coordinates":[116.550704,35.327772]},"properties":{"full_address":"山东省济宁市任城区唐口街道大张庄村片区（包含大张庄村、半边店村、泇河村、陈河口村、程庄村）"}},{"type":"Feature","geometry":{"type":"Point","coordinates":[116.597158,35.433934]},"properties":{"full_address":"山东省济宁市任城区李营街道苗营东区片区（北至机电一路，南至金宇中心路，西至建设路，东至沿建设路各小区、院落东墙）"}},{"type":"Feature","geometry":{"type":"Point","coordinates":[114.296784,30.578848]},"properties":{"full_address":"湖北省武汉市江岸区一元街道洞庭街鑫海休闲会所"}},{"type":"Feature","geometry":{"type":"Point","coordinates":[114.29681,30.594907]},"properties":{"full_address":"湖北省武汉市江岸区球场街道京汉大道夜时CLUB酒吧"}},{"type":"Feature","geometry":{"type":"Point","coordinates":[114.289538,30.589399]},"properties":{"full_address":"湖北省武汉市江岸区球场街道解放南路激活酒吧"}},{"type":"Feature","geometry":{"type":"Point","coordinates":[114.303727,30.651058]},"properties":{"full_address":"湖北省武汉市江岸区后湖街道同安家园59栋"}},{"type":"Feature","geometry":{"type":"Point","coordinates":[114.269011,30.624471]},"properties":{"full_address":"湖北省武汉市江汉区汉兴街道江汉人家A区3栋、7栋"}},{"type":"Feature","geometry":{"type":"Point","coordinates":[114.15473,30.668488]},"properties":{"full_address":"湖北省武汉市东西湖区径河街道径河南路1号4栋1楼天赐金龙城项目部"}},{"type":"Feature","geometry":{"type":"Point","coordinates":[114.360926,30.870886]},"properties":{"full_address":"湖北省武汉市黄陂区前川街道板桥大道金龙四季阳光南门重庆酸菜鱼馆"}},{"type":"Feature","geometry":{"type":"Point","coordinates":[109.389718,29.466184]},"properties":{"full_address":"湖北省恩施土家族苗族自治州来凤县翔凤镇来凤县第一中学"}},{"type":"Feature","geometry":{"type":"Point","coordinates":[109.426289,29.509767]},"properties":{"full_address":"湖北省恩施土家族苗族自治州来凤县翔凤镇大垭口村1组"}},{"type":"Feature","geometry":{"type":"Point","coordinates":[109.426289,29.509767]},"properties":{"full_address":"湖北省恩施土家族苗族自治州来凤县翔凤镇大垭口村4组"}},{"type":"Feature","geometry":{"type":"Point","coordinates":[114.192432,22.590078]},"properties":{"full_address":"广东省深圳市罗湖区东湖街道梧桐山社区茂仔村124号"}},{"type":"Feature","geometry":{"type":"Point","coordinates":[114.140912,22.548925]},"properties":{"full_address":"广东省深圳市罗湖区黄贝街道黄贝岭社区黄贝岭中村18、19、20、32、33、34、37、38、39栋"}},{"type":"Feature","geometry":{"type":"Point","coordinates":[114.145887,22.54816]},"properties":{"full_address":"广东省深圳市罗湖区黄贝街道新秀社区新秀村北区7栋"}},{"type":"Feature","geometry":{"type":"Point","coordinates":[114.137671,22.566016]},"properties":{"full_address":"广东省深圳市罗湖区翠竹街道新村社区水库新村统建楼7栋、8栋，水库新村340号、341号、345号围合区域（除高风险区外）"}},{"type":"Feature","geometry":{"type":"Point","coordinates":[114.120793,22.54852]},"properties":{"full_address":"广东省深圳市罗湖区东门街道立新社区立新花园1—14栋（除高风险区外）"}},{"type":"Feature","geometry":{"type":"Point","coordinates":[114.113665,22.58512]},"properties":{"full_address":"广东省深圳市罗湖区清水河街道草埔西社区吓围新村47A栋、47B栋、48栋至50栋、53栋至55栋、62栋至64栋围合区域（除高风险区外）"}},{"type":"Feature","geometry":{"type":"Point","coordinates":[114.142208,22.574042]},"properties":{"full_address":"广东省深圳市罗湖区东湖街道翠湖社区布心花园二区7栋、8栋（除高风险区外）"}},{"type":"Feature","geometry":{"type":"Point","coordinates":[114.140929,22.577741]},"properties":{"full_address":"广东省深圳市罗湖区东湖街道翠湖社区布心花园三区（除高风险区外）"}},{"type":"Feature","geometry":{"type":"Point","coordinates":[114.140088,22.573135]},"properties":{"full_address":"广东省深圳市罗湖区东湖街道东乐社区东乐花园43-59B栋（共18栋，除高风险区外）"}},{"type":"Feature","geometry":{"type":"Point","coordinates":[114.13745,22.571085]},"properties":{"full_address":"广东省深圳市罗湖区东湖街道东乐社区东安花园（除高风险区外）"}},{"type":"Feature","geometry":{"type":"Point","coordinates":[114.147074,22.544531]},"properties":{"full_address":"广东省深圳市罗湖区黄贝街道新兴社区靖轩花园（除高风险区、底商外）"}},{"type":"Feature","geometry":{"type":"Point","coordinates":[114.128092,22.567225]},"properties":{"full_address":"广东省深圳市罗湖区翠竹街道翠锦社区阳光天地天地轩（除底商外）"}},{"type":"Feature","geometry":{"type":"Point","coordinates":[114.13559,22.560635]},"properties":{"full_address":"广东省深圳市罗湖区翠竹街道翠竹社区东门北路2075号（29号大院）一栋（除外围底商外）"}},{"type":"Feature","geometry":{"type":"Point","coordinates":[114.135849,22.574222]},"properties":{"full_address":"广东省深圳市罗湖区翠竹街道翠达社区布心路2019号宿舍楼围合区域（除高风险区外）"}},{"type":"Feature","geometry":{"type":"Point","coordinates":[114.13598,22.571414]},"properties":{"full_address":"广东省深圳市罗湖区翠竹街道翠达社区东晓综合市场南楼住宅"}},{"type":"Feature","geometry":{"type":"Point","coordinates":[114.139204,22.56539]},"properties":{"full_address":"广东省深圳市罗湖区翠竹街道新村社区水库新村全域围合区域（除原中、高风险区，现高风险区，水库新村工业区11栋外）"}},{"type":"Feature","geometry":{"type":"Point","coordinates":[114.137578,22.577473]},"properties":{"full_address":"广东省深圳市罗湖区东晓街道东晓社区布心特力工业区10栋、11栋"}},{"type":"Feature","geometry":{"type":"Point","coordinates":[114.115104,22.5833]},"properties":{"full_address":"广东省深圳市罗湖区清水河街道草埔西社区清水河村108栋（除高风险区外）"}},{"type":"Feature","geometry":{"type":"Point","coordinates":[114.136163,22.57267]},"properties":{"full_address":"广东省深圳市罗湖区翠竹街道翠达社区粤海新村（除高风险区、临街商铺外）"}},{"type":"Feature","geometry":{"type":"Point","coordinates":[114.136762,22.569133]},"properties":{"full_address":"广东省深圳市罗湖区翠竹街道翠宁社区太宁路145、147号大院（除高风险区、临街商铺外）"}},{"type":"Feature","geometry":{"type":"Point","coordinates":[114.13921,22.573108]},"properties":{"full_address":"广东省深圳市罗湖区东湖街道东乐社区东乐花园1-18栋（除高风险区外）"}},{"type":"Feature","geometry":{"type":"Point","coordinates":[114.138264,22.567928]},"properties":{"full_address":"广东省深圳市罗湖区翠竹街道新村社区水库新村工业区11栋"}},{"type":"Feature","geometry":{"type":"Point","coordinates":[114.143818,22.544628]},"properties":{"full_address":"广东省深圳市罗湖区黄贝街道新秀社区新秀村南区5-8栋、11栋、12栋围合区域（除高风险区外）"}},{"type":"Feature","geometry":{"type":"Point","coordinates":[114.142833,22.543954]},"properties":{"full_address":"广东省深圳市罗湖区黄贝街道新秀社区新秀工业区内东乐大院2栋（除高风险区和底商外）"}},{"type":"Feature","geometry":{"type":"Point","coordinates":[114.135526,22.568664]},"properties":{"full_address":"广东省深圳市罗湖区翠竹街道翠岭社区万事达名苑小区（除高风险区外）"}},{"type":"Feature","geometry":{"type":"Point","coordinates":[114.132455,22.566425]},"properties":{"full_address":"广东省深圳市罗湖区翠竹街道翠岭社区美思苑小区2栋"}},{"type":"Feature","geometry":{"type":"Point","coordinates":[114.127942,22.566477]},"properties":{"full_address":"广东省深圳市罗湖区翠竹街道愉天社区愉天小区1栋（除高风险区外）"}},{"type":"Feature","geometry":{"type":"Point","coordinates":[114.132944,22.572247]},"properties":{"full_address":"广东省深圳市罗湖区翠竹街道翠达社区百仕达花园二期10栋、11栋"}},{"type":"Feature","geometry":{"type":"Point","coordinates":[114.142415,22.587516]},"properties":{"full_address":"广东省深圳市罗湖区东湖街道金湖社区淘金山湖景花园12栋A座、13栋A座、13栋B座"}},{"type":"Feature","geometry":{"type":"Point","coordinates":[114.115947,22.574401]},"properties":{"full_address":"广东省深圳市罗湖区清水河街道清水河社区金豪花园5栋3单元"}},{"type":"Feature","geometry":{"type":"Point","coordinates":[114.076108,22.543455]},"properties":{"full_address":"广东省深圳市福田区华富街道田面新村第19栋-第21栋、第25栋-第27栋、第32栋-第34栋"}},{"type":"Feature","geometry":{"type":"Point","coordinates":[114.08583,22.54274]},"properties":{"full_address":"广东省深圳市福田区华强北街道航苑大厦东座和西座（第4层-第30层）、都会100、华强广场C座和D座"}},{"type":"Feature","geometry":{"type":"Point","coordinates":[114.046338,22.522263]},"properties":{"full_address":"广东省深圳市福田区沙头街道新洲祠堂村第60栋、第69栋"}},{"type":"Feature","geometry":{"type":"Point","coordinates":[114.082101,22.548003]},"properties":{"full_address":"广东省深圳市福田区华强北街道上步工业区402A栋"}},{"type":"Feature","geometry":{"type":"Point","coordinates":[114.045442,22.517514]},"properties":{"full_address":"广东省深圳市福田区沙头街道沙尾社区（高风险区、金地一路22号除外），金地十路21号，福强路4001号第314栋、第316栋、第317栋"}},{"type":"Feature","geometry":{"type":"Point","coordinates":[114.036199,22.523001]},"properties":{"full_address":"广东省深圳市福田区沙头街道金地社区金地花园生活区第311栋"}},{"type":"Feature","geometry":{"type":"Point","coordinates":[114.053306,22.512658]},"properties":{"full_address":"广东省深圳市福田区福保街道益田村第6栋"}},{"type":"Feature","geometry":{"type":"Point","coordinates":[114.092888,22.537251]},"properties":{"full_address":"广东省深圳市福田区南园街道沙埔头综合楼，沙埔头村东第2栋"}},{"type":"Feature","geometry":{"type":"Point","coordinates":[114.100966,22.538091]},"properties":{"full_address":"广东省深圳市福田区南园街道巴登村第17栋、第34栋-35栋、第40栋-41栋、第56栋-58栋、第63栋"}},{"type":"Feature","geometry":{"type":"Point","coordinates":[114.092888,22.537251]},"properties":{"full_address":"广东省深圳市福田区南园街道沙埔头村东第4栋、东第6栋二单元、东第7栋、东第9栋-第11栋、西第4栋、西第8栋一单元、西第10栋"}},{"type":"Feature","geometry":{"type":"Point","coordinates":[113.915419,22.519703]},"properties":{"full_address":"广东省深圳市南山区南山街道南园村（除高风险区外）"}},{"type":"Feature","geometry":{"type":"Point","coordinates":[113.863896,22.576947]},"properties":{"full_address":"广东省深圳市宝安区西乡街道蚝业雅苑（除高风险区域以外）"}},{"type":"Feature","geometry":{"type":"Point","coordinates":[114.16079,22.609346]},"properties":{"full_address":"广东省深圳市龙岗区南湾街道厦村社区厦园路222栋、46栋及西坊13栋、99栋、100栋、151栋、沙湾河花园"}},{"type":"Feature","geometry":{"type":"Point","coordinates":[114.145692,22.604709]},"properties":{"full_address":"广东省深圳市龙岗区南湾街道南岭村社区南园路17号、19号"}},{"type":"Feature","geometry":{"type":"Point","coordinates":[114.11086,22.610698]},"properties":{"full_address":"广东省深圳市龙岗区吉华街道翠湖社区龙翔花园瑞龙轩一期1号楼、2号楼、3号楼"}},{"type":"Feature","geometry":{"type":"Point","coordinates":[114.124255,22.630812]},"properties":{"full_address":"广东省深圳市龙岗区吉华街道三联社区浙新工业城（除高风险区外）"}},{"type":"Feature","geometry":{"type":"Point","coordinates":[114.163722,22.61182]},"properties":{"full_address":"广东省深圳市龙岗区南湾街道厦村社区国香山翡翠华庭2栋及国香山翡翠华庭别墅区"}},{"type":"Feature","geometry":{"type":"Point","coordinates":[114.14622,22.613617]},"properties":{"full_address":"广东省深圳市龙岗区南湾街道南岭村社区荔枝花园B4、B5栋"}},{"type":"Feature","geometry":{"type":"Point","coordinates":[114.006795,22.665542]},"properties":{"full_address":"广东省深圳市龙华区大浪街道高峰社区澳华花园、乌石岗工业区，澳华新村第14至26号"}},{"type":"Feature","geometry":{"type":"Point","coordinates":[114.009684,22.658784]},"properties":{"full_address":"广东省深圳市龙华区大浪街道高峰社区下早新村第26号、27号、47号、53号、57至60号、171至176号"}},{"type":"Feature","geometry":{"type":"Point","coordinates":[114.015547,22.636082]},"properties":{"full_address":"广东省深圳市龙华区民治街道龙塘社区盛荟居（除高风险区外）"}},{"type":"Feature","geometry":{"type":"Point","coordinates":[114.046199,22.670259]},"properties":{"full_address":"广东省深圳市龙华区龙华街道清湖社区清华东路106号、108号、116号"}},{"type":"Feature","geometry":{"type":"Point","coordinates":[114.533326,22.592277]},"properties":{"full_address":"广东省深圳市大鹏新区大鹏办事处鹏飞路滨海花园30栋、31栋、33栋"}},{"type":"Feature","geometry":{"type":"Point","coordinates":[114.484016,22.596204]},"properties":{"full_address":"广东省深圳市大鹏新区大鹏办事处朝飞路下沙新村山海苑1栋、2栋1单元、3栋、4栋、5栋、6栋"}},{"type":"Feature","geometry":{"type":"Point","coordinates":[114.426876,22.6299]},"properties":{"full_address":"广东省深圳市大鹏新区葵涌办事处欧新小区三巷9-14号、四巷9号、五巷7-9号"}},{"type":"Feature","geometry":{"type":"Point","coordinates":[114.530125,22.5942]},"properties":{"full_address":"广东省深圳市大鹏新区大鹏办事处鹏飞路与李白路交界鹏海小区（除高风险区外）"}},{"type":"Feature","geometry":{"type":"Point","coordinates":[113.868309,22.567647]},"properties":{"full_address":"广东省深圳市大鹏新区福城街道章阁社区综安楼、塘前西区15号、财富大厦、幸福楼"}},{"type":"Feature","geometry":{"type":"Point","coordinates":[114.038272,22.603813]},"properties":{"full_address":"广东省深圳市大鹏新区民治街道白石龙社区白石龙一区第3栋、4栋、10栋、15栋"}},{"type":"Feature","geometry":{"type":"Point","coordinates":[114.472605,22.598918]},"properties":{"full_address":"广东省深圳市大鹏新区大鹏办事处旱塘仔（除高风险区外）"}},{"type":"Feature","geometry":{"type":"Point","coordinates":[114.405856,23.0955]},"properties":{"full_address":"广东省惠州市惠东县平山街道公园东1巷、2巷、3巷（高风险区除外）"}},{"type":"Feature","geometry":{"type":"Point","coordinates":[114.732126,22.978156]},"properties":{"full_address":"广东省惠州市惠东县平山街道龙湖苑（高风险区除外）"}},{"type":"Feature","geometry":{"type":"Point","coordinates":[114.720293,22.969674]},"properties":{"full_address":"广东省惠州市惠东县平山街道升辉花园小区（高风险区除外）"}},{"type":"Feature","geometry":{"type":"Point","coordinates":[107.980066,21.541653]},"properties":{"full_address":"广西壮族自治区防城港市东兴市东兴镇花溪社区第8网格景秀路一巷（除景秀路一巷29号-39号（单号）外），景秀路33号、35号，黄花岗路91号、96号"}},{"type":"Feature","geometry":{"type":"Point","coordinates":[107.977898,21.542064]},"properties":{"full_address":"广西壮族自治区防城港市东兴市东兴镇花溪社区第9网格景秀路2号-46号（双号），解放东路38号"}},{"type":"Feature","geometry":{"type":"Point","coordinates":[104.610033,31.55653]},"properties":{"full_address":"四川省绵阳市安州区安州区花荄镇红武村"}},{"type":"Feature","geometry":{"type":"Point","coordinates":[105.592381,30.463196]},"properties":{"full_address":"四川省遂宁市船山区南翔一路3号机场小区B区"}},{"type":"Feature","geometry":{"type":"Point","coordinates":[105.559914,30.519073]},"properties":{"full_address":"四川省遂宁市船山区西山北路230号附5号"}},{"type":"Feature","geometry":{"type":"Point","coordinates":[105.559938,30.519146]},"properties":{"full_address":"四川省遂宁市船山区西山北路218号"}},{"type":"Feature","geometry":{"type":"Point","coordinates":[105.559124,30.519829]},"properties":{"full_address":"四川省遂宁市船山区西山北路597号附1号"}},{"type":"Feature","geometry":{"type":"Point","coordinates":[105.597119,30.531014]},"properties":{"full_address":"四川省遂宁市船山区东城绿洲A区"}},{"type":"Feature","geometry":{"type":"Point","coordinates":[105.602737,30.522102]},"properties":{"full_address":"四川省遂宁市船山区中央美邸"}},{"type":"Feature","geometry":{"type":"Point","coordinates":[105.56346,30.528078]},"properties":{"full_address":"四川省遂宁市船山区秀水街3号金海国际小区"}},{"type":"Feature","geometry":{"type":"Point","coordinates":[105.560852,30.54437]},"properties":{"full_address":"四川省遂宁市船山区新星路1号惠民小区"}},{"type":"Feature","geometry":{"type":"Point","coordinates":[105.607347,30.519353]},"properties":{"full_address":"四川省遂宁市船山区福熙美邸"}},{"type":"Feature","geometry":{"type":"Point","coordinates":[105.551769,30.470523]},"properties":{"full_address":"四川省遂宁市船山区华翔城5期"}},{"type":"Feature","geometry":{"type":"Point","coordinates":[105.561176,30.508373]},"properties":{"full_address":"四川省遂宁市船山区融创九樾府小区"}},{"type":"Feature","geometry":{"type":"Point","coordinates":[105.576641,30.510853]},"properties":{"full_address":"四川省遂宁市船山区凯旋上路128号水利局宿舍3单元所在楼栋"}},{"type":"Feature","geometry":{"type":"Point","coordinates":[105.578955,30.506427]},"properties":{"full_address":"四川省遂宁市船山区三清街金碧文化小区全部区域"}},{"type":"Feature","geometry":{"type":"Point","coordinates":[105.590896,30.501708]},"properties":{"full_address":"四川省遂宁市船山区永乐街湖畔阳光里小区及楼下门面"}},{"type":"Feature","geometry":{"type":"Point","coordinates":[105.606896,30.525765]},"properties":{"full_address":"四川省遂宁市船山区紫竹美庭"}},{"type":"Feature","geometry":{"type":"Point","coordinates":[105.568297,30.525475]},"properties":{"full_address":"四川省遂宁市船山区涪畔美庭"}},{"type":"Feature","geometry":{"type":"Point","coordinates":[105.564925,30.534622]},"properties":{"full_address":"四川省遂宁市船山区遂州北路327号小区及楼下门面"}},{"type":"Feature","geometry":{"type":"Point","coordinates":[105.607917,30.520336]},"properties":{"full_address":"四川省遂宁市船山区学府馨城"}},{"type":"Feature","geometry":{"type":"Point","coordinates":[105.569981,30.532447]},"properties":{"full_address":"四川省遂宁市船山区兴和东街139号永明丽景"}},{"type":"Feature","geometry":{"type":"Point","coordinates":[105.564588,30.509785]},"properties":{"full_address":"四川省遂宁市船山区西山北路249号"}},{"type":"Feature","geometry":{"type":"Point","coordinates":[105.568469,30.535128]},"properties":{"full_address":"四川省遂宁市船山区蜀秀东街水都豪庭"}},{"type":"Feature","geometry":{"type":"Point","coordinates":[105.609163,30.494511]},"properties":{"full_address":"四川省遂宁市船山区江南美邸"}},{"type":"Feature","geometry":{"type":"Point","coordinates":[105.563952,30.539347]},"properties":{"full_address":"四川省遂宁市船山区北固西街北小区"}},{"type":"Feature","geometry":{"type":"Point","coordinates":[105.567344,30.534671]},"properties":{"full_address":"四川省遂宁市船山区北兴社区轴瓦厂宿舍"}},{"type":"Feature","geometry":{"type":"Point","coordinates":[105.561601,30.519089]},"properties":{"full_address":"四川省遂宁市船山区西山路嘉禾苑"}},{"type":"Feature","geometry":{"type":"Point","coordinates":[105.565538,30.535225]},"properties":{"full_address":"四川省遂宁市船山区遂州北路380号飞虹街鑫安大楼"}},{"type":"Feature","geometry":{"type":"Point","coordinates":[105.580194,30.500428]},"properties":{"full_address":"四川省遂宁市船山区西山路人民银行宿舍"}},{"type":"Feature","geometry":{"type":"Point","coordinates":[105.568686,30.540142]},"properties":{"full_address":"四川省遂宁市船山区未来城小区"}},{"type":"Feature","geometry":{"type":"Point","coordinates":[105.565749,30.551061]},"properties":{"full_address":"四川省遂宁市船山区滨江北路1365号北滨郡府"}},{"type":"Feature","geometry":{"type":"Point","coordinates":[105.569389,30.529512]},"properties":{"full_address":"四川省遂宁市船山区上江城"}},{"type":"Feature","geometry":{"type":"Point","coordinates":[105.568121,30.459761]},"properties":{"full_address":"四川省遂宁市船山区克拉中心"}},{"type":"Feature","geometry":{"type":"Point","coordinates":[105.56891,30.440602]},"properties":{"full_address":"四川省遂宁市船山区保升镇保升村2社"}},{"type":"Feature","geometry":{"type":"Point","coordinates":[105.584977,30.50495]},"properties":{"full_address":"四川省遂宁市船山区老兴街中药材公司职工宿舍所在楼栋及楼下门面"}},{"type":"Feature","geometry":{"type":"Point","coordinates":[105.563703,30.522277]},"properties":{"full_address":"四川省遂宁市船山区燕栖街100号、102号所在楼栋及楼下门面"}},{"type":"Feature","geometry":{"type":"Point","coordinates":[105.591733,30.502703]},"properties":{"full_address":"四川省遂宁市船山区永乐街莲花小区全部区域"}},{"type":"Feature","geometry":{"type":"Point","coordinates":[105.588139,30.501472]},"properties":{"full_address":"四川省遂宁市船山区天茂街8栋、10栋所在楼栋和楼下门面"}},{"type":"Feature","geometry":{"type":"Point","coordinates":[105.592812,30.495901]},"properties":{"full_address":"四川省遂宁市船山区天宫北路15号附1、2、3、4号楼所在楼栋"}},{"type":"Feature","geometry":{"type":"Point","coordinates":[105.574282,30.500768]},"properties":{"full_address":"四川省遂宁市船山区南翠二路以北，机场北路以南，南航西路以西，渠河路以东"}},{"type":"Feature","geometry":{"type":"Point","coordinates":[105.553308,30.534369]},"properties":{"full_address":"四川省遂宁市船山区明月路Y字路口以北，半山枫景以南，交通局宿舍以西，御景山以东"}},{"type":"Feature","geometry":{"type":"Point","coordinates":[105.555124,30.528424]},"properties":{"full_address":"四川省遂宁市船山区明月九洲小区"}},{"type":"Feature","geometry":{"type":"Point","coordinates":[105.562103,30.531284]},"properties":{"full_address":"四川省遂宁市船山区明月路以北，鸿发西街以南，北兴街以西，渠河北路以东（不含天峰街73号）"}},{"type":"Feature","geometry":{"type":"Point","coordinates":[105.564788,30.535126]},"properties":{"full_address":"四川省遂宁市船山区北兴公寓以北，福苑公寓以南，遂州北路以西，金泽蜀都小区以东"}},{"type":"Feature","geometry":{"type":"Point","coordinates":[105.565481,30.533923]},"properties":{"full_address":"四川省遂宁市船山区九莲东街以北，新星街以南，滨江北路以西，遂州北路以东（不含遂州北路610、不含滨江北路861-865号）"}},{"type":"Feature","geometry":{"type":"Point","coordinates":[105.565813,30.545056]},"properties":{"full_address":"四川省遂宁市船山区新星路以北，宏桥西街以南，遂州北路以西，渠河路以东"}},{"type":"Feature","geometry":{"type":"Point","coordinates":[105.561779,30.508465]},"properties":{"full_address":"四川省遂宁市船山区东坡小区一二期"}},{"type":"Feature","geometry":{"type":"Point","coordinates":[105.570269,30.518297]},"properties":{"full_address":"四川省遂宁市船山区向山棚户三期"}},{"type":"Feature","geometry":{"type":"Point","coordinates":[105.607044,30.522407]},"properties":{"full_address":"四川省遂宁市船山区新塘房小区"}},{"type":"Feature","geometry":{"type":"Point","coordinates":[105.607399,30.521423]},"properties":{"full_address":"四川省遂宁市船山区灵应寺小区"}},{"type":"Feature","geometry":{"type":"Point","coordinates":[105.609809,30.521249]},"properties":{"full_address":"四川省遂宁市船山区龙腾青年公社"}},{"type":"Feature","geometry":{"type":"Point","coordinates":[105.623034,30.509996]},"properties":{"full_address":"四川省遂宁市船山区遂宁应用高级技工学校"}},{"type":"Feature","geometry":{"type":"Point","coordinates":[105.569393,30.470613]},"properties":{"full_address":"四川省遂宁市船山区兴贸路以东纵横综合服务区"}},{"type":"Feature","geometry":{"type":"Point","coordinates":[105.58759,30.492794]},"properties":{"full_address":"四川省遂宁市船山区邮拱局社区"}},{"type":"Feature","geometry":{"type":"Point","coordinates":[105.570615,30.511392]},"properties":{"full_address":"四川省遂宁市船山区和平西路社区"}},{"type":"Feature","geometry":{"type":"Point","coordinates":[105.594322,30.540274]},"properties":{"full_address":"四川省遂宁市船山区联福家园二期"}},{"type":"Feature","geometry":{"type":"Point","coordinates":[105.57208,30.522179]},"properties":{"full_address":"四川省遂宁市船山区任家渡阳光小区2栋"}},{"type":"Feature","geometry":{"type":"Point","coordinates":[105.581003,30.478157]},"properties":{"full_address":"四川省遂宁市船山区远成中心小区"}},{"type":"Feature","geometry":{"type":"Point","coordinates":[105.588008,30.538837]},"properties":{"full_address":"四川省遂宁市船山区保利江语城2期"}},{"type":"Feature","geometry":{"type":"Point","coordinates":[105.565481,30.533923]},"properties":{"full_address":"四川省遂宁市船山区明月东路以北，鸿发东街以南，滨江北路以西，遂州北路以东"}},{"type":"Feature","geometry":{"type":"Point","coordinates":[105.580053,30.507226]},"properties":{"full_address":"四川省遂宁市船山区遂宁市船山区凯旋中路83号、凯旋中路101号小区"}},{"type":"Feature","geometry":{"type":"Point","coordinates":[105.568848,30.519044]},"properties":{"full_address":"四川省遂宁市船山区遂州中路799号中国银行宿舍1、2栋"}},{"type":"Feature","geometry":{"type":"Point","coordinates":[105.579903,30.502161]},"properties":{"full_address":"四川省遂宁市船山区米市街瑞泽城市之心小区"}},{"type":"Feature","geometry":{"type":"Point","coordinates":[105.583994,30.50122]},"properties":{"full_address":"四川省遂宁市船山区梭子街8栋海琪安置房、12栋及速8酒店所在楼层"}},{"type":"Feature","geometry":{"type":"Point","coordinates":[105.576301,30.511478]},"properties":{"full_address":"四川省遂宁市船山区凯旋上路156号德源鲜兔汤锅城（田园店）所在楼栋"}},{"type":"Feature","geometry":{"type":"Point","coordinates":[105.582431,30.505959]},"properties":{"full_address":"四川省遂宁市船山区正兴北街20号（德东大厦）"}},{"type":"Feature","geometry":{"type":"Point","coordinates":[105.590324,30.499462]},"properties":{"full_address":"四川省遂宁市船山区凯东路247号楼；凯东路249号附1、2、3、4号楼；凯东路255号附1、3、5号楼；万兴大厦1栋、2栋"}},{"type":"Feature","geometry":{"type":"Point","coordinates":[105.448713,30.355815]},"properties":{"full_address":"四川省遂宁市安居区凤凰街道绿逸凤凰小区"}},{"type":"Feature","geometry":{"type":"Point","coordinates":[105.399982,30.51141]},"properties":{"full_address":"四川省遂宁市安居区常理镇铜钱村"}},{"type":"Feature","geometry":{"type":"Point","coordinates":[106.729837,26.584915]},"properties":{"full_address":"贵州省贵阳市云岩区旭东路与巫峰路、扶风路、东山电视塔、龙砚东山外围、螺蛳山路的合围区域"}},{"type":"Feature","geometry":{"type":"Point","coordinates":[106.691978,26.582271]},"properties":{"full_address":"贵州省贵阳市云岩区英烈路与双峰路、省计量检测院、海马冲路的合围区域"}},{"type":"Feature","geometry":{"type":"Point","coordinates":[106.717198,26.593192]},"properties":{"full_address":"贵州省贵阳市云岩区黔灵镇小井组与平安小区的连片区域"}},{"type":"Feature","geometry":{"type":"Point","coordinates":[106.670348,26.472768]},"properties":{"full_address":"贵州省贵阳市花溪区花溪大道南段1166号1栋"}},{"type":"Feature","geometry":{"type":"Point","coordinates":[106.67675,26.438484]},"properties":{"full_address":"贵州省贵阳市花溪区中铁城社区亨特·翰林溪苑小区（商品房1栋-12栋）"}},{"type":"Feature","geometry":{"type":"Point","coordinates":[106.66767,26.476068]},"properties":{"full_address":"贵州省贵阳市花溪区竹林社区农贸市场"}},{"type":"Feature","geometry":{"type":"Point","coordinates":[106.670348,26.472768]},"properties":{"full_address":"贵州省贵阳市花溪区花溪大道南段1166号3栋"}},{"type":"Feature","geometry":{"type":"Point","coordinates":[106.674693,26.461041]},"properties":{"full_address":"贵州省贵阳市花溪区董家堰村二组214号-220号"}},{"type":"Feature","geometry":{"type":"Point","coordinates":[106.669123,26.474038]},"properties":{"full_address":"贵州省贵阳市花溪区大职路溪北安置房"}},{"type":"Feature","geometry":{"type":"Point","coordinates":[106.816665,26.640715]},"properties":{"full_address":"贵州省贵阳市乌当区东风镇新街路1号、42号"}},{"type":"Feature","geometry":{"type":"Point","coordinates":[105.289493,27.309772]},"properties":{"full_address":"贵州省毕节市七星关区毕节八中"}},{"type":"Feature","geometry":{"type":"Point","coordinates":[105.331402,27.289674]},"properties":{"full_address":"贵州省毕节市七星关区万晟阳光城A区除2栋外的其它区域"}},{"type":"Feature","geometry":{"type":"Point","coordinates":[106.036966,27.024166]},"properties":{"full_address":"贵州省毕节市七星关区市东街道香山郦居小区内11栋以外区域"}},{"type":"Feature","geometry":{"type":"Point","coordinates":[105.281142,27.286428]},"properties":{"full_address":"贵州省毕节市七星关区原老公安处至桂花路与洪山路交叉处、沿洪山路往南到市电视台、跨碧阳大道沿洪南路南段（覆盖瑞丰新城所有区域）至深圳路交叉处与虎踞山合围区域"}},{"type":"Feature","geometry":{"type":"Point","coordinates":[105.293693,27.286797]},"properties":{"full_address":"贵州省毕节市七星关区碧阳街道滨湖小区除愉景华庭 H 栋以外区域"}},{"type":"Feature","geometry":{"type":"Point","coordinates":[106.020944,26.985378]},"properties":{"full_address":"贵州省毕节市黔西市莲城街道八块田社区（除6、7网格外）"}},{"type":"Feature","geometry":{"type":"Point","coordinates":[106.020944,26.985378]},"properties":{"full_address":"贵州省毕节市黔西市中华大道与S212（南环线）交叉口东南侧接八块田社区闭环区域"}},{"type":"Feature","geometry":{"type":"Point","coordinates":[106.041173,26.993051]},"properties":{"full_address":"贵州省毕节市黔西市中华大道与金黔大道（同心大道）交叉口西南侧接八块田社区闭环区域"}},{"type":"Feature","geometry":{"type":"Point","coordinates":[106.029799,27.009257]},"properties":{"full_address":"贵州省毕节市黔西市桦晨医院及备勤楼"}},{"type":"Feature","geometry":{"type":"Point","coordinates":[106.239049,27.465209]},"properties":{"full_address":"贵州省毕节市金沙县鼓场街道玉屏路一中路口至老养护段出口之间宿舍楼"}},{"type":"Feature","geometry":{"type":"Point","coordinates":[106.227154,27.464715]},"properties":{"full_address":"贵州省毕节市金沙县鼓场街道龙井巷与河滨路合围"}},{"type":"Feature","geometry":{"type":"Point","coordinates":[106.22797,27.459382]},"properties":{"full_address":"贵州省毕节市金沙县民兴街道金沙义乌商贸城"}},{"type":"Feature","geometry":{"type":"Point","coordinates":[106.228704,27.464333]},"properties":{"full_address":"贵州省毕节市金沙县鼓场街道红凯苑小区及其临街入口旁彩虹便利店及旁建筑区域"}},{"type":"Feature","geometry":{"type":"Point","coordinates":[106.227035,27.464895]},"properties":{"full_address":"贵州省毕节市金沙县鼓场街道龙五爷羊肉粉至曹家湾酱醋小区"}},{"type":"Feature","geometry":{"type":"Point","coordinates":[106.039034,26.541212]},"properties":{"full_address":"贵州省毕节市织金县猫场镇齐心村"}},{"type":"Feature","geometry":{"type":"Point","coordinates":[105.766133,26.666463]},"properties":{"full_address":"贵州省毕节市织金县文腾街道宏洲路口入口往北、西湖路通城大道入口往东、174老职工宿舍后山往东北、水乡4号地块往西的合围区域"}},{"type":"Feature","geometry":{"type":"Point","coordinates":[105.762749,26.669161]},"properties":{"full_address":"贵州省毕节市织金县文腾街道花卉路至河滨路往西、县林业局路口往北、金河湾停车场路口往东、交警队停车场往西的合围区域"}},{"type":"Feature","geometry":{"type":"Point","coordinates":[104.718876,27.11909]},"properties":{"full_address":"贵州省毕节市纳雍县雍熙街道公园社区汇金国际小区家乐福超市门口起沿县府街接二中路，接汇金国际小区南门绕D栋、C栋及幼儿园房屋后面合围区域"}},{"type":"Feature","geometry":{"type":"Point","coordinates":[105.377177,26.595812]},"properties":{"full_address":"贵州省毕节市纳雍县居仁街道桃园社区大山林组"}},{"type":"Feature","geometry":{"type":"Point","coordinates":[105.377761,26.763971]},"properties":{"full_address":"贵州省毕节市纳雍县居仁街道桃园社区中寨组"}},{"type":"Feature","geometry":{"type":"Point","coordinates":[102.592934,24.967804]},"properties":{"full_address":"云南省昆明市西山区碧鸡街道长坡社区"}},{"type":"Feature","geometry":{"type":"Point","coordinates":[102.718241,24.956532]},"properties":{"full_address":"云南省昆明市西山区碧鸡社区碧鸡关隧道以西区域"}},{"type":"Feature","geometry":{"type":"Point","coordinates":[102.588402,24.946149]},"properties":{"full_address":"云南省昆明市安宁市太平街道滇和家园小区"}},{"type":"Feature","geometry":{"type":"Point","coordinates":[102.592461,24.952303]},"properties":{"full_address":"云南省昆明市安宁市中冠建材市场"}},{"type":"Feature","geometry":{"type":"Point","coordinates":[102.576637,24.952559]},"properties":{"full_address":"云南省昆明市安宁市时代贸港"}},{"type":"Feature","geometry":{"type":"Point","coordinates":[102.832279,23.624656]},"properties":{"full_address":"云南省红河哈尼族彝族自治州建水县五龙商场片区"}},{"type":"Feature","geometry":{"type":"Point","coordinates":[98.06534,24.077361]},"properties":{"full_address":"云南省德宏傣族景颇族自治州瑞丽市畹町镇国防街社区和民主街社区除高风险区外的区域，以及建设路社区部分区域"}},{"type":"Feature","geometry":{"type":"Point","coordinates":[97.85855,23.989484]},"properties":{"full_address":"云南省德宏傣族景颇族自治州瑞丽市勐卯镇团结村委会广拉一社31-33号、178号、288号"}},{"type":"Feature","geometry":{"type":"Point","coordinates":[97.852712,23.990545]},"properties":{"full_address":"云南省德宏傣族景颇族自治州瑞丽市勐卯街道团结村委会滇弄一村民小组南片区除高风险区外的区域"}},{"type":"Feature","geometry":{"type":"Point","coordinates":[97.881141,24.002877]},"properties":{"full_address":"云南省德宏傣族景颇族自治州瑞丽市勐卯街道团结村委会等母村民小组南片区除高风险区以外区域"}},{"type":"Feature","geometry":{"type":"Point","coordinates":[97.87592,24.010125]},"properties":{"full_address":"云南省德宏傣族景颇族自治州瑞丽市勐卯街道勐龙沙社区锦福园小区二期除高风险区以外区域"}},{"type":"Feature","geometry":{"type":"Point","coordinates":[97.86685,24.022424]},"properties":{"full_address":"云南省德宏傣族景颇族自治州瑞丽市勐卯街道目瑙社区捷安商贸城网格G区除高风险区以外区域"}},{"type":"Feature","geometry":{"type":"Point","coordinates":[98.05338,24.073108]},"properties":{"full_address":"云南省德宏傣族景颇族自治州瑞丽市畹町镇建设路社区永安巷除高风险区以外区域"}},{"type":"Feature","geometry":{"type":"Point","coordinates":[97.827503,23.979255]},"properties":{"full_address":"云南省德宏傣族景颇族自治州瑞丽市勐卯街道姐东村委会大等贺村民小组除高风险区以外区域"}},{"type":"Feature","geometry":{"type":"Point","coordinates":[97.700523,23.916392]},"properties":{"full_address":"云南省德宏傣族景颇族自治州瑞丽市姐相镇俄罗村委会弄相村民小组除高风险区以外区域"}},{"type":"Feature","geometry":{"type":"Point","coordinates":[91.061076,29.660182]},"properties":{"full_address":"西藏自治区拉萨市城关区气象局安居苑"}},{"type":"Feature","geometry":{"type":"Point","coordinates":[91.163493,29.653321]},"properties":{"full_address":"西藏自治区拉萨市城关区东郊新安居园"}},{"type":"Feature","geometry":{"type":"Point","coordinates":[91.15665,29.656755]},"properties":{"full_address":"西藏自治区拉萨市城关区如意电梯公寓（藏热南路）"}},{"type":"Feature","geometry":{"type":"Point","coordinates":[91.135594,29.675344]},"properties":{"full_address":"西藏自治区拉萨市城关区色拉北路圣城花园"}},{"type":"Feature","geometry":{"type":"Point","coordinates":[91.140435,29.654792]},"properties":{"full_address":"西藏自治区拉萨市城关区金谷快捷酒店"}},{"type":"Feature","geometry":{"type":"Point","coordinates":[91.212193,29.639188]},"properties":{"full_address":"西藏自治区拉萨市城关区蔡公堂街道蔡村琅赛十一区东区"}},{"type":"Feature","geometry":{"type":"Point","coordinates":[91.134504,29.651852]},"properties":{"full_address":"西藏自治区拉萨市城关区冲赛康社区"}},{"type":"Feature","geometry":{"type":"Point","coordinates":[91.130543,29.65265]},"properties":{"full_address":"西藏自治区拉萨市城关区丹杰林社区（朵森格路中段以东）"}},{"type":"Feature","geometry":{"type":"Point","coordinates":[91.159084,29.655639]},"properties":{"full_address":"西藏自治区拉萨市城关区拉萨市第八中学（宿舍楼）"}},{"type":"Feature","geometry":{"type":"Point","coordinates":[91.121675,29.671719]},"properties":{"full_address":"西藏自治区拉萨市城关区娘热路幸福新村"}},{"type":"Feature","geometry":{"type":"Point","coordinates":[91.151791,29.673656]},"properties":{"full_address":"西藏自治区拉萨市城关区扎细街道尼卓林社区尼卓苑及其周边（鑫福地汽修厂）"}},{"type":"Feature","geometry":{"type":"Point","coordinates":[91.153829,29.673625]},"properties":{"full_address":"西藏自治区拉萨市城关区扎细街道尼卓林社区蜀园小区西区"}},{"type":"Feature","geometry":{"type":"Point","coordinates":[91.167001,29.656604]},"properties":{"full_address":"西藏自治区拉萨市城关区嘎玛贡桑街道俄杰塘社区1、2、3、6组"}},{"type":"Feature","geometry":{"type":"Point","coordinates":[91.156486,29.727022]},"properties":{"full_address":"西藏自治区拉萨市城关区夺底街道（嘎贡安居苑、赛康福江家园、维巴村3组47号出租房）"}},{"type":"Feature","geometry":{"type":"Point","coordinates":[91.168402,29.652739]},"properties":{"full_address":"西藏自治区拉萨市城关区幸福家园B区"}},{"type":"Feature","geometry":{"type":"Point","coordinates":[91.129227,29.66972]},"properties":{"full_address":"西藏自治区拉萨市城关区文创园区幸福苑二区"}},{"type":"Feature","geometry":{"type":"Point","coordinates":[91.135746,29.657084]},"properties":{"full_address":"西藏自治区拉萨市城关区吉崩岗社区（除西藏自治区气象局、拉萨市第二中学、2号网格一区、2号网格二区、小昭寺路中段、市退役军人服务中心）"}},{"type":"Feature","geometry":{"type":"Point","coordinates":[91.137071,29.65134]},"properties":{"full_address":"西藏自治区拉萨市城关区吉日社区（除二号网格）"}},{"type":"Feature","geometry":{"type":"Point","coordinates":[91.244615,29.646065]},"properties":{"full_address":"西藏自治区拉萨市城关区蔡公堂街道恩惠苑社区（恩惠苑小区、、翰林苑除17栋、拉萨师范高等专科学校、拉萨市第二高级中学）"}},{"type":"Feature","geometry":{"type":"Point","coordinates":[91.129378,29.656709]},"properties":{"full_address":"西藏自治区拉萨市城关区策门林社区（朵森格路北段以东）（除西藏日报、朵森格路北段东侧门店、策门林商场）"}},{"type":"Feature","geometry":{"type":"Point","coordinates":[91.129855,29.657839]},"properties":{"full_address":"西藏自治区拉萨市城关区热木其社区（除温州商贸城、农行退休基地、华清池、康萨强院、江热大院、老幼儿园院、桑珠康萨院、玉卡后院、果热庆姆院、德吉康萨院、卓东瓦院、果热久久院）"}},{"type":"Feature","geometry":{"type":"Point","coordinates":[91.139802,29.643203]},"properties":{"full_address":"西藏自治区拉萨市城关区河坝林社区（林廓东路以西）（除波林卡体育场、拉萨市第一初级中学、林廓东路以西（私房）、西藏自治区体育局）"}},{"type":"Feature","geometry":{"type":"Point","coordinates":[91.147544,29.673285]},"properties":{"full_address":"西藏自治区拉萨市城关区扎细街道尼卓林社区琅赛9区北区"}},{"type":"Feature","geometry":{"type":"Point","coordinates":[91.13227,29.668685]},"properties":{"full_address":"西藏自治区拉萨市城关区扎细街道扎细新村社区（除娘热路农行、区直工委退休基地、边防小区、拉萨市城市管理局、中央粮食储备库、自治区运管局、国网拉萨供电公司、拉萨市养护处、科技厅生活区、政府一号退休基地、国网西藏超高压公司、一江两河退休基地、城北工商、拉萨市净土、圣美家超市、哈达购物广场）"}},{"type":"Feature","geometry":{"type":"Point","coordinates":[91.136698,29.66346]},"properties":{"full_address":"西藏自治区拉萨市城关区扎细街道雄嘎社区（除自治区乡村振兴局、自治区外事办、童嘎语言学校、拉萨市人社局、自治区电力科学研究院、拉萨支队生活区、众创空间、自治区银监局、拉萨市禁毒支队）"}},{"type":"Feature","geometry":{"type":"Point","coordinates":[91.178559,29.661954]},"properties":{"full_address":"西藏自治区拉萨市城关区纳金街道纳如社区（除未来城小区、城关花园D区、城祥苑、纳如社区安全厅训练基地、纳如社区城投垃圾转运站、纳如社区钢管厂、拉萨市林草局、东城一品、江苏援藏指挥部、纳如老木材市场、纳如社区宏发汽车检测中心、纳如社区奇正藏药用地、纳如综合楼、乐居苑）"}},{"type":"Feature","geometry":{"type":"Point","coordinates":[91.137246,29.653281]},"properties":{"full_address":"西藏自治区拉萨市城关区木如社区（除下密院、吉崩岗小学、赛鑫商场、木如寺、格悟善缘酒店、芷燕宾馆、国家电网变电站、中国电信拉萨分公司生活小区、农行城关支行小区、拉萨市商务局、中法退休基地、自治区艺术研究所）"}},{"type":"Feature","geometry":{"type":"Point","coordinates":[91.057399,29.660478]},"properties":{"full_address":"西藏自治区拉萨市城关区金珠西路街道当巴社区（除北京西路39号西藏自治区烟草公司拉萨市公司、经信厅、文君苑十区、简约公寓、顺通小区、窝家大院、玄鹤公寓、崔宗华出租房、阮氏公寓、志华出租房、鹏曦公寓、德布出租房、文君苑9区、勇耀公寓、西藏自治区人力资源与社会保障厅、人大退休基地、西藏自治区交通综合执法总队、广电032台、镖局集团、拉鲁湿地管理局、天成矿业片区、鲁定小区、青藏公路退休基地、丽都片区、荣信片区、安禾之家、交通安居苑、顺通城市花园、协和片区、电杆厂、吉日仓库、吉日商贸、哲蚌寺集体经济地、地勘实验中心、雷达团、展览馆退休基地、美朵林卡小区、九州片区、人保退休基地、天顺小区、尼威小区、蓝天路云沃庄园（乌孜林片区）、兴悦公寓片区）"}},{"type":"Feature","geometry":{"type":"Point","coordinates":[91.175688,29.652442]},"properties":{"full_address":"西藏自治区拉萨市城关区绕赛社区（江苏路以北）（除1、2号网格）"}},{"type":"Feature","geometry":{"type":"Point","coordinates":[91.091377,29.654461]},"properties":{"full_address":"西藏自治区拉萨市城关区功德林街道加措社区（除伊成检测站、箭达岗公寓、审计厅生活区、西藏革命纪念馆工地、自治区血液中心、拉萨七中、卫健委办公区、拉萨海关、中国石油（当热路）、自治区卫健委、旅游大厦、南方公司、诺迪康药业、自治区科技厅、文居苑（二区）、回族林卡、拉萨消防、西藏银行、自治区编译局、鸿运家具城、财政厅、西藏银行、中国银行、老鱼庄、西藏税务、十三幼儿园、自来水公司、中国人保财险、中国石化、哈达工地、巨龙铜业、生态环境厅、泰和国际、金珠路14号（国保支队）、丰田4S店、110便民支队、第三安居苑、财经学院、农银大学、圣州加气站、锦江之星酒店、自治区卫校、拉萨市农行退休基地、财康青年旅社、甘丹寺招待所、西藏自治区疾控中心第二工作区、拉萨市运管局、尼泊尔领事馆、加措社区居委会、金陵酒店、泽当饭店、环球大厦、区工人疗养院、交警总队、银都宾馆、自治区藏剧团、自治区话剧团、乐视公寓、旅游汽车公司北、旅游汽车公司南、人大退休基地、自治区民政厅、自治区文联、拉萨饭店、自治区统计局、拉萨市特警支队生活区、市交通局、西农集团、罗布林卡南路2号、自治区藏医药管理局、自治区移动公司、机电小区、第四安居园续建公寓、格吉园小区、拉萨饭店生活区、自治区档案馆、西藏宾馆、新华书店北京西路店、罗布林卡）"}},{"type":"Feature","geometry":{"type":"Point","coordinates":[91.123908,29.672027]},"properties":{"full_address":"西藏自治区拉萨市城关区功德林街道幸福社区（除娘热南路15号国豪商务宾馆、卓玛医院、布达拉宫退休基地、博物馆退休基地、审计厅办公区、彩泉福利学校、自治区医保局、自治区妇联、宣传部退休基地、自治区药监局、自治区林草局、扎西热旦小区、自治区住建厅及生活区、市统计局、藏医院对面七天酒店及周边商业、拉鲁桥斜对面宜尚酒店及周边商业、自治区人民出版社、自治区佛协、自治区人民检察院、自治区政协、汽车五队小区（周转房2、4栋、北区2、3、5、6、9、12、13、26、27栋，南区6栋））"}},{"type":"Feature","geometry":{"type":"Point","coordinates":[91.137567,29.682533]},"properties":{"full_address":"西藏自治区拉萨市城关区夺底街道桑伊社区（除党群服务中心、煜宸公寓、北城新天地广场、圣地天然矿泉水公司、中行退休基地（夺底北路）、凯旋盛世（社区）、拉康小区、生药厂生活区、粮食仓库、那曲发改委退休基地、米琼日山脚仓库、拉萨市就业中心、御品世家、昌都交通局退休基地、金属小区、自治区畜科所、东尊名城、天海仓库、拉萨电信城北分局、高争民爆物资公司生活区、拉萨啤酒厂、拉萨啤酒厂生活区、西农小区、阿里交通退休基地、小十安居苑、自治区司法厅）"}},{"type":"Feature","geometry":{"type":"Point","coordinates":[91.133885,29.661338]},"properties":{"full_address":"西藏自治区拉萨市城关区吉日街道八朗学社区（除公安五处、李振华出租房、国家电网、城中工商分局、神牛公司、经济委（包含门面）、神牛门面、林聚路林聚小区、市教育局、电力小区、武装部、林聚路巴桑（私房）、大吉酒店、市农业农村局、自治区农业农村厅、哈达出租房、明珠加油站、市兽医总站）"}},{"type":"Feature","geometry":{"type":"Point","coordinates":[91.135948,29.676493]},"properties":{"full_address":"西藏自治区拉萨市城关区扎细街道团结新村社区（除拉萨市第三小学、拉萨市规划设计院、自治区国资委、自治区藏医院、自治区疾控中心、阜康医院住院部、纳木措宾馆、自治区设计院、农投商贸有限公司、香嘎小区、北郊自来水厂、幸福苑、林廓北路19号国家电网）"}},{"type":"Feature","geometry":{"type":"Point","coordinates":[91.147381,29.676924]},"properties":{"full_address":"西藏自治区拉萨市城关区扎细街道扎细社区（除自治区水利厅、机修厂、军械厂、扎细社区合作社、自治区司法医院、自治区税务周转房、自治区民宗委退休基地）"}},{"type":"Feature","geometry":{"type":"Point","coordinates":[91.116798,29.660227]},"properties":{"full_address":"西藏自治区拉萨市城关区功德林街道雪社区（除天海吉祥花园B区、纪念碑电信大厦、法官学院办公区、拉威国际酒店、兰泽宾馆、农行城西支行、德吉南路15号上海大厦、璟城国际商务酒店、展览中心退休基地、三中教育小区、西郊电信生活区、接待车队、第十二幼儿园、香格里拉大酒店、豪庭酒店、舒尚客观景酒店、浦发银行、滨河公园、自治区四号院、区交通厅路网监测中心、国网电力研究中心、国家电网、自来水退休基地、世纪广场、娟珠茶园、展览中心退休基地、自治区博物馆、自治区图书馆办公区、汽工贸德丹林、天运交通公司、自治区交通厅、自治区公路局、自治区测绘局、自治区法官学院、自治区人大、军区三所居民区、公馆、公德林派出所、自治区税务局、德吉支路教育安居南苑、自治区电化教育馆、蕃瑞大厦、西藏援藏基金会及生活区、德吉北路建行退休基地、自治区教材编译中心、教育厅内安居南苑、中国石油站、西藏交通发展集团、自治区旅游发展委员会、功德林天街、兰泽公寓、中国银行、市公安局刑警支队、第三中学、天海夜市、外运小区、拉萨中学生活区、商务厅生活小区、西藏大厦生活区、税务退休基地、雪小学、西藏中兴商贸物流产业发展集团、金运二区、尚都国际小区、天运苑小区）"}},{"type":"Feature","geometry":{"type":"Point","coordinates":[91.125242,29.692837]},"properties":{"full_address":"西藏自治区拉萨市城关区娘热街道阿坝林卡社区（除拉萨市卫生职工学校、拉萨市原高等师范专科学校东片区、第四居民小组、拉萨教育产业园、自治区政协第一生活小区）"}},{"type":"Feature","geometry":{"type":"Point","coordinates":[91.133779,29.679983]},"properties":{"full_address":"西藏自治区拉萨市城关区娘热街道慈松塘社区（除惠华公寓、达杰园林、慈松塘扶贫出租房、山河堂、新华印刷厂、水上公园、自治区残疾人康复中心、自治区游泳馆、顺通公司、师范附小、城北消防大队、矿业发展总公司、西藏自治区广播电视局031台、西藏自治区地勘局第二地质大队、西藏自治区工业物资运销公司退休基地、色拉北路37号、沃诺仓大厦、顺通小区、巴尔库大厦、城北暖心公司、矿业生活小区、拉萨市环卫局、顺通大厦、自治区体校、拉萨院子、西藏东红农机销售有限公司、国税局生活基地）"}},{"type":"Feature","geometry":{"type":"Point","coordinates":[91.177877,29.649374]},"properties":{"full_address":"西藏自治区拉萨市城关区纳金街道纳金村（除宝萨翠湖庄园、彩砖厂、安能西藏公司、碧桂园、琅赛安居苑、拉萨规划建设展览馆、市公交公司东郊总站、市园林局、市气象局、纳金东路7号市公安局、城馨苑、香巴拉豪庭小区、古泽小区、外贸退休基地、拉萨明鑫印刷有限公司、云海山庄、紫御名都工地、第八安居园、领秀翡翠湾、城投5号地、万达广场（东郊店）、白荣北干渠（居民区）、103化工厂、东城金座小区、纳金小学、城投12号工地、洲际酒店、拉百小区、纳金村修理厂片区、市生态环境局、纳金第八小学、诺吉花园小区、梦之苑小区）"}},{"type":"Feature","geometry":{"type":"Point","coordinates":[91.177742,29.643063]},"properties":{"full_address":"西藏自治区拉萨市城关区纳金街道塔玛村（除区水电资源勘测局、区专用通信局、西藏绿办、市外事办、茶马名居、西藏自治区残疾人就业服务中心、文化宫、自治区广播电视拉萨中波转播台、昌都公安工作站小区、政法委退休基地、拉萨市市场监督管理局、城市管理综合执法队、拉萨市网监支队、拉萨市城南交警大队、城关区消防救援大队、拉萨市信访局、吉日派出所、区广电局拉萨监测台、区广电局影视资料库工地、市残疾人就业服务中心、中国人民银行、市税务局生活区、司法局、市妇联、市行政审批和便民服务局、团市委、市总工会、市国资委、自治区广播电视局、经信局、市检察院、城关区市场监督管理局、中国建设银行东城区支行、实验小学东城分校、墨竹办事处、拉萨市旅游局、拉萨市中级人民法院、市宗教事务局、市残疾人康复中心、西藏自然科学博物馆、区科协、国建队分库、市住建局、区自然资源局、暖心公司、市侨务办、城关区检察院、市水利监测中心、自治区残联生活区、城关区第24幼儿园、塔玛村雪山燃气片区、塔玛村歌舞团、宏发小区、藏大东路10号、1号网格滨河路工地、塔玛村委会、东君文化府、阳吉华苑（一期）、东苑小区、双创基地、晨曦花园、自治区教育厅、贡布堂数码广场、贡布堂路祥和苑小区、扎西园小区、藏大中路广电小区、冲萨小区、自治区教育考试院、塔玛二期、滨河路5号闸工地、塔玛村滨河路综合楼工地、拉萨梓馨宾馆、塔玛村卫生院、阳光都市小区）"}},{"type":"Feature","geometry":{"type":"Point","coordinates":[91.076627,29.645311]},"properties":{"full_address":"西藏自治区拉萨市城关区金珠西路街道八一社区（除格桑美域小区、世邦城市花园小区、金藏林卡小区、藏游坛城、春天花园小区、解甲园小区、鲲祥苑、八一农场小区、世邦金色时代、城发商厦、鲲泰建设大厦、平安小区、金典大厦、自治区商务厅、红十字会、八一校、老刘出租房、云水谣、城发大厦、当巴小学、城投大厦、藏药博物馆、八一菜市场、厚兰医院、林草局、应急救援中心、自治区农行、拉萨印象、国际花园、藏大西苑、自治区高法、自治区人力资源市场管理服务中心、马蓉出租房、岗培中心、一建司、岗旋出租房、中兴加油站、圣城锦苑、城西交警支队、国家开发银行西藏自治区分行、金珠西路派出所、民航退休基地、农垦大厦、中国邮政储蓄银行（拉萨支行）、中国建设银行金珠西路支行、金珠花苑、西藏职业技术学院、城西旅社出租房、哈达滨河花园西区（除二排四栋16、17单元、三排二栋6单元、三排三栋11单元、四排一栋1、2单元、四排二栋活动中心外）、哈达滨河花园东区（除一排一栋2、3单元、四排二栋1、5单元、临街一栋2、3单元、商业楼外）、北京现代西藏万融专营店）"}},{"type":"Feature","geometry":{"type":"Point","coordinates":[91.051911,29.63722]},