{"type":"FeatureCollection","features":[{"type":"Feature","geometry":{"type":"Point","coordinates":[116.495539,39.964125]},"properties":{"province":"北京市","city":"朝阳区","county":"酒仙桥街道","community":"二街坊","full_address":"北京市朝阳区酒仙桥街道二街坊","info":""}},{"type":"Feature","geometry":{"type":"Point","coordinates":[116.832831,39.251299]},"properties":{"province":"河北省","city":"廊坊市","county":"安次区","community":"葛渔城镇全域","full_address":"河北省廊坊市安次区葛渔城镇全域","info":""}},{"type":"Feature","geometry":{"type":"Point","coordinates":[116.716034,39.069894]},"properties":{"province":"河北省","city":"廊坊市","county":"霸州市","community":"胜芳镇欧韵城小区","full_address":"河北省廊坊市霸州市胜芳镇欧韵城小区","info":""}},{"type":"Feature","geometry":{"type":"Point","coordinates":[122.196708,40.252323]},"properties":{"province":"辽宁省","city":"营口市","county":"鲅鱼圈区","community":"北大荒物流股份有限公司","full_address":"辽宁省营口市鲅鱼圈区北大荒物流股份有限公司","info":""}},{"type":"Feature","geometry":{"type":"Point","coordinates":[125.357136,43.93891]},"properties":{"province":"吉林省","city":"长春市","county":"宽城区","community":"团山街道小南街社区","full_address":"吉林省长春市宽城区团山街道小南街社区","info":""}},{"type":"Feature","geometry":{"type":"Point","coordinates":[125.289978,43.923749]},"properties":{"province":"吉林省","city":"长春市","county":"绿园区","community":"青年路街道宇航社区","full_address":"吉林省长春市绿园区青年路街道宇航社区","info":""}},{"type":"Feature","geometry":{"type":"Point","coordinates":[125.824186,44.135729]},"properties":{"province":"吉林省","city":"长春市","county":"九台区","community":"九郊街道新州社区","full_address":"吉林省长春市九台区九郊街道新州社区","info":""}},{"type":"Feature","geometry":{"type":"Point","coordinates":[126.225734,43.979173]},"properties":{"province":"吉林省","city":"吉林市","county":"昌邑区","community":"桦皮厂镇桦皮厂社区","full_address":"吉林省吉林市昌邑区桦皮厂镇桦皮厂社区","info":""}},{"type":"Feature","geometry":{"type":"Point","coordinates":[126.58834,43.885219]},"properties":{"province":"吉林省","city":"吉林市","county":"昌邑区","community":"延江街道江山帝景小区","full_address":"吉林省吉林市昌邑区延江街道江山帝景小区","info":""}},{"type":"Feature","geometry":{"type":"Point","coordinates":[126.479867,43.953192]},"properties":{"province":"吉林省","city":"吉林市","county":"经开区","community":"九站街道农校社区八委十组（九龙路以南、经开大街以东、翰林路以南）","full_address":"吉林省吉林市经开区九站街道农校社区八委十组（九龙路以南、经开大街以东、翰林路以南）","info":""}},{"type":"Feature","geometry":{"type":"Point","coordinates":[129.910094,46.735736]},"properties":{"province":"黑龙江省","city":"佳木斯市","county":"汤原县","community":"东湖城小区","full_address":"黑龙江省佳木斯市汤原县东湖城小区","info":""}},{"type":"Feature","geometry":{"type":"Point","coordinates":[129.916364,46.732932]},"properties":{"province":"黑龙江省","city":"佳木斯市","county":"汤原县","community":"阳光河畔小区","full_address":"黑龙江省佳木斯市汤原县阳光河畔小区","info":""}},{"type":"Feature","geometry":{"type":"Point","coordinates":[119.552207,26.762737]},"properties":{"province":"福建省","city":"宁德市","county":"蕉城区","community":"七都镇黄厝村","full_address":"福建省宁德市蕉城区七都镇黄厝村","info":""}},{"type":"Feature","geometry":{"type":"Point","coordinates":[119.54787,26.764313]},"properties":{"province":"福建省","city":"宁德市","county":"蕉城区","community":"七都镇大厅村","full_address":"福建省宁德市蕉城区七都镇大厅村","info":""}}]}