{"type":"FeatureCollection","features":[{"type":"Feature","geometry":{"type":"Point","coordinates":[116.43935,39.86376]},"properties":{"province":"北京市","city":"丰台区","county":"方庄街道","community":"紫芳园一区除7号楼的其他区域、紫芳园三区1号楼及底商","full_address":"北京市丰台区方庄街道紫芳园一区除7号楼的其他区域、紫芳园三区1号楼及底商","info":""}},{"type":"Feature","geometry":{"type":"Point","coordinates":[117.270283,39.090763]},"properties":{"province":"天津市","city":"天津市","county":"河东区","community":"富民路街道雅仕嘉园7号楼、8号楼、17号楼、19号楼、20号楼","full_address":"天津市天津市河东区富民路街道雅仕嘉园7号楼、8号楼、17号楼、19号楼、20号楼","info":""}},{"type":"Feature","geometry":{"type":"Point","coordinates":[117.182632,39.164143]},"properties":{"province":"天津市","city":"天津市","county":"河北区","community":"新开河街荣都公寓5号楼","full_address":"天津市天津市河北区新开河街荣都公寓5号楼","info":""}},{"type":"Feature","geometry":{"type":"Point","coordinates":[117.243851,39.18277]},"properties":{"province":"天津市","city":"天津市","county":"河北区","community":"建昌道街外环小区（除高风险区）、鑫田公寓","full_address":"天津市天津市河北区建昌道街外环小区（除高风险区）、鑫田公寓","info":""}},{"type":"Feature","geometry":{"type":"Point","coordinates":[117.236816,39.181171]},"properties":{"province":"天津市","city":"天津市","county":"河北区","community":"建昌道街新天时园(除20号楼83-85门)","full_address":"天津市天津市河北区建昌道街新天时园(除20号楼83-85门)","info":""}},{"type":"Feature","geometry":{"type":"Point","coordinates":[117.741409,39.032761]},"properties":{"province":"天津市","city":"天津市","county":"滨海新区","community":"新港街道启航嘉园除高风险区外其他区域","full_address":"天津市天津市滨海新区新港街道启航嘉园除高风险区外其他区域","info":""}},{"type":"Feature","geometry":{"type":"Point","coordinates":[117.676147,39.031612]},"properties":{"province":"天津市","city":"天津市","county":"滨海新区","community":"杭州道街道万科紫台一期除高风险区外其他区域","full_address":"天津市天津市滨海新区杭州道街道万科紫台一期除高风险区外其他区域","info":""}},{"type":"Feature","geometry":{"type":"Point","coordinates":[117.615074,38.985031]},"properties":{"province":"天津市","city":"天津市","county":"滨海新区","community":"新城镇梁锦西苑除高风险区外其他区域","full_address":"天津市天津市滨海新区新城镇梁锦西苑除高风险区外其他区域","info":""}},{"type":"Feature","geometry":{"type":"Point","coordinates":[117.59938,39.03492]},"properties":{"province":"天津市","city":"天津市","county":"滨海新区","community":"胡家园街道滨尚花园除10号楼外其他区域","full_address":"天津市天津市滨海新区胡家园街道滨尚花园除10号楼外其他区域","info":""}},{"type":"Feature","geometry":{"type":"Point","coordinates":[116.760277,38.933559]},"properties":{"province":"天津市","city":"天津市","county":"静海区","community":"王口镇除高风险外的其他区域","full_address":"天津市天津市静海区王口镇除高风险外的其他区域","info":""}},{"type":"Feature","geometry":{"type":"Point","coordinates":[116.829338,38.862923]},"properties":{"province":"天津市","city":"天津市","county":"静海区","community":"子牙新城平祥园除20号楼外其他区域","full_address":"天津市天津市静海区子牙新城平祥园除20号楼外其他区域","info":""}},{"type":"Feature","geometry":{"type":"Point","coordinates":[116.922684,38.929932]},"properties":{"province":"天津市","city":"天津市","county":"静海区","community":"静海镇锦绣佳园7号楼","full_address":"天津市天津市静海区静海镇锦绣佳园7号楼","info":""}},{"type":"Feature","geometry":{"type":"Point","coordinates":[116.93203,38.922012]},"properties":{"province":"天津市","city":"天津市","county":"静海区","community":"朝阳街道振农里南1号至11号和振农里北1号至22号平房区域","full_address":"天津市天津市静海区朝阳街道振农里南1号至11号和振农里北1号至22号平房区域","info":""}},{"type":"Feature","geometry":{"type":"Point","coordinates":[116.936531,38.92955]},"properties":{"province":"天津市","city":"天津市","county":"静海区","community":"朝阳街道上上佳园13/14/16/19号楼、静海镇新湖公寓6/11/14号楼","full_address":"天津市天津市静海区朝阳街道上上佳园13/14/16/19号楼、静海镇新湖公寓6/11/14号楼","info":""}},{"type":"Feature","geometry":{"type":"Point","coordinates":[114.506927,38.044914]},"properties":{"province":"河北省","city":"石家庄市","county":"长安区","community":"中山东路街道勒泰A座","full_address":"河北省石家庄市长安区中山东路街道勒泰A座","info":""}},{"type":"Feature","geometry":{"type":"Point","coordinates":[117.981148,40.197281]},"properties":{"province":"河北省","city":"唐山市","county":"遵化市","community":"华远世纪小区其他区域","full_address":"河北省唐山市遵化市华远世纪小区其他区域","info":""}},{"type":"Feature","geometry":{"type":"Point","coordinates":[119.639023,39.942207]},"properties":{"province":"河北省","city":"秦皇岛市","county":"海港区","community":"大秦铁路秦东运用车间","full_address":"河北省秦皇岛市海港区大秦铁路秦东运用车间","info":""}},{"type":"Feature","geometry":{"type":"Point","coordinates":[119.50914,39.987831]},"properties":{"province":"河北省","city":"秦皇岛市","county":"海港区","community":"秦东公寓","full_address":"河北省秦皇岛市海港区秦东公寓","info":""}},{"type":"Feature","geometry":{"type":"Point","coordinates":[119.440254,39.928516]},"properties":{"province":"河北省","city":"秦皇岛市","county":"开发区","community":"西区深河家园（东区）","full_address":"河北省秦皇岛市开发区西区深河家园（东区）","info":""}},{"type":"Feature","geometry":{"type":"Point","coordinates":[115.3022,36.547863]},"properties":{"province":"河北省","city":"邯郸市","county":"馆陶县","community":"金龙建材市场","full_address":"河北省邯郸市馆陶县金龙建材市场","info":""}},{"type":"Feature","geometry":{"type":"Point","coordinates":[115.24482,36.608509]},"properties":{"province":"河北省","city":"邯郸市","county":"馆陶县","community":"寿山寺乡西董固村","full_address":"河北省邯郸市馆陶县寿山寺乡西董固村","info":""}},{"type":"Feature","geometry":{"type":"Point","coordinates":[115.2944,36.53936]},"properties":{"province":"河北省","city":"邯郸市","county":"馆陶县","community":"文卫街以南、政府街以北、政问胡同以东、魏征路以西区域","full_address":"河北省邯郸市馆陶县文卫街以南、政府街以北、政问胡同以东、魏征路以西区域","info":""}},{"type":"Feature","geometry":{"type":"Point","coordinates":[115.346024,38.380753]},"properties":{"province":"河北省","city":"保定市","county":"安国市","community":"祁州路街道南仕庄村","full_address":"河北省保定市安国市祁州路街道南仕庄村","info":""}},{"type":"Feature","geometry":{"type":"Point","coordinates":[115.287773,38.378021]},"properties":{"province":"河北省","city":"保定市","county":"安国市","community":"祁州路街道伏村","full_address":"河北省保定市安国市祁州路街道伏村","info":""}},{"type":"Feature","geometry":{"type":"Point","coordinates":[115.315071,38.377422]},"properties":{"province":"河北省","city":"保定市","county":"安国市","community":"祁州路街道东长仕村","full_address":"河北省保定市安国市祁州路街道东长仕村","info":""}},{"type":"Feature","geometry":{"type":"Point","coordinates":[115.330917,38.423634]},"properties":{"province":"河北省","city":"保定市","county":"安国市","community":"药都街道办事处东方药城社区","full_address":"河北省保定市安国市药都街道办事处东方药城社区","info":""}},{"type":"Feature","geometry":{"type":"Point","coordinates":[115.33709,38.432652]},"properties":{"province":"河北省","city":"保定市","county":"安国市","community":"药都街道办事处八五村","full_address":"河北省保定市安国市药都街道办事处八五村","info":""}},{"type":"Feature","geometry":{"type":"Point","coordinates":[115.368423,38.428532]},"properties":{"province":"河北省","city":"保定市","county":"安国市","community":"药都街道办事处大文村","full_address":"河北省保定市安国市药都街道办事处大文村","info":""}},{"type":"Feature","geometry":{"type":"Point","coordinates":[115.318291,38.427032]},"properties":{"province":"河北省","city":"保定市","county":"安国市","community":"药都街道办事处观音堂村","full_address":"河北省保定市安国市药都街道办事处观音堂村","info":""}},{"type":"Feature","geometry":{"type":"Point","coordinates":[115.34717,38.42592]},"properties":{"province":"河北省","city":"保定市","county":"安国市","community":"药都街道办事处升级工程胜利中街18号院","full_address":"河北省保定市安国市药都街道办事处升级工程胜利中街18号院","info":""}},{"type":"Feature","geometry":{"type":"Point","coordinates":[115.332169,38.422913]},"properties":{"province":"河北省","city":"保定市","county":"安国市","community":"药都街道办事处京海花园","full_address":"河北省保定市安国市药都街道办事处京海花园","info":""}},{"type":"Feature","geometry":{"type":"Point","coordinates":[115.337395,38.430862]},"properties":{"province":"河北省","city":"保定市","county":"安国市","community":"药都街道办事处纪念馆北路王磊超市附近区域","full_address":"河北省保定市安国市药都街道办事处纪念馆北路王磊超市附近区域","info":""}},{"type":"Feature","geometry":{"type":"Point","coordinates":[115.324982,38.40382]},"properties":{"province":"河北省","city":"保定市","county":"安国市","community":"祁州路街道办事处丽景佳苑","full_address":"河北省保定市安国市祁州路街道办事处丽景佳苑","info":""}},{"type":"Feature","geometry":{"type":"Point","coordinates":[115.279289,38.448582]},"properties":{"province":"河北省","city":"保定市","county":"安国市","community":"北段村乡瓦子里村","full_address":"河北省保定市安国市北段村乡瓦子里村","info":""}},{"type":"Feature","geometry":{"type":"Point","coordinates":[115.294701,38.470554]},"properties":{"province":"河北省","city":"保定市","county":"安国市","community":"北段村乡卫生院","full_address":"河北省保定市安国市北段村乡卫生院","info":""}},{"type":"Feature","geometry":{"type":"Point","coordinates":[115.98835,39.244522]},"properties":{"province":"河北省","city":"保定市","county":"高碑店市","community":"新城镇除高风险区域外的其他区域","full_address":"河北省保定市高碑店市新城镇除高风险区域外的其他区域","info":""}},{"type":"Feature","geometry":{"type":"Point","coordinates":[115.904366,39.323032]},"properties":{"province":"河北省","city":"保定市","county":"高碑店市","community":"家兴开发区店","full_address":"河北省保定市高碑店市家兴开发区店","info":""}},{"type":"Feature","geometry":{"type":"Point","coordinates":[115.87373,39.32658]},"properties":{"province":"河北省","city":"保定市","county":"高碑店市","community":"世纪广场步行街","full_address":"河北省保定市高碑店市世纪广场步行街","info":""}},{"type":"Feature","geometry":{"type":"Point","coordinates":[116.057793,39.138935]},"properties":{"province":"河北省","city":"保定市","county":"白沟新城","community":"万象国际小区","full_address":"河北省保定市白沟新城万象国际小区","info":""}},{"type":"Feature","geometry":{"type":"Point","coordinates":[116.038589,39.144501]},"properties":{"province":"河北省","city":"保定市","county":"白沟新城","community":"富力城小区","full_address":"河北省保定市白沟新城富力城小区","info":""}},{"type":"Feature","geometry":{"type":"Point","coordinates":[114.881646,40.818232]},"properties":{"province":"河北省","city":"张家口市","county":"桥西区","community":"堡子里武城街步行街","full_address":"河北省张家口市桥西区堡子里武城街步行街","info":""}},{"type":"Feature","geometry":{"type":"Point","coordinates":[114.863007,40.830471]},"properties":{"province":"河北省","city":"张家口市","county":"桥西区","community":"天河桐盛小区","full_address":"河北省张家口市桥西区天河桐盛小区","info":""}},{"type":"Feature","geometry":{"type":"Point","coordinates":[115.064397,40.604536]},"properties":{"province":"河北省","city":"张家口市","county":"宣化区","community":"万字会南路3号院","full_address":"河北省张家口市宣化区万字会南路3号院","info":""}},{"type":"Feature","geometry":{"type":"Point","coordinates":[115.064389,40.606121]},"properties":{"province":"河北省","city":"张家口市","county":"宣化区","community":"万字会南路","full_address":"河北省张家口市宣化区万字会南路","info":""}},{"type":"Feature","geometry":{"type":"Point","coordinates":[115.067296,40.61291]},"properties":{"province":"河北省","city":"张家口市","county":"宣化区","community":"天泰寺街道（牌楼西街社区、大东街社区、西城社区、按院街社区）区域","full_address":"河北省张家口市宣化区天泰寺街道（牌楼西街社区、大东街社区、西城社区、按院街社区）区域","info":""}},{"type":"Feature","geometry":{"type":"Point","coordinates":[115.348579,40.714184]},"properties":{"province":"河北省","city":"张家口市","county":"宣化区","community":"赵川镇黄土坡村","full_address":"河北省张家口市宣化区赵川镇黄土坡村","info":""}},{"type":"Feature","geometry":{"type":"Point","coordinates":[114.814331,40.755821]},"properties":{"province":"河北省","city":"张家口市","county":"万全区","community":"110国道南旧窑子村西宏达保温防水至张家口市六洋化加油站整排路边店","full_address":"河北省张家口市万全区110国道南旧窑子村西宏达保温防水至张家口市六洋化加油站整排路边店","info":""}},{"type":"Feature","geometry":{"type":"Point","coordinates":[114.696671,40.739761]},"properties":{"province":"河北省","city":"张家口市","county":"万全区","community":"110国道南小屯堡村西星星电喷然气至大胖修理店整排路边店","full_address":"河北省张家口市万全区110国道南小屯堡村西星星电喷然气至大胖修理店整排路边店","info":""}},{"type":"Feature","geometry":{"type":"Point","coordinates":[114.74055,40.76699]},"properties":{"province":"河北省","city":"张家口市","county":"万全区","community":"西豪丽景区域","full_address":"河北省张家口市万全区西豪丽景区域","info":""}},{"type":"Feature","geometry":{"type":"Point","coordinates":[114.818977,40.792984]},"properties":{"province":"河北省","city":"张家口市","county":"万全区","community":"宣平堡乡除水泉堡村以外区域","full_address":"河北省张家口市万全区宣平堡乡除水泉堡村以外区域","info":""}},{"type":"Feature","geometry":{"type":"Point","coordinates":[114.760101,40.667332]},"properties":{"province":"河北省","city":"张家口市","county":"怀安县","community":"左卫镇叶家房村","full_address":"河北省张家口市怀安县左卫镇叶家房村","info":""}},{"type":"Feature","geometry":{"type":"Point","coordinates":[114.804512,40.757725]},"properties":{"province":"河北省","city":"张家口市","county":"涿鹿县","community":"乐寿源食品张家口技术开发有限公司","full_address":"河北省张家口市涿鹿县乐寿源食品张家口技术开发有限公司","info":""}},{"type":"Feature","geometry":{"type":"Point","coordinates":[115.215363,40.383827]},"properties":{"province":"河北省","city":"张家口市","county":"涿鹿县","community":"优选宾馆及周边人民北街（轩辕中路以北、隆都路以南）","full_address":"河北省张家口市涿鹿县优选宾馆及周边人民北街（轩辕中路以北、隆都路以南）","info":""}},{"type":"Feature","geometry":{"type":"Point","coordinates":[115.210197,40.389721]},"properties":{"province":"河北省","city":"张家口市","county":"涿鹿县","community":"苑府路（合符大街以东、人民北街以西）","full_address":"河北省张家口市涿鹿县苑府路（合符大街以东、人民北街以西）","info":""}},{"type":"Feature","geometry":{"type":"Point","coordinates":[115.575554,40.78812]},"properties":{"province":"河北省","city":"张家口市","county":"赤城县","community":"龙关镇福宴楼饭店","full_address":"河北省张家口市赤城县龙关镇福宴楼饭店","info":""}},{"type":"Feature","geometry":{"type":"Point","coordinates":[115.578598,40.785831]},"properties":{"province":"河北省","city":"张家口市","county":"赤城县","community":"龙关镇益盛缘食府","full_address":"河北省张家口市赤城县龙关镇益盛缘食府","info":""}},{"type":"Feature","geometry":{"type":"Point","coordinates":[115.578598,40.785831]},"properties":{"province":"河北省","city":"张家口市","county":"赤城县","community":"龙关镇商业街","full_address":"河北省张家口市赤城县龙关镇商业街","info":""}},{"type":"Feature","geometry":{"type":"Point","coordinates":[115.83166,40.91295]},"properties":{"province":"河北省","city":"张家口市","county":"赤城县","community":"北大村区域","full_address":"河北省张家口市赤城县北大村区域","info":""}},{"type":"Feature","geometry":{"type":"Point","coordinates":[115.845657,40.908241]},"properties":{"province":"河北省","city":"张家口市","county":"赤城县","community":"赤城镇建国东街德医堂大药房","full_address":"河北省张家口市赤城县赤城镇建国东街德医堂大药房","info":""}},{"type":"Feature","geometry":{"type":"Point","coordinates":[115.839622,40.903042]},"properties":{"province":"河北省","city":"张家口市","county":"赤城县","community":"赤城镇霞丰水岸小区旁施工工地","full_address":"河北省张家口市赤城县赤城镇霞丰水岸小区旁施工工地","info":""}},{"type":"Feature","geometry":{"type":"Point","coordinates":[115.85907,40.880802]},"properties":{"province":"河北省","city":"张家口市","county":"赤城县","community":"赤城县人民医院","full_address":"河北省张家口市赤城县赤城县人民医院","info":""}},{"type":"Feature","geometry":{"type":"Point","coordinates":[114.929788,40.690771]},"properties":{"province":"河北省","city":"张家口市","county":"经开区","community":"沙岭子镇屈家庄村","full_address":"河北省张家口市经开区沙岭子镇屈家庄村","info":""}},{"type":"Feature","geometry":{"type":"Point","coordinates":[114.877609,40.716892]},"properties":{"province":"河北省","city":"张家口市","county":"经开区","community":"姚家房镇福鑫家园小区","full_address":"河北省张家口市经开区姚家房镇福鑫家园小区","info":""}},{"type":"Feature","geometry":{"type":"Point","coordinates":[114.870552,40.698189]},"properties":{"province":"河北省","city":"张家口市","county":"经开区","community":"姚家房镇二台子村","full_address":"河北省张家口市经开区姚家房镇二台子村","info":""}},{"type":"Feature","geometry":{"type":"Point","coordinates":[114.878632,40.717171]},"properties":{"province":"河北省","city":"张家口市","county":"经开区","community":"姚家房村北八街第六条","full_address":"河北省张家口市经开区姚家房村北八街第六条","info":""}},{"type":"Feature","geometry":{"type":"Point","coordinates":[114.878632,40.717171]},"properties":{"province":"河北省","city":"张家口市","county":"经开区","community":"姚家房村北八街第十六条","full_address":"河北省张家口市经开区姚家房村北八街第十六条","info":""}},{"type":"Feature","geometry":{"type":"Point","coordinates":[114.875549,40.714691]},"properties":{"province":"河北省","city":"张家口市","county":"经开区","community":"姚家房村福星家园小区","full_address":"河北省张家口市经开区姚家房村福星家园小区","info":""}},{"type":"Feature","geometry":{"type":"Point","coordinates":[114.878532,40.770851]},"properties":{"province":"河北省","city":"张家口市","county":"经开区","community":"超市发（北方学院店）","full_address":"河北省张家口市经开区超市发（北方学院店）","info":""}},{"type":"Feature","geometry":{"type":"Point","coordinates":[114.869987,40.762402]},"properties":{"province":"河北省","city":"张家口市","county":"经开区","community":"超市发（丰泰亲河苑店）","full_address":"河北省张家口市经开区超市发（丰泰亲河苑店）","info":""}},{"type":"Feature","geometry":{"type":"Point","coordinates":[114.869987,40.762402]},"properties":{"province":"河北省","city":"张家口市","county":"经开区","community":"丰泰亲河苑小区底商华佗药房","full_address":"河北省张家口市经开区丰泰亲河苑小区底商华佗药房","info":""}},{"type":"Feature","geometry":{"type":"Point","coordinates":[117.94348,40.97469]},"properties":{"province":"河北省","city":"承德市","county":"双桥区","community":"合一瑜伽馆","full_address":"河北省承德市双桥区合一瑜伽馆","info":""}},{"type":"Feature","geometry":{"type":"Point","coordinates":[117.93885,40.971012]},"properties":{"province":"河北省","city":"承德市","county":"双桥区","community":"张妈土豆粉店","full_address":"河北省承德市双桥区张妈土豆粉店","info":""}},{"type":"Feature","geometry":{"type":"Point","coordinates":[117.94846,40.90514]},"properties":{"province":"河北省","city":"承德市","county":"高新区","community":"御龙瀚府小区1号楼、2号楼、3号楼、5号楼、6号楼、7号楼、9号楼、11号楼、12号楼、13号楼、14号楼、16号楼、17号楼、18号楼","full_address":"河北省承德市高新区御龙瀚府小区1号楼、2号楼、3号楼、5号楼、6号楼、7号楼、9号楼、11号楼、12号楼、13号楼、14号楼、16号楼、17号楼、18号楼","info":""}},{"type":"Feature","geometry":{"type":"Point","coordinates":[115.9627,38.73135]},"properties":{"province":"河北省","city":"沧州市","county":"任丘市","community":"出岸镇百尺村","full_address":"河北省沧州市任丘市出岸镇百尺村","info":""}},{"type":"Feature","geometry":{"type":"Point","coordinates":[115.928185,38.936321]},"properties":{"province":"河北省","city":"安新县","county":"安新县","community":"安新镇的其他村","full_address":"河北省安新县安新县安新镇的其他村","info":""}},{"type":"Feature","geometry":{"type":"Point","coordinates":[115.951599,38.803642]},"properties":{"province":"河北省","city":"安新县","county":"安新县","community":"刘李庄镇的其他村","full_address":"河北省安新县安新县刘李庄镇的其他村","info":""}},{"type":"Feature","geometry":{"type":"Point","coordinates":[115.928185,38.936321]},"properties":{"province":"河北省","city":"安新县","county":"安新县","community":"安新镇的小西街片区内的居民小区","full_address":"河北省安新县安新县安新镇的小西街片区内的居民小区","info":""}},{"type":"Feature","geometry":{"type":"Point","coordinates":[112.78743,38.070553]},"properties":{"province":"山西省","city":"太原市","county":"阳曲县","community":"东黄水镇（大汉村、水泉沟村、西殿村、东黄水村除外）","full_address":"山西省太原市阳曲县东黄水镇（大汉村、水泉沟村、西殿村、东黄水村除外）","info":""}},{"type":"Feature","geometry":{"type":"Point","coordinates":[112.704308,38.064392]},"properties":{"province":"山西省","city":"太原市","county":"阳曲县","community":"黄寨镇大屯庄村","full_address":"山西省太原市阳曲县黄寨镇大屯庄村","info":""}},{"type":"Feature","geometry":{"type":"Point","coordinates":[112.720955,38.073914]},"properties":{"province":"山西省","city":"太原市","county":"阳曲县","community":"小屯庄村","full_address":"山西省太原市阳曲县小屯庄村","info":""}},{"type":"Feature","geometry":{"type":"Point","coordinates":[113.272118,40.056328]},"properties":{"province":"山西省","city":"大同市","county":"平城区","community":"圣雅大厦及附近小饭店","full_address":"山西省大同市平城区圣雅大厦及附近小饭店","info":""}},{"type":"Feature","geometry":{"type":"Point","coordinates":[113.219444,39.996403]},"properties":{"province":"山西省","city":"大同市","county":"平城区","community":"碧水云天御河湾小区","full_address":"山西省大同市平城区碧水云天御河湾小区","info":""}},{"type":"Feature","geometry":{"type":"Point","coordinates":[113.260521,40.100082]},"properties":{"province":"山西省","city":"大同市","county":"平城区","community":"五洲帝景青年城C区","full_address":"山西省大同市平城区五洲帝景青年城C区","info":""}},{"type":"Feature","geometry":{"type":"Point","coordinates":[113.304222,40.109219]},"properties":{"province":"山西省","city":"大同市","county":"平城区","community":"凤凰翰林别院小区","full_address":"山西省大同市平城区凤凰翰林别院小区","info":""}},{"type":"Feature","geometry":{"type":"Point","coordinates":[113.269493,40.068062]},"properties":{"province":"山西省","city":"大同市","county":"平城区","community":"桐城怡景西苑小区","full_address":"山西省大同市平城区桐城怡景西苑小区","info":""}},{"type":"Feature","geometry":{"type":"Point","coordinates":[113.353554,40.062782]},"properties":{"province":"山西省","city":"大同市","county":"平城区","community":"星港城小区","full_address":"山西省大同市平城区星港城小区","info":""}},{"type":"Feature","geometry":{"type":"Point","coordinates":[113.344368,40.065235]},"properties":{"province":"山西省","city":"大同市","county":"平城区","community":"万汇金城小区","full_address":"山西省大同市平城区万汇金城小区","info":""}},{"type":"Feature","geometry":{"type":"Point","coordinates":[113.298798,40.116329]},"properties":{"province":"山西省","city":"大同市","county":"平城区","community":"红卫里小区","full_address":"山西省大同市平城区红卫里小区","info":""}},{"type":"Feature","geometry":{"type":"Point","coordinates":[113.307587,40.108059]},"properties":{"province":"山西省","city":"大同市","county":"平城区","community":"美好家园小区","full_address":"山西省大同市平城区美好家园小区","info":""}},{"type":"Feature","geometry":{"type":"Point","coordinates":[113.347122,40.059032]},"properties":{"province":"山西省","city":"大同市","county":"平城区","community":"御龙庭二期小区","full_address":"山西省大同市平城区御龙庭二期小区","info":""}},{"type":"Feature","geometry":{"type":"Point","coordinates":[113.261681,40.087589]},"properties":{"province":"山西省","city":"大同市","county":"平城区","community":"大秦佳苑小区","full_address":"山西省大同市平城区大秦佳苑小区","info":""}},{"type":"Feature","geometry":{"type":"Point","coordinates":[113.286552,40.064728]},"properties":{"province":"山西省","city":"大同市","county":"平城区","community":"德盛嘉园小区","full_address":"山西省大同市平城区德盛嘉园小区","info":""}},{"type":"Feature","geometry":{"type":"Point","coordinates":[113.279099,40.0732]},"properties":{"province":"山西省","city":"大同市","county":"平城区","community":"北馨理想城小区","full_address":"山西省大同市平城区北馨理想城小区","info":""}},{"type":"Feature","geometry":{"type":"Point","coordinates":[113.317032,40.11536]},"properties":{"province":"山西省","city":"大同市","county":"平城区","community":"观澜华府小区（南区和北区）","full_address":"山西省大同市平城区观澜华府小区（南区和北区）","info":""}},{"type":"Feature","geometry":{"type":"Point","coordinates":[113.320862,40.059673]},"properties":{"province":"山西省","city":"大同市","county":"平城区","community":"御河九号小区","full_address":"山西省大同市平城区御河九号小区","info":""}},{"type":"Feature","geometry":{"type":"Point","coordinates":[113.315514,40.158131]},"properties":{"province":"山西省","city":"大同市","county":"平城区","community":"御河十号小区","full_address":"山西省大同市平城区御河十号小区","info":""}},{"type":"Feature","geometry":{"type":"Point","coordinates":[113.354088,40.065582]},"properties":{"province":"山西省","city":"大同市","county":"平城区","community":"文慧东苑小区","full_address":"山西省大同市平城区文慧东苑小区","info":""}},{"type":"Feature","geometry":{"type":"Point","coordinates":[113.167084,40.02523]},"properties":{"province":"山西省","city":"大同市","county":"云冈区","community":"瑞旺园小区","full_address":"山西省大同市云冈区瑞旺园小区","info":""}},{"type":"Feature","geometry":{"type":"Point","coordinates":[113.191818,39.563572]},"properties":{"province":"山西省","city":"朔州市","county":"应县","community":"新建东路以北，左沙路以南，北街、南街以东，瑞东北路以西","full_address":"山西省朔州市应县新建东路以北，左沙路以南，北街、南街以东，瑞东北路以西","info":""}},{"type":"Feature","geometry":{"type":"Point","coordinates":[113.117882,39.80479]},"properties":{"province":"山西省","city":"朔州市","county":"怀仁市","community":"云东街道办事处除高风险区外的其他区域","full_address":"山西省朔州市怀仁市云东街道办事处除高风险区外的其他区域","info":""}},{"type":"Feature","geometry":{"type":"Point","coordinates":[113.111626,39.803532]},"properties":{"province":"山西省","city":"朔州市","county":"怀仁市","community":"云中街道办事处除高风险区外的其他区域","full_address":"山西省朔州市怀仁市云中街道办事处除高风险区外的其他区域","info":""}},{"type":"Feature","geometry":{"type":"Point","coordinates":[113.111626,39.803532]},"properties":{"province":"山西省","city":"朔州市","county":"怀仁市","community":"云西街道办事处除高风险区外的其他区域","full_address":"山西省朔州市怀仁市云西街道办事处除高风险区外的其他区域","info":""}},{"type":"Feature","geometry":{"type":"Point","coordinates":[112.709244,37.70689]},"properties":{"province":"山西省","city":"晋中市","county":"榆次区","community":"榆次区使赵村","full_address":"山西省晋中市榆次区榆次区使赵村","info":""}},{"type":"Feature","geometry":{"type":"Point","coordinates":[111.021751,35.024082]},"properties":{"province":"山西省","city":"运城市","county":"盐湖区","community":"东城办文香苑小区(槐东路)3号楼2单元和红利庄18巷","full_address":"山西省运城市盐湖区东城办文香苑小区(槐东路)3号楼2单元和红利庄18巷","info":""}},{"type":"Feature","geometry":{"type":"Point","coordinates":[111.004189,35.09161]},"properties":{"province":"山西省","city":"运城市","county":"盐湖区","community":"姚孟办壕头村中巷","full_address":"山西省运城市盐湖区姚孟办壕头村中巷","info":""}},{"type":"Feature","geometry":{"type":"Point","coordinates":[110.972214,35.044189]},"properties":{"province":"山西省","city":"运城市","county":"盐湖区","community":"北城办事处东留村锦绣公寓","full_address":"山西省运城市盐湖区北城办事处东留村锦绣公寓","info":""}},{"type":"Feature","geometry":{"type":"Point","coordinates":[111.001541,35.116341]},"properties":{"province":"山西省","city":"运城市","county":"盐湖区","community":"北相镇古上村后巷","full_address":"山西省运城市盐湖区北相镇古上村后巷","info":""}},{"type":"Feature","geometry":{"type":"Point","coordinates":[111.015022,35.029953]},"properties":{"province":"山西省","city":"运城市","county":"盐湖区","community":"东城办中银1巷11栋楼4单元","full_address":"山西省运城市盐湖区东城办中银1巷11栋楼4单元","info":""}},{"type":"Feature","geometry":{"type":"Point","coordinates":[110.970589,35.078873]},"properties":{"province":"山西省","city":"运城市","county":"盐湖区","community":"姚孟办姚孟村","full_address":"山西省运城市盐湖区姚孟办姚孟村","info":""}},{"type":"Feature","geometry":{"type":"Point","coordinates":[111.01902,35.033257]},"properties":{"province":"山西省","city":"运城市","county":"盐湖区","community":"东城办槐东路逸夫小学家属院五排除外其余区域","full_address":"山西省运城市盐湖区东城办槐东路逸夫小学家属院五排除外其余区域","info":""}},{"type":"Feature","geometry":{"type":"Point","coordinates":[110.9773,35.02016]},"properties":{"province":"山西省","city":"运城市","county":"盐湖区","community":"西城办北方鹅业家属院","full_address":"山西省运城市盐湖区西城办北方鹅业家属院","info":""}},{"type":"Feature","geometry":{"type":"Point","coordinates":[111.005821,34.940125]},"properties":{"province":"山西省","city":"运城市","county":"盐湖区","community":"南城办马家窑社区银康4巷","full_address":"山西省运城市盐湖区南城办马家窑社区银康4巷","info":""}},{"type":"Feature","geometry":{"type":"Point","coordinates":[110.997444,35.010361]},"properties":{"province":"山西省","city":"运城市","county":"盐湖区","community":"南城办泰山巷除西五巷外的其余区域","full_address":"山西省运城市盐湖区南城办泰山巷除西五巷外的其余区域","info":""}},{"type":"Feature","geometry":{"type":"Point","coordinates":[110.975143,35.02396]},"properties":{"province":"山西省","city":"运城市","county":"盐湖区","community":"北城办圣惠绿城1号楼4单元除外其余区域","full_address":"山西省运城市盐湖区北城办圣惠绿城1号楼4单元除外其余区域","info":""}},{"type":"Feature","geometry":{"type":"Point","coordinates":[110.9828,35.05314]},"properties":{"province":"山西省","city":"运城市","county":"盐湖区","community":"北城办富康小区北六巷幸福公寓除外其余区域","full_address":"山西省运城市盐湖区北城办富康小区北六巷幸福公寓除外其余区域","info":""}},{"type":"Feature","geometry":{"type":"Point","coordinates":[111.041664,35.105122]},"properties":{"province":"山西省","city":"运城市","county":"盐湖区","community":"北城办状元府6号楼","full_address":"山西省运城市盐湖区北城办状元府6号楼","info":""}},{"type":"Feature","geometry":{"type":"Point","coordinates":[110.972214,35.044189]},"properties":{"province":"山西省","city":"运城市","county":"盐湖区","community":"北城办东留村-清雅贤居","full_address":"山西省运城市盐湖区北城办东留村-清雅贤居","info":""}},{"type":"Feature","geometry":{"type":"Point","coordinates":[111.000198,35.05582]},"properties":{"province":"山西省","city":"运城市","county":"盐湖区","community":"北城办幸福里·铂郡（南区）9号楼3单元","full_address":"山西省运城市盐湖区北城办幸福里·铂郡（南区）9号楼3单元","info":""}},{"type":"Feature","geometry":{"type":"Point","coordinates":[110.9898,35.05265]},"properties":{"province":"山西省","city":"运城市","county":"盐湖区","community":"北城办怡景华庭(条山街)小区5号、8号、27号楼","full_address":"山西省运城市盐湖区北城办怡景华庭(条山街)小区5号、8号、27号楼","info":""}},{"type":"Feature","geometry":{"type":"Point","coordinates":[110.99218,35.036388]},"properties":{"province":"山西省","city":"运城市","county":"盐湖区","community":"北城办供销家苑6号楼1单元","full_address":"山西省运城市盐湖区北城办供销家苑6号楼1单元","info":""}},{"type":"Feature","geometry":{"type":"Point","coordinates":[110.999939,35.043007]},"properties":{"province":"山西省","city":"运城市","county":"盐湖区","community":"北城办星河新天地5号楼1单元","full_address":"山西省运城市盐湖区北城办星河新天地5号楼1单元","info":""}},{"type":"Feature","geometry":{"type":"Point","coordinates":[111.003891,35.04549]},"properties":{"province":"山西省","city":"运城市","county":"盐湖区","community":"北城办原王庄村富源路冯府公寓","full_address":"山西省运城市盐湖区北城办原王庄村富源路冯府公寓","info":""}},{"type":"Feature","geometry":{"type":"Point","coordinates":[110.99817,35.01505]},"properties":{"province":"山西省","city":"运城市","county":"盐湖区","community":"中城办特运公司南楼一单元","full_address":"山西省运城市盐湖区中城办特运公司南楼一单元","info":""}},{"type":"Feature","geometry":{"type":"Point","coordinates":[111.045288,35.108028]},"properties":{"province":"山西省","city":"运城市","county":"盐湖区","community":"姚孟办金悦华府小区（西区）","full_address":"山西省运城市盐湖区姚孟办金悦华府小区（西区）","info":""}},{"type":"Feature","geometry":{"type":"Point","coordinates":[110.967911,35.07893]},"properties":{"province":"山西省","city":"运城市","county":"盐湖区","community":"姚孟办吉祥苑小区","full_address":"山西省运城市盐湖区姚孟办吉祥苑小区","info":""}},{"type":"Feature","geometry":{"type":"Point","coordinates":[111.037102,35.031643]},"properties":{"province":"山西省","city":"运城市","county":"盐湖区","community":"安邑办天泰·金水湾除（8号1单元、4号楼2单元）以外的其他区域","full_address":"山西省运城市盐湖区安邑办天泰·金水湾除（8号1单元、4号楼2单元）以外的其他区域","info":""}},{"type":"Feature","geometry":{"type":"Point","coordinates":[111.03878,35.06509]},"properties":{"province":"山西省","city":"运城市","county":"盐湖区","community":"安邑办国澳电梯毅身减肥基地宿舍楼除外其余区域","full_address":"山西省运城市盐湖区安邑办国澳电梯毅身减肥基地宿舍楼除外其余区域","info":""}},{"type":"Feature","geometry":{"type":"Point","coordinates":[111.0307,35.07981]},"properties":{"province":"山西省","city":"运城市","county":"盐湖区","community":"安邑办大市北村三组东二巷除外其余区域","full_address":"山西省运城市盐湖区安邑办大市北村三组东二巷除外其余区域","info":""}},{"type":"Feature","geometry":{"type":"Point","coordinates":[111.03878,35.06509]},"properties":{"province":"山西省","city":"运城市","county":"盐湖区","community":"安邑办下王村一组和三组（西后巷）除外其余区域","full_address":"山西省运城市盐湖区安邑办下王村一组和三组（西后巷）除外其余区域","info":""}},{"type":"Feature","geometry":{"type":"Point","coordinates":[111.029823,35.091228]},"properties":{"province":"山西省","city":"运城市","county":"盐湖区","community":"安邑办东站嘉园10号楼","full_address":"山西省运城市盐湖区安邑办东站嘉园10号楼","info":""}},{"type":"Feature","geometry":{"type":"Point","coordinates":[111.076988,35.095112]},"properties":{"province":"山西省","city":"运城市","county":"盐湖区","community":"安邑办梅林新村小区1号楼","full_address":"山西省运城市盐湖区安邑办梅林新村小区1号楼","info":""}},{"type":"Feature","geometry":{"type":"Point","coordinates":[111.04111,35.10541]},"properties":{"province":"山西省","city":"运城市","county":"盐湖区","community":"安邑办颐贤园3号楼","full_address":"山西省运城市盐湖区安邑办颐贤园3号楼","info":""}},{"type":"Feature","geometry":{"type":"Point","coordinates":[110.970642,35.015263]},"properties":{"province":"山西省","city":"运城市","county":"盐湖区","community":"大渠办富源新城北区10号楼","full_address":"山西省运城市盐湖区大渠办富源新城北区10号楼","info":""}},{"type":"Feature","geometry":{"type":"Point","coordinates":[110.959641,35.098351]},"properties":{"province":"山西省","city":"运城市","county":"盐湖区","community":"北相镇国韵天域小区独楼5单元","full_address":"山西省运城市盐湖区北相镇国韵天域小区独楼5单元","info":""}},{"type":"Feature","geometry":{"type":"Point","coordinates":[111.062508,35.105751]},"properties":{"province":"山西省","city":"运城市","county":"盐湖区","community":"陶村镇万象华城3号楼","full_address":"山西省运城市盐湖区陶村镇万象华城3号楼","info":""}},{"type":"Feature","geometry":{"type":"Point","coordinates":[111.506409,36.095379]},"properties":{"province":"山西省","city":"临汾市","county":"尧都区","community":"临汾经济开发区滨河办事处后楼底社区玉秀湾小区西区5号楼、8号楼","full_address":"山西省临汾市尧都区临汾经济开发区滨河办事处后楼底社区玉秀湾小区西区5号楼、8号楼","info":""}},{"type":"Feature","geometry":{"type":"Point","coordinates":[111.458702,36.125141]},"properties":{"province":"山西省","city":"临汾市","county":"尧都区","community":"尧都区刘村镇刘北村","full_address":"山西省临汾市尧都区尧都区刘村镇刘北村","info":""}},{"type":"Feature","geometry":{"type":"Point","coordinates":[111.533104,36.11898]},"properties":{"province":"山西省","city":"临汾市","county":"尧都区","community":"屯里镇润泽园社区润泽园小区","full_address":"山西省临汾市尧都区屯里镇润泽园社区润泽园小区","info":""}},{"type":"Feature","geometry":{"type":"Point","coordinates":[111.671725,40.86325]},"properties":{"province":"内蒙古自治区","city":"呼和浩特市","county":"新城区","community":"交通家园小区","full_address":"内蒙古自治区呼和浩特市新城区交通家园小区","info":""}},{"type":"Feature","geometry":{"type":"Point","coordinates":[111.70113,40.844453]},"properties":{"province":"内蒙古自治区","city":"呼和浩特市","county":"新城区","community":"丽苑阳光城小区","full_address":"内蒙古自治区呼和浩特市新城区丽苑阳光城小区","info":""}},{"type":"Feature","geometry":{"type":"Point","coordinates":[111.67246,40.816052]},"properties":{"province":"内蒙古自治区","city":"呼和浩特市","county":"新城区","community":"团结巷人事厅宿舍","full_address":"内蒙古自治区呼和浩特市新城区团结巷人事厅宿舍","info":""}},{"type":"Feature","geometry":{"type":"Point","coordinates":[111.72431,40.834795]},"properties":{"province":"内蒙古自治区","city":"呼和浩特市","county":"新城区","community":"鸿盛工业园区威尔浪工厂店及院内公寓","full_address":"内蒙古自治区呼和浩特市新城区鸿盛工业园区威尔浪工厂店及院内公寓","info":""}},{"type":"Feature","geometry":{"type":"Point","coordinates":[111.661205,40.844571]},"properties":{"province":"内蒙古自治区","city":"呼和浩特市","county":"新城区","community":"供电局住宅楼","full_address":"内蒙古自治区呼和浩特市新城区供电局住宅楼","info":""}},{"type":"Feature","geometry":{"type":"Point","coordinates":[111.684514,40.869396]},"properties":{"province":"内蒙古自治区","city":"呼和浩特市","county":"新城区","community":"通和小区","full_address":"内蒙古自治区呼和浩特市新城区通和小区","info":""}},{"type":"Feature","geometry":{"type":"Point","coordinates":[111.749345,40.861456]},"properties":{"province":"内蒙古自治区","city":"呼和浩特市","county":"新城区","community":"衡达丁香河畔","full_address":"内蒙古自治区呼和浩特市新城区衡达丁香河畔","info":""}},{"type":"Feature","geometry":{"type":"Point","coordinates":[111.70731,40.836566]},"properties":{"province":"内蒙古自治区","city":"呼和浩特市","county":"新城区","community":"呼哈路水泥厂宿舍","full_address":"内蒙古自治区呼和浩特市新城区呼哈路水泥厂宿舍","info":""}},{"type":"Feature","geometry":{"type":"Point","coordinates":[111.706256,40.899953]},"properties":{"province":"内蒙古自治区","city":"呼和浩特市","county":"新城区","community":"水泥厂鹰翔小区","full_address":"内蒙古自治区呼和浩特市新城区水泥厂鹰翔小区","info":""}},{"type":"Feature","geometry":{"type":"Point","coordinates":[111.790192,40.922221]},"properties":{"province":"内蒙古自治区","city":"呼和浩特市","county":"新城区","community":"榆树沟村","full_address":"内蒙古自治区呼和浩特市新城区榆树沟村","info":""}},{"type":"Feature","geometry":{"type":"Point","coordinates":[111.666354,40.843616]},"properties":{"province":"内蒙古自治区","city":"呼和浩特市","county":"新城区","community":"华新小区","full_address":"内蒙古自治区呼和浩特市新城区华新小区","info":""}},{"type":"Feature","geometry":{"type":"Point","coordinates":[111.692234,40.856735]},"properties":{"province":"内蒙古自治区","city":"呼和浩特市","county":"新城区","community":"5303小区","full_address":"内蒙古自治区呼和浩特市新城区5303小区","info":""}},{"type":"Feature","geometry":{"type":"Point","coordinates":[111.70119,40.860199]},"properties":{"province":"内蒙古自治区","city":"呼和浩特市","county":"新城区","community":"圣廷小区","full_address":"内蒙古自治区呼和浩特市新城区圣廷小区","info":""}},{"type":"Feature","geometry":{"type":"Point","coordinates":[111.691399,40.842815]},"properties":{"province":"内蒙古自治区","city":"呼和浩特市","county":"新城区","community":"公路工程处家属院","full_address":"内蒙古自治区呼和浩特市新城区公路工程处家属院","info":""}},{"type":"Feature","geometry":{"type":"Point","coordinates":[111.69806,40.837317]},"properties":{"province":"内蒙古自治区","city":"呼和浩特市","county":"新城区","community":"鼎盛华世纪广场公寓楼","full_address":"内蒙古自治区呼和浩特市新城区鼎盛华世纪广场公寓楼","info":""}},{"type":"Feature","geometry":{"type":"Point","coordinates":[111.742095,40.867685]},"properties":{"province":"内蒙古自治区","city":"呼和浩特市","county":"新城区","community":"舜和慢城","full_address":"内蒙古自治区呼和浩特市新城区舜和慢城","info":""}},{"type":"Feature","geometry":{"type":"Point","coordinates":[111.665544,40.858289]},"properties":{"province":"内蒙古自治区","city":"呼和浩特市","county":"新城区","community":"科协宿舍楼","full_address":"内蒙古自治区呼和浩特市新城区科协宿舍楼","info":""}},{"type":"Feature","geometry":{"type":"Point","coordinates":[111.673357,40.813964]},"properties":{"province":"内蒙古自治区","city":"呼和浩特市","county":"新城区","community":"内蒙古医院家属院","full_address":"内蒙古自治区呼和浩特市新城区内蒙古医院家属院","info":""}},{"type":"Feature","geometry":{"type":"Point","coordinates":[111.740825,40.877757]},"properties":{"province":"内蒙古自治区","city":"呼和浩特市","county":"新城区","community":"华润置地幸福里2号楼","full_address":"内蒙古自治区呼和浩特市新城区华润置地幸福里2号楼","info":""}},{"type":"Feature","geometry":{"type":"Point","coordinates":[111.660131,40.829001]},"properties":{"province":"内蒙古自治区","city":"呼和浩特市","county":"新城区","community":"金太广场2号楼","full_address":"内蒙古自治区呼和浩特市新城区金太广场2号楼","info":""}},{"type":"Feature","geometry":{"type":"Point","coordinates":[111.677702,40.839498]},"properties":{"province":"内蒙古自治区","city":"呼和浩特市","county":"新城区","community":"凤凰新城小区(除12号楼)","full_address":"内蒙古自治区呼和浩特市新城区凤凰新城小区(除12号楼)","info":""}},{"type":"Feature","geometry":{"type":"Point","coordinates":[111.653183,40.848202]},"properties":{"province":"内蒙古自治区","city":"呼和浩特市","county":"新城区","community":"天府花园(除22号楼)","full_address":"内蒙古自治区呼和浩特市新城区天府花园(除22号楼)","info":""}},{"type":"Feature","geometry":{"type":"Point","coordinates":[111.717595,40.836826]},"properties":{"province":"内蒙古自治区","city":"呼和浩特市","county":"新城区","community":"预制厂小区（除5号楼）","full_address":"内蒙古自治区呼和浩特市新城区预制厂小区（除5号楼）","info":""}},{"type":"Feature","geometry":{"type":"Point","coordinates":[111.659561,40.832821]},"properties":{"province":"内蒙古自治区","city":"呼和浩特市","county":"新城区","community":"道北5小区（除工程5号楼）","full_address":"内蒙古自治区呼和浩特市新城区道北5小区（除工程5号楼）","info":""}},{"type":"Feature","geometry":{"type":"Point","coordinates":[111.651294,40.85633]},"properties":{"province":"内蒙古自治区","city":"呼和浩特市","county":"新城区","community":"维多利橄榄城（除6号楼、11号楼）","full_address":"内蒙古自治区呼和浩特市新城区维多利橄榄城（除6号楼、11号楼）","info":""}},{"type":"Feature","geometry":{"type":"Point","coordinates":[111.679985,40.872517]},"properties":{"province":"内蒙古自治区","city":"呼和浩特市","county":"新城区","community":"团校巷宿舍楼（除2号楼）","full_address":"内蒙古自治区呼和浩特市新城区团校巷宿舍楼（除2号楼）","info":""}},{"type":"Feature","geometry":{"type":"Point","coordinates":[111.698868,40.832932]},"properties":{"province":"内蒙古自治区","city":"呼和浩特市","county":"新城区","community":"城建小区（除16号楼）","full_address":"内蒙古自治区呼和浩特市新城区城建小区（除16号楼）","info":""}},{"type":"Feature","geometry":{"type":"Point","coordinates":[111.676659,40.825119]},"properties":{"province":"内蒙古自治区","city":"呼和浩特市","county":"新城区","community":"财院西小区（西院）（除2号楼）","full_address":"内蒙古自治区呼和浩特市新城区财院西小区（西院）（除2号楼）","info":""}},{"type":"Feature","geometry":{"type":"Point","coordinates":[111.719063,40.836548]},"properties":{"province":"内蒙古自治区","city":"呼和浩特市","county":"新城区","community":"电建二公司家属楼","full_address":"内蒙古自治区呼和浩特市新城区电建二公司家属楼","info":""}},{"type":"Feature","geometry":{"type":"Point","coordinates":[111.686104,40.824791]},"properties":{"province":"内蒙古自治区","city":"呼和浩特市","county":"新城区","community":"公安厅小区统建楼（除2号楼、3号楼）","full_address":"内蒙古自治区呼和浩特市新城区公安厅小区统建楼（除2号楼、3号楼）","info":""}},{"type":"Feature","geometry":{"type":"Point","coordinates":[111.667305,40.854332]},"properties":{"province":"内蒙古自治区","city":"呼和浩特市","county":"新城区","community":"琦琳北辰小区（除1号楼）","full_address":"内蒙古自治区呼和浩特市新城区琦琳北辰小区（除1号楼）","info":""}},{"type":"Feature","geometry":{"type":"Point","coordinates":[111.683693,40.853432]},"properties":{"province":"内蒙古自治区","city":"呼和浩特市","county":"新城区","community":"公园世家小区（除3号楼）","full_address":"内蒙古自治区呼和浩特市新城区公园世家小区（除3号楼）","info":""}},{"type":"Feature","geometry":{"type":"Point","coordinates":[111.649048,40.850849]},"properties":{"province":"内蒙古自治区","city":"呼和浩特市","county":"新城区","community":"公主花园小区（除13号楼）","full_address":"内蒙古自治区呼和浩特市新城区公主花园小区（除13号楼）","info":""}},{"type":"Feature","geometry":{"type":"Point","coordinates":[111.71553,40.837791]},"properties":{"province":"内蒙古自治区","city":"呼和浩特市","county":"新城区","community":"芳汀花园（除8号楼）","full_address":"内蒙古自治区呼和浩特市新城区芳汀花园（除8号楼）","info":""}},{"type":"Feature","geometry":{"type":"Point","coordinates":[111.709244,40.834064]},"properties":{"province":"内蒙古自治区","city":"呼和浩特市","county":"新城区","community":"金都园B座（除2号楼）","full_address":"内蒙古自治区呼和浩特市新城区金都园B座（除2号楼）","info":""}},{"type":"Feature","geometry":{"type":"Point","coordinates":[111.675018,40.841503]},"properties":{"province":"内蒙古自治区","city":"呼和浩特市","county":"新城区","community":"八一小区（除11号楼、22号楼、26号楼）","full_address":"内蒙古自治区呼和浩特市新城区八一小区（除11号楼、22号楼、26号楼）","info":""}},{"type":"Feature","geometry":{"type":"Point","coordinates":[111.65358,40.829342]},"properties":{"province":"内蒙古自治区","city":"呼和浩特市","county":"新城区","community":"石油小区","full_address":"内蒙古自治区呼和浩特市新城区石油小区","info":""}},{"type":"Feature","geometry":{"type":"Point","coordinates":[111.65965,40.807941]},"properties":{"province":"内蒙古自治区","city":"呼和浩特市","county":"回民区","community":"新民街心月家园西区","full_address":"内蒙古自治区呼和浩特市回民区新民街心月家园西区","info":""}},{"type":"Feature","geometry":{"type":"Point","coordinates":[111.63791,40.848585]},"properties":{"province":"内蒙古自治区","city":"呼和浩特市","county":"回民区","community":"恒大翡翠华庭铂郡","full_address":"内蒙古自治区呼和浩特市回民区恒大翡翠华庭铂郡","info":""}},{"type":"Feature","geometry":{"type":"Point","coordinates":[111.605578,40.854688]},"properties":{"province":"内蒙古自治区","city":"呼和浩特市","county":"回民区","community":"依山北岸","full_address":"内蒙古自治区呼和浩特市回民区依山北岸","info":""}},{"type":"Feature","geometry":{"type":"Point","coordinates":[111.661578,40.814243]},"properties":{"province":"内蒙古自治区","city":"呼和浩特市","county":"回民区","community":"文化宫路西巷祥和花园南院及文化宫路西巷","full_address":"内蒙古自治区呼和浩特市回民区文化宫路西巷祥和花园南院及文化宫路西巷","info":""}},{"type":"Feature","geometry":{"type":"Point","coordinates":[111.631123,40.847718]},"properties":{"province":"内蒙古自治区","city":"呼和浩特市","county":"回民区","community":"梦溪苑小区","full_address":"内蒙古自治区呼和浩特市回民区梦溪苑小区","info":""}},{"type":"Feature","geometry":{"type":"Point","coordinates":[111.630716,40.80642]},"properties":{"province":"内蒙古自治区","city":"呼和浩特市","county":"回民区","community":"香槟美景","full_address":"内蒙古自治区呼和浩特市回民区香槟美景","info":""}},{"type":"Feature","geometry":{"type":"Point","coordinates":[111.617654,40.811466]},"properties":{"province":"内蒙古自治区","city":"呼和浩特市","county":"回民区","community":"呼钢家属院","full_address":"内蒙古自治区呼和浩特市回民区呼钢家属院","info":""}},{"type":"Feature","geometry":{"type":"Point","coordinates":[111.637037,40.821554]},"properties":{"province":"内蒙古自治区","city":"呼和浩特市","county":"回民区","community":"一鑫康乐苑","full_address":"内蒙古自治区呼和浩特市回民区一鑫康乐苑","info":""}},{"type":"Feature","geometry":{"type":"Point","coordinates":[111.665638,40.817209]},"properties":{"province":"内蒙古自治区","city":"呼和浩特市","county":"回民区","community":"防疫站小区","full_address":"内蒙古自治区呼和浩特市回民区防疫站小区","info":""}},{"type":"Feature","geometry":{"type":"Point","coordinates":[111.617938,40.794669]},"properties":{"province":"内蒙古自治区","city":"呼和浩特市","county":"回民区","community":"丽和阳光城小区","full_address":"内蒙古自治区呼和浩特市回民区丽和阳光城小区","info":""}},{"type":"Feature","geometry":{"type":"Point","coordinates":[111.644793,40.819232]},"properties":{"province":"内蒙古自治区","city":"呼和浩特市","county":"回民区","community":"彤辉小区","full_address":"内蒙古自治区呼和浩特市回民区彤辉小区","info":""}},{"type":"Feature","geometry":{"type":"Point","coordinates":[111.658655,40.805693]},"properties":{"province":"内蒙古自治区","city":"呼和浩特市","county":"回民区","community":"城市之光","full_address":"内蒙古自治区呼和浩特市回民区城市之光","info":""}},{"type":"Feature","geometry":{"type":"Point","coordinates":[111.607103,40.830662]},"properties":{"province":"内蒙古自治区","city":"呼和浩特市","county":"回民区","community":"万达华府","full_address":"内蒙古自治区呼和浩特市回民区万达华府","info":""}},{"type":"Feature","geometry":{"type":"Point","coordinates":[111.619462,40.810238]},"properties":{"province":"内蒙古自治区","city":"呼和浩特市","county":"回民区","community":"特竑社区特竑小区","full_address":"内蒙古自治区呼和浩特市回民区特竑社区特竑小区","info":""}},{"type":"Feature","geometry":{"type":"Point","coordinates":[111.605351,40.819898]},"properties":{"province":"内蒙古自治区","city":"呼和浩特市","county":"回民区","community":"草原明珠南区","full_address":"内蒙古自治区呼和浩特市回民区草原明珠南区","info":""}},{"type":"Feature","geometry":{"type":"Point","coordinates":[111.630803,40.837637]},"properties":{"province":"内蒙古自治区","city":"呼和浩特市","county":"回民区","community":"城发绿园小区1期","full_address":"内蒙古自治区呼和浩特市回民区城发绿园小区1期","info":""}},{"type":"Feature","geometry":{"type":"Point","coordinates":[111.642204,40.840504]},"properties":{"province":"内蒙古自治区","city":"呼和浩特市","county":"回民区","community":"盛泰雅园","full_address":"内蒙古自治区呼和浩特市回民区盛泰雅园","info":""}},{"type":"Feature","geometry":{"type":"Point","coordinates":[111.635095,40.801181]},"properties":{"province":"内蒙古自治区","city":"呼和浩特市","county":"回民区","community":"艾博龙园B区","full_address":"内蒙古自治区呼和浩特市回民区艾博龙园B区","info":""}},{"type":"Feature","geometry":{"type":"Point","coordinates":[111.657419,40.819748]},"properties":{"province":"内蒙古自治区","city":"呼和浩特市","county":"回民区","community":"水文队小区","full_address":"内蒙古自治区呼和浩特市回民区水文队小区","info":""}},{"type":"Feature","geometry":{"type":"Point","coordinates":[111.623692,40.808608]},"properties":{"province":"内蒙古自治区","city":"呼和浩特市","county":"回民区","community":"京蒙大院","full_address":"内蒙古自治区呼和浩特市回民区京蒙大院","info":""}},{"type":"Feature","geometry":{"type":"Point","coordinates":[111.595586,40.833207]},"properties":{"province":"内蒙古自治区","city":"呼和浩特市","county":"回民区","community":"建筑学校家属楼","full_address":"内蒙古自治区呼和浩特市回民区建筑学校家属楼","info":""}},{"type":"Feature","geometry":{"type":"Point","coordinates":[111.62787,40.803014]},"properties":{"province":"内蒙古自治区","city":"呼和浩特市","county":"回民区","community":"冠丰家园二期","full_address":"内蒙古自治区呼和浩特市回民区冠丰家园二期","info":""}},{"type":"Feature","geometry":{"type":"Point","coordinates":[111.610559,40.815014]},"properties":{"province":"内蒙古自治区","city":"呼和浩特市","county":"回民区","community":"盐站家属楼","full_address":"内蒙古自治区呼和浩特市回民区盐站家属楼","info":""}},{"type":"Feature","geometry":{"type":"Point","coordinates":[111.667675,40.812542]},"properties":{"province":"内蒙古自治区","city":"呼和浩特市","county":"回民区","community":"市委六号院","full_address":"内蒙古自治区呼和浩特市回民区市委六号院","info":""}},{"type":"Feature","geometry":{"type":"Point","coordinates":[111.650528,40.834041]},"properties":{"province":"内蒙古自治区","city":"呼和浩特市","county":"回民区","community":"水利学校家属院","full_address":"内蒙古自治区呼和浩特市回民区水利学校家属院","info":""}},{"type":"Feature","geometry":{"type":"Point","coordinates":[111.597426,40.792403]},"properties":{"province":"内蒙古自治区","city":"呼和浩特市","county":"回民区","community":"时代华城","full_address":"内蒙古自治区呼和浩特市回民区时代华城","info":""}},{"type":"Feature","geometry":{"type":"Point","coordinates":[111.658381,40.811744]},"properties":{"province":"内蒙古自治区","city":"呼和浩特市","county":"回民区","community":"祥和二区","full_address":"内蒙古自治区呼和浩特市回民区祥和二区","info":""}},{"type":"Feature","geometry":{"type":"Point","coordinates":[111.59267,40.79388]},"properties":{"province":"内蒙古自治区","city":"呼和浩特市","county":"回民区","community":"康顺家园小区","full_address":"内蒙古自治区呼和浩特市回民区康顺家园小区","info":""}},{"type":"Feature","geometry":{"type":"Point","coordinates":[111.664498,40.813782]},"properties":{"province":"内蒙古自治区","city":"呼和浩特市","county":"回民区","community":"供销社家属院","full_address":"内蒙古自治区呼和浩特市回民区供销社家属院","info":""}},{"type":"Feature","geometry":{"type":"Point","coordinates":[111.636107,40.807161]},"properties":{"province":"内蒙古自治区","city":"呼和浩特市","county":"回民区","community":"桃源水榭北区","full_address":"内蒙古自治区呼和浩特市回民区桃源水榭北区","info":""}},{"type":"Feature","geometry":{"type":"Point","coordinates":[111.618821,40.801159]},"properties":{"province":"内蒙古自治区","city":"呼和浩特市","county":"回民区","community":"桃源水榭2期","full_address":"内蒙古自治区呼和浩特市回民区桃源水榭2期","info":""}},{"type":"Feature","geometry":{"type":"Point","coordinates":[111.651288,40.842992]},"properties":{"province":"内蒙古自治区","city":"呼和浩特市","county":"回民区","community":"凯恩小区","full_address":"内蒙古自治区呼和浩特市回民区凯恩小区","info":""}},{"type":"Feature","geometry":{"type":"Point","coordinates":[111.630803,40.837637]},"properties":{"province":"内蒙古自治区","city":"呼和浩特市","county":"回民区","community":"城发绿园小区2期","full_address":"内蒙古自治区呼和浩特市回民区城发绿园小区2期","info":""}},{"type":"Feature","geometry":{"type":"Point","coordinates":[111.633583,40.826518]},"properties":{"province":"内蒙古自治区","city":"呼和浩特市","county":"回民区","community":"阳光宜居小区","full_address":"内蒙古自治区呼和浩特市回民区阳光宜居小区","info":""}},{"type":"Feature","geometry":{"type":"Point","coordinates":[111.660044,40.805878]},"properties":{"province":"内蒙古自治区","city":"呼和浩特市","county":"回民区","community":"世纪御园","full_address":"内蒙古自治区呼和浩特市回民区世纪御园","info":""}},{"type":"Feature","geometry":{"type":"Point","coordinates":[111.600581,40.826695]},"properties":{"province":"内蒙古自治区","city":"呼和浩特市","county":"回民区","community":"青城美墅时代天骄","full_address":"内蒙古自治区呼和浩特市回民区青城美墅时代天骄","info":""}},{"type":"Feature","geometry":{"type":"Point","coordinates":[111.636192,40.802036]},"properties":{"province":"内蒙古自治区","city":"呼和浩特市","county":"回民区","community":"艾博龙园小区A区","full_address":"内蒙古自治区呼和浩特市回民区艾博龙园小区A区","info":""}},{"type":"Feature","geometry":{"type":"Point","coordinates":[111.62664,40.837086]},"properties":{"province":"内蒙古自治区","city":"呼和浩特市","county":"回民区","community":"水泉文苑","full_address":"内蒙古自治区呼和浩特市回民区水泉文苑","info":""}},{"type":"Feature","geometry":{"type":"Point","coordinates":[111.667844,40.81801]},"properties":{"province":"内蒙古自治区","city":"呼和浩特市","county":"回民区","community":"振华广场简易2层工人宿舍","full_address":"内蒙古自治区呼和浩特市回民区振华广场简易2层工人宿舍","info":""}},{"type":"Feature","geometry":{"type":"Point","coordinates":[111.641071,40.835913]},"properties":{"province":"内蒙古自治区","city":"呼和浩特市","county":"回民区","community":"昌盛小区","full_address":"内蒙古自治区呼和浩特市回民区昌盛小区","info":""}},{"type":"Feature","geometry":{"type":"Point","coordinates":[111.640617,40.820814]},"properties":{"province":"内蒙古自治区","city":"呼和浩特市","county":"回民区","community":"探矿小区","full_address":"内蒙古自治区呼和浩特市回民区探矿小区","info":""}},{"type":"Feature","geometry":{"type":"Point","coordinates":[111.6456,40.805406]},"properties":{"province":"内蒙古自治区","city":"呼和浩特市","county":"回民区","community":"艾博银河港湾","full_address":"内蒙古自治区呼和浩特市回民区艾博银河港湾","info":""}},{"type":"Feature","geometry":{"type":"Point","coordinates":[111.645785,40.804632]},"properties":{"province":"内蒙古自治区","city":"呼和浩特市","county":"回民区","community":"县府家园","full_address":"内蒙古自治区呼和浩特市回民区县府家园","info":""}},{"type":"Feature","geometry":{"type":"Point","coordinates":[111.646115,40.839951]},"properties":{"province":"内蒙古自治区","city":"呼和浩特市","county":"回民区","community":"清怡花苑住宅小区","full_address":"内蒙古自治区呼和浩特市回民区清怡花苑住宅小区","info":""}},{"type":"Feature","geometry":{"type":"Point","coordinates":[111.648156,40.815128]},"properties":{"province":"内蒙古自治区","city":"呼和浩特市","county":"回民区","community":"九德阳光商铺及水岸世纪西区","full_address":"内蒙古自治区呼和浩特市回民区九德阳光商铺及水岸世纪西区","info":""}},{"type":"Feature","geometry":{"type":"Point","coordinates":[111.64105,40.802331]},"properties":{"province":"内蒙古自治区","city":"呼和浩特市","county":"回民区","community":"众惠家园","full_address":"内蒙古自治区呼和浩特市回民区众惠家园","info":""}},{"type":"Feature","geometry":{"type":"Point","coordinates":[111.657551,40.813091]},"properties":{"province":"内蒙古自治区","city":"呼和浩特市","county":"回民区","community":"翔宇花园","full_address":"内蒙古自治区呼和浩特市回民区翔宇花园","info":""}},{"type":"Feature","geometry":{"type":"Point","coordinates":[111.632353,40.849258]},"properties":{"province":"内蒙古自治区","city":"呼和浩特市","county":"回民区","community":"乾沁园","full_address":"内蒙古自治区呼和浩特市回民区乾沁园","info":""}},{"type":"Feature","geometry":{"type":"Point","coordinates":[111.66944,40.815014]},"properties":{"province":"内蒙古自治区","city":"呼和浩特市","county":"回民区","community":"供电小区(西区)","full_address":"内蒙古自治区呼和浩特市回民区供电小区(西区)","info":""}},{"type":"Feature","geometry":{"type":"Point","coordinates":[111.608762,40.849225]},"properties":{"province":"内蒙古自治区","city":"呼和浩特市","county":"回民区","community":"厂汉板村北郊陵园平房区","full_address":"内蒙古自治区呼和浩特市回民区厂汉板村北郊陵园平房区","info":""}},{"type":"Feature","geometry":{"type":"Point","coordinates":[111.646102,40.841826]},"properties":{"province":"内蒙古自治区","city":"呼和浩特市","county":"回民区","community":"清和佳园16号楼","full_address":"内蒙古自治区呼和浩特市回民区清和佳园16号楼","info":""}},{"type":"Feature","geometry":{"type":"Point","coordinates":[111.614008,40.828727]},"properties":{"province":"内蒙古自治区","city":"呼和浩特市","county":"回民区","community":"明珠丽景东区2号楼","full_address":"内蒙古自治区呼和浩特市回民区明珠丽景东区2号楼","info":""}},{"type":"Feature","geometry":{"type":"Point","coordinates":[111.642337,40.844367]},"properties":{"province":"内蒙古自治区","city":"呼和浩特市","county":"回民区","community":"府都花园","full_address":"内蒙古自治区呼和浩特市回民区府都花园","info":""}},{"type":"Feature","geometry":{"type":"Point","coordinates":[111.641289,40.8456]},"properties":{"province":"内蒙古自治区","city":"呼和浩特市","county":"回民区","community":"塔布板村(除塔布板住宅小区)","full_address":"内蒙古自治区呼和浩特市回民区塔布板村(除塔布板住宅小区)","info":""}},{"type":"Feature","geometry":{"type":"Point","coordinates":[111.639519,40.849014]},"properties":{"province":"内蒙古自治区","city":"呼和浩特市","county":"回民区","community":"广龙苑小区17号楼","full_address":"内蒙古自治区呼和浩特市回民区广龙苑小区17号楼","info":""}},{"type":"Feature","geometry":{"type":"Point","coordinates":[111.670774,40.813618]},"properties":{"province":"内蒙古自治区","city":"呼和浩特市","county":"回民区","community":"海亮社区誉峰3号楼","full_address":"内蒙古自治区呼和浩特市回民区海亮社区誉峰3号楼","info":""}},{"type":"Feature","geometry":{"type":"Point","coordinates":[111.659292,40.826147]},"properties":{"province":"内蒙古自治区","city":"呼和浩特市","county":"回民区","community":"内三建平房","full_address":"内蒙古自治区呼和浩特市回民区内三建平房","info":""}},{"type":"Feature","geometry":{"type":"Point","coordinates":[111.614835,40.808482]},"properties":{"province":"内蒙古自治区","city":"呼和浩特市","county":"回民区","community":"光明城小区3号楼","full_address":"内蒙古自治区呼和浩特市回民区光明城小区3号楼","info":""}},{"type":"Feature","geometry":{"type":"Point","coordinates":[111.623692,40.808608]},"properties":{"province":"内蒙古自治区","city":"呼和浩特市","county":"回民区","community":"海西社区燃料南楼","full_address":"内蒙古自治区呼和浩特市回民区海西社区燃料南楼","info":""}},{"type":"Feature","geometry":{"type":"Point","coordinates":[111.639519,40.849014]},"properties":{"province":"内蒙古自治区","city":"呼和浩特市","county":"回民区","community":"广龙苑小区（除17号楼）","full_address":"内蒙古自治区呼和浩特市回民区广龙苑小区（除17号楼）","info":""}},{"type":"Feature","geometry":{"type":"Point","coordinates":[111.616264,40.809315]},"properties":{"province":"内蒙古自治区","city":"呼和浩特市","county":"回民区","community":"光明城小区（除3号楼）","full_address":"内蒙古自治区呼和浩特市回民区光明城小区（除3号楼）","info":""}},{"type":"Feature","geometry":{"type":"Point","coordinates":[111.636513,40.806999]},"properties":{"province":"内蒙古自治区","city":"呼和浩特市","county":"回民区","community":"桃源水榭一期南区3号楼","full_address":"内蒙古自治区呼和浩特市回民区桃源水榭一期南区3号楼","info":""}},{"type":"Feature","geometry":{"type":"Point","coordinates":[111.586911,40.827072]},"properties":{"province":"内蒙古自治区","city":"呼和浩特市","county":"回民区","community":"中铁诺德龙湾四地块2号楼","full_address":"内蒙古自治区呼和浩特市回民区中铁诺德龙湾四地块2号楼","info":""}},{"type":"Feature","geometry":{"type":"Point","coordinates":[111.637794,40.806313]},"properties":{"province":"内蒙古自治区","city":"呼和浩特市","county":"回民区","community":"桃源水榭南区（除3号楼）","full_address":"内蒙古自治区呼和浩特市回民区桃源水榭南区（除3号楼）","info":""}},{"type":"Feature","geometry":{"type":"Point","coordinates":[111.670502,40.8125]},"properties":{"province":"内蒙古自治区","city":"呼和浩特市","county":"回民区","community":"海亮名门（除11号楼）","full_address":"内蒙古自治区呼和浩特市回民区海亮名门（除11号楼）","info":""}},{"type":"Feature","geometry":{"type":"Point","coordinates":[111.636375,40.814335]},"properties":{"province":"内蒙古自治区","city":"呼和浩特市","county":"回民区","community":"家和小区（除4号楼）","full_address":"内蒙古自治区呼和浩特市回民区家和小区（除4号楼）","info":""}},{"type":"Feature","geometry":{"type":"Point","coordinates":[111.584641,40.835499]},"properties":{"province":"内蒙古自治区","city":"呼和浩特市","county":"回民区","community":"塞外安康新居（除10号楼)","full_address":"内蒙古自治区呼和浩特市回民区塞外安康新居（除10号楼)","info":""}},{"type":"Feature","geometry":{"type":"Point","coordinates":[111.587036,40.827038]},"properties":{"province":"内蒙古自治区","city":"呼和浩特市","county":"回民区","community":"中铁诺德龙湾四地块（除2号楼）","full_address":"内蒙古自治区呼和浩特市回民区中铁诺德龙湾四地块（除2号楼）","info":""}},{"type":"Feature","geometry":{"type":"Point","coordinates":[111.650284,40.821022]},"properties":{"province":"内蒙古自治区","city":"呼和浩特市","county":"回民区","community":"浩鑫丽景苑小区（除2号楼）","full_address":"内蒙古自治区呼和浩特市回民区浩鑫丽景苑小区（除2号楼）","info":""}},{"type":"Feature","geometry":{"type":"Point","coordinates":[111.634903,40.8134]},"properties":{"province":"内蒙古自治区","city":"呼和浩特市","county":"回民区","community":"呼钢小区(除12号楼）","full_address":"内蒙古自治区呼和浩特市回民区呼钢小区(除12号楼）","info":""}},{"type":"Feature","geometry":{"type":"Point","coordinates":[111.676727,40.800129]},"properties":{"province":"内蒙古自治区","city":"呼和浩特市","county":"回民区","community":"电厂宿舍楼（除14号楼）","full_address":"内蒙古自治区呼和浩特市回民区电厂宿舍楼（除14号楼）","info":""}},{"type":"Feature","geometry":{"type":"Point","coordinates":[111.644272,40.838249]},"properties":{"province":"内蒙古自治区","city":"呼和浩特市","county":"回民区","community":"昌盛家园","full_address":"内蒙古自治区呼和浩特市回民区昌盛家园","info":""}},{"type":"Feature","geometry":{"type":"Point","coordinates":[111.602753,40.839661]},"properties":{"province":"内蒙古自治区","city":"呼和浩特市","county":"回民区","community":"大天森林小区","full_address":"内蒙古自治区呼和浩特市回民区大天森林小区","info":""}},{"type":"Feature","geometry":{"type":"Point","coordinates":[111.625587,40.804062]},"properties":{"province":"内蒙古自治区","city":"呼和浩特市","county":"回民区","community":"锦泽园小区","full_address":"内蒙古自治区呼和浩特市回民区锦泽园小区","info":""}},{"type":"Feature","geometry":{"type":"Point","coordinates":[111.618004,40.793457]},"properties":{"province":"内蒙古自治区","city":"呼和浩特市","county":"回民区","community":"金苑小区","full_address":"内蒙古自治区呼和浩特市回民区金苑小区","info":""}},{"type":"Feature","geometry":{"type":"Point","coordinates":[111.588593,40.83194]},"properties":{"province":"内蒙古自治区","city":"呼和浩特市","county":"回民区","community":"东乌素图旧村","full_address":"内蒙古自治区呼和浩特市回民区东乌素图旧村","info":""}},{"type":"Feature","geometry":{"type":"Point","coordinates":[111.60713,40.84041]},"properties":{"province":"内蒙古自治区","city":"呼和浩特市","county":"回民区","community":"新西蓝小区北区","full_address":"内蒙古自治区呼和浩特市回民区新西蓝小区北区","info":""}},{"type":"Feature","geometry":{"type":"Point","coordinates":[111.640892,40.837563]},"properties":{"province":"内蒙古自治区","city":"呼和浩特市","county":"回民区","community":"阀门厂小区","full_address":"内蒙古自治区呼和浩特市回民区阀门厂小区","info":""}},{"type":"Feature","geometry":{"type":"Point","coordinates":[111.640999,40.817841]},"properties":{"province":"内蒙古自治区","city":"呼和浩特市","county":"回民区","community":"金园社区铁路小区","full_address":"内蒙古自治区呼和浩特市回民区金园社区铁路小区","info":""}},{"type":"Feature","geometry":{"type":"Point","coordinates":[111.647644,40.848766]},"properties":{"province":"内蒙古自治区","city":"呼和浩特市","county":"回民区","community":"呼运花园","full_address":"内蒙古自治区呼和浩特市回民区呼运花园","info":""}},{"type":"Feature","geometry":{"type":"Point","coordinates":[111.638092,40.796658]},"properties":{"province":"内蒙古自治区","city":"呼和浩特市","county":"回民区","community":"水润嘉苑","full_address":"内蒙古自治区呼和浩特市回民区水润嘉苑","info":""}},{"type":"Feature","geometry":{"type":"Point","coordinates":[111.638801,40.75998]},"properties":{"province":"内蒙古自治区","city":"呼和浩特市","county":"玉泉区","community":"荣盛楠湖郦舍","full_address":"内蒙古自治区呼和浩特市玉泉区荣盛楠湖郦舍","info":""}},{"type":"Feature","geometry":{"type":"Point","coordinates":[111.621985,40.788888]},"properties":{"province":"内蒙古自治区","city":"呼和浩特市","county":"玉泉区","community":"康居家园","full_address":"内蒙古自治区呼和浩特市玉泉区康居家园","info":""}},{"type":"Feature","geometry":{"type":"Point","coordinates":[111.653602,40.78053]},"properties":{"province":"内蒙古自治区","city":"呼和浩特市","county":"玉泉区","community":"塞外名苑","full_address":"内蒙古自治区呼和浩特市玉泉区塞外名苑","info":""}},{"type":"Feature","geometry":{"type":"Point","coordinates":[111.67845,40.796107]},"properties":{"province":"内蒙古自治区","city":"呼和浩特市","county":"玉泉区","community":"金宇新天地","full_address":"内蒙古自治区呼和浩特市玉泉区金宇新天地","info":""}},{"type":"Feature","geometry":{"type":"Point","coordinates":[111.626923,40.765962]},"properties":{"province":"内蒙古自治区","city":"呼和浩特市","county":"玉泉区","community":"世纪新村","full_address":"内蒙古自治区呼和浩特市玉泉区世纪新村","info":""}},{"type":"Feature","geometry":{"type":"Point","coordinates":[111.674985,40.766284]},"properties":{"province":"内蒙古自治区","city":"呼和浩特市","county":"玉泉区","community":"世源佳境","full_address":"内蒙古自治区呼和浩特市玉泉区世源佳境","info":""}},{"type":"Feature","geometry":{"type":"Point","coordinates":[111.681262,40.749647]},"properties":{"province":"内蒙古自治区","city":"呼和浩特市","county":"玉泉区","community":"大盛魁文创园2期南区","full_address":"内蒙古自治区呼和浩特市玉泉区大盛魁文创园2期南区","info":""}},{"type":"Feature","geometry":{"type":"Point","coordinates":[111.679953,40.776422]},"properties":{"province":"内蒙古自治区","city":"呼和浩特市","county":"玉泉区","community":"万锦融城","full_address":"内蒙古自治区呼和浩特市玉泉区万锦融城","info":""}},{"type":"Feature","geometry":{"type":"Point","coordinates":[111.657189,40.791609]},"properties":{"province":"内蒙古自治区","city":"呼和浩特市","county":"玉泉区","community":"钢管厂巷建北楼","full_address":"内蒙古自治区呼和浩特市玉泉区钢管厂巷建北楼","info":""}},{"type":"Feature","geometry":{"type":"Point","coordinates":[111.657189,40.791609]},"properties":{"province":"内蒙古自治区","city":"呼和浩特市","county":"玉泉区","community":"钢管厂巷建南楼","full_address":"内蒙古自治区呼和浩特市玉泉区钢管厂巷建南楼","info":""}},{"type":"Feature","geometry":{"type":"Point","coordinates":[111.653696,40.7743]},"properties":{"province":"内蒙古自治区","city":"呼和浩特市","county":"玉泉区","community":"食府花园小区","full_address":"内蒙古自治区呼和浩特市玉泉区食府花园小区","info":""}},{"type":"Feature","geometry":{"type":"Point","coordinates":[111.633875,40.793175]},"properties":{"province":"内蒙古自治区","city":"呼和浩特市","county":"玉泉区","community":"和兴家园","full_address":"内蒙古自治区呼和浩特市玉泉区和兴家园","info":""}},{"type":"Feature","geometry":{"type":"Point","coordinates":[111.680528,40.77172]},"properties":{"province":"内蒙古自治区","city":"呼和浩特市","county":"玉泉区","community":"万锦花语岸","full_address":"内蒙古自治区呼和浩特市玉泉区万锦花语岸","info":""}},{"type":"Feature","geometry":{"type":"Point","coordinates":[111.666787,40.692831]},"properties":{"province":"内蒙古自治区","city":"呼和浩特市","county":"玉泉区","community":"达赖庄村","full_address":"内蒙古自治区呼和浩特市玉泉区达赖庄村","info":""}},{"type":"Feature","geometry":{"type":"Point","coordinates":[111.18201,40.272644]},"properties":{"province":"内蒙古自治区","city":"呼和浩特市","county":"玉泉区","community":"金河社区","full_address":"内蒙古自治区呼和浩特市玉泉区金河社区","info":""}},{"type":"Feature","geometry":{"type":"Point","coordinates":[111.661728,40.799181]},"properties":{"province":"内蒙古自治区","city":"呼和浩特市","county":"玉泉区","community":"泓博花园","full_address":"内蒙古自治区呼和浩特市玉泉区泓博花园","info":""}},{"type":"Feature","geometry":{"type":"Point","coordinates":[111.687074,40.775968]},"properties":{"province":"内蒙古自治区","city":"呼和浩特市","county":"玉泉区","community":"秋实璟峯汇3号楼，A座、B座","full_address":"内蒙古自治区呼和浩特市玉泉区秋实璟峯汇3号楼，A座、B座","info":""}},{"type":"Feature","geometry":{"type":"Point","coordinates":[111.673881,40.753655]},"properties":{"province":"内蒙古自治区","city":"呼和浩特市","county":"玉泉区","community":"福缘名居5号楼","full_address":"内蒙古自治区呼和浩特市玉泉区福缘名居5号楼","info":""}},{"type":"Feature","geometry":{"type":"Point","coordinates":[111.693641,40.733702]},"properties":{"province":"内蒙古自治区","city":"呼和浩特市","county":"玉泉区","community":"天颐尚居B1号楼","full_address":"内蒙古自治区呼和浩特市玉泉区天颐尚居B1号楼","info":""}},{"type":"Feature","geometry":{"type":"Point","coordinates":[111.665435,40.798913]},"properties":{"province":"内蒙古自治区","city":"呼和浩特市","county":"玉泉区","community":"五里营东小区","full_address":"内蒙古自治区呼和浩特市玉泉区五里营东小区","info":""}},{"type":"Feature","geometry":{"type":"Point","coordinates":[111.678345,40.779458]},"properties":{"province":"内蒙古自治区","city":"呼和浩特市","county":"玉泉区","community":"闻都世界城(除18A)","full_address":"内蒙古自治区呼和浩特市玉泉区闻都世界城(除18A)","info":""}},{"type":"Feature","geometry":{"type":"Point","coordinates":[111.644009,40.785418]},"properties":{"province":"内蒙古自治区","city":"呼和浩特市","county":"玉泉区","community":"恒奥世纪华府5号楼","full_address":"内蒙古自治区呼和浩特市玉泉区恒奥世纪华府5号楼","info":""}},{"type":"Feature","geometry":{"type":"Point","coordinates":[111.650452,40.786953]},"properties":{"province":"内蒙古自治区","city":"呼和浩特市","county":"玉泉区","community":"西菜园东源村","full_address":"内蒙古自治区呼和浩特市玉泉区西菜园东源村","info":""}},{"type":"Feature","geometry":{"type":"Point","coordinates":[111.658684,40.800179]},"properties":{"province":"内蒙古自治区","city":"呼和浩特市","county":"玉泉区","community":"小召前街兴盛苑小区8号楼","full_address":"内蒙古自治区呼和浩特市玉泉区小召前街兴盛苑小区8号楼","info":""}},{"type":"Feature","geometry":{"type":"Point","coordinates":[111.660771,40.796881]},"properties":{"province":"内蒙古自治区","city":"呼和浩特市","county":"玉泉区","community":"金角苑小区1号楼 2号楼","full_address":"内蒙古自治区呼和浩特市玉泉区金角苑小区1号楼 2号楼","info":""}},{"type":"Feature","geometry":{"type":"Point","coordinates":[111.67247,40.761711]},"properties":{"province":"内蒙古自治区","city":"呼和浩特市","county":"玉泉区","community":"小黑河村","full_address":"内蒙古自治区呼和浩特市玉泉区小黑河村","info":""}},{"type":"Feature","geometry":{"type":"Point","coordinates":[111.664528,40.785301]},"properties":{"province":"内蒙古自治区","city":"呼和浩特市","county":"玉泉区","community":"南茶坊村民小区","full_address":"内蒙古自治区呼和浩特市玉泉区南茶坊村民小区","info":""}},{"type":"Feature","geometry":{"type":"Point","coordinates":[111.67543,40.75319]},"properties":{"province":"内蒙古自治区","city":"呼和浩特市","county":"玉泉区","community":"华润瑞府工地宿舍楼","full_address":"内蒙古自治区呼和浩特市玉泉区华润瑞府工地宿舍楼","info":""}},{"type":"Feature","geometry":{"type":"Point","coordinates":[111.668747,40.78688]},"properties":{"province":"内蒙古自治区","city":"呼和浩特市","county":"玉泉区","community":"俪城小区A（除7号楼）","full_address":"内蒙古自治区呼和浩特市玉泉区俪城小区A（除7号楼）","info":""}},{"type":"Feature","geometry":{"type":"Point","coordinates":[111.684807,40.773041]},"properties":{"province":"内蒙古自治区","city":"呼和浩特市","county":"玉泉区","community":"万锦枫泽湾（除1号楼）","full_address":"内蒙古自治区呼和浩特市玉泉区万锦枫泽湾（除1号楼）","info":""}},{"type":"Feature","geometry":{"type":"Point","coordinates":[111.664597,40.795082]},"properties":{"province":"内蒙古自治区","city":"呼和浩特市","county":"玉泉区","community":"御景苑北区1号楼","full_address":"内蒙古自治区呼和浩特市玉泉区御景苑北区1号楼","info":""}},{"type":"Feature","geometry":{"type":"Point","coordinates":[111.670189,40.782181]},"properties":{"province":"内蒙古自治区","city":"呼和浩特市","county":"玉泉区","community":"万象天地小区4号楼","full_address":"内蒙古自治区呼和浩特市玉泉区万象天地小区4号楼","info":""}},{"type":"Feature","geometry":{"type":"Point","coordinates":[111.665756,40.792309]},"properties":{"province":"内蒙古自治区","city":"呼和浩特市","county":"玉泉区","community":"二建小区2号楼","full_address":"内蒙古自治区呼和浩特市玉泉区二建小区2号楼","info":""}},{"type":"Feature","geometry":{"type":"Point","coordinates":[111.685432,40.748158]},"properties":{"province":"内蒙古自治区","city":"呼和浩特市","county":"玉泉区","community":"鼎盛国际（除B8号楼、G2号楼、G1号楼）","full_address":"内蒙古自治区呼和浩特市玉泉区鼎盛国际（除B8号楼、G2号楼、G1号楼）","info":""}},{"type":"Feature","geometry":{"type":"Point","coordinates":[111.616015,40.774071]},"properties":{"province":"内蒙古自治区","city":"呼和浩特市","county":"玉泉区","community":"蓝宇小区","full_address":"内蒙古自治区呼和浩特市玉泉区蓝宇小区","info":""}},{"type":"Feature","geometry":{"type":"Point","coordinates":[111.68635,40.808234]},"properties":{"province":"内蒙古自治区","city":"呼和浩特市","county":"赛罕区","community":"地质局宿舍148号院","full_address":"内蒙古自治区呼和浩特市赛罕区地质局宿舍148号院","info":""}},{"type":"Feature","geometry":{"type":"Point","coordinates":[111.729437,40.81867]},"properties":{"province":"内蒙古自治区","city":"呼和浩特市","county":"赛罕区","community":"春雨小区","full_address":"内蒙古自治区呼和浩特市赛罕区春雨小区","info":""}},{"type":"Feature","geometry":{"type":"Point","coordinates":[111.82095,40.870545]},"properties":{"province":"内蒙古自治区","city":"呼和浩特市","county":"赛罕区","community":"黑土凹村","full_address":"内蒙古自治区呼和浩特市赛罕区黑土凹村","info":""}},{"type":"Feature","geometry":{"type":"Point","coordinates":[111.680569,40.799866]},"properties":{"province":"内蒙古自治区","city":"呼和浩特市","county":"赛罕区","community":"山丹小区","full_address":"内蒙古自治区呼和浩特市赛罕区山丹小区","info":""}},{"type":"Feature","geometry":{"type":"Point","coordinates":[111.695418,40.789874]},"properties":{"province":"内蒙古自治区","city":"呼和浩特市","county":"赛罕区","community":"舒心园小区","full_address":"内蒙古自治区呼和浩特市赛罕区舒心园小区","info":""}},{"type":"Feature","geometry":{"type":"Point","coordinates":[111.680407,40.79093]},"properties":{"province":"内蒙古自治区","city":"呼和浩特市","county":"赛罕区","community":"灯泡厂小区","full_address":"内蒙古自治区呼和浩特市赛罕区灯泡厂小区","info":""}},{"type":"Feature","geometry":{"type":"Point","coordinates":[111.719086,40.818645]},"properties":{"province":"内蒙古自治区","city":"呼和浩特市","county":"赛罕区","community":"亚辰景院","full_address":"内蒙古自治区呼和浩特市赛罕区亚辰景院","info":""}},{"type":"Feature","geometry":{"type":"Point","coordinates":[111.689661,40.799019]},"properties":{"province":"内蒙古自治区","city":"呼和浩特市","county":"赛罕区","community":"华运楼小区","full_address":"内蒙古自治区呼和浩特市赛罕区华运楼小区","info":""}},{"type":"Feature","geometry":{"type":"Point","coordinates":[111.730701,40.818926]},"properties":{"province":"内蒙古自治区","city":"呼和浩特市","county":"赛罕区","community":"丰泽园小区","full_address":"内蒙古自治区呼和浩特市赛罕区丰泽园小区","info":""}},{"type":"Feature","geometry":{"type":"Point","coordinates":[111.719628,40.825548]},"properties":{"province":"内蒙古自治区","city":"呼和浩特市","county":"赛罕区","community":"化工学院小区","full_address":"内蒙古自治区呼和浩特市赛罕区化工学院小区","info":""}},{"type":"Feature","geometry":{"type":"Point","coordinates":[111.801219,40.84416]},"properties":{"province":"内蒙古自治区","city":"呼和浩特市","county":"赛罕区","community":"什兰岱社区","full_address":"内蒙古自治区呼和浩特市赛罕区什兰岱社区","info":""}},{"type":"Feature","geometry":{"type":"Point","coordinates":[111.712494,40.817697]},"properties":{"province":"内蒙古自治区","city":"呼和浩特市","county":"赛罕区","community":"河西乌兰小区","full_address":"内蒙古自治区呼和浩特市赛罕区河西乌兰小区","info":""}},{"type":"Feature","geometry":{"type":"Point","coordinates":[111.918987,40.798066]},"properties":{"province":"内蒙古自治区","city":"呼和浩特市","county":"赛罕区","community":"添密湾村","full_address":"内蒙古自治区呼和浩特市赛罕区添密湾村","info":""}},{"type":"Feature","geometry":{"type":"Point","coordinates":[111.741588,40.805633]},"properties":{"province":"内蒙古自治区","city":"呼和浩特市","county":"赛罕区","community":"竹园小区东区","full_address":"内蒙古自治区呼和浩特市赛罕区竹园小区东区","info":""}},{"type":"Feature","geometry":{"type":"Point","coordinates":[111.770579,40.842281]},"properties":{"province":"内蒙古自治区","city":"呼和浩特市","county":"赛罕区","community":"内蒙古糖研所家属楼","full_address":"内蒙古自治区呼和浩特市赛罕区内蒙古糖研所家属楼","info":""}},{"type":"Feature","geometry":{"type":"Point","coordinates":[111.913411,40.826901]},"properties":{"province":"内蒙古自治区","city":"呼和浩特市","county":"赛罕区","community":"巴彦街道保素村","full_address":"内蒙古自治区呼和浩特市赛罕区巴彦街道保素村","info":""}},{"type":"Feature","geometry":{"type":"Point","coordinates":[111.788774,40.836654]},"properties":{"province":"内蒙古自治区","city":"呼和浩特市","county":"赛罕区","community":"后不塔气村","full_address":"内蒙古自治区呼和浩特市赛罕区后不塔气村","info":""}},{"type":"Feature","geometry":{"type":"Point","coordinates":[111.670102,40.816002]},"properties":{"province":"内蒙古自治区","city":"呼和浩特市","county":"赛罕区","community":"二期工厂","full_address":"内蒙古自治区呼和浩特市赛罕区二期工厂","info":""}},{"type":"Feature","geometry":{"type":"Point","coordinates":[111.70332,40.781187]},"properties":{"province":"内蒙古自治区","city":"呼和浩特市","county":"赛罕区","community":"青城蕴秀园","full_address":"内蒙古自治区呼和浩特市赛罕区青城蕴秀园","info":""}},{"type":"Feature","geometry":{"type":"Point","coordinates":[111.969718,40.726063]},"properties":{"province":"内蒙古自治区","city":"呼和浩特市","county":"赛罕区","community":"六犋牛村奶牛小区","full_address":"内蒙古自治区呼和浩特市赛罕区六犋牛村奶牛小区","info":""}},{"type":"Feature","geometry":{"type":"Point","coordinates":[111.768714,40.788875]},"properties":{"province":"内蒙古自治区","city":"呼和浩特市","county":"赛罕区","community":"民富家园2号楼","full_address":"内蒙古自治区呼和浩特市赛罕区民富家园2号楼","info":""}},{"type":"Feature","geometry":{"type":"Point","coordinates":[111.731819,40.7537]},"properties":{"province":"内蒙古自治区","city":"呼和浩特市","county":"赛罕区","community":"锦绣嘉苑C区1号楼","full_address":"内蒙古自治区呼和浩特市赛罕区锦绣嘉苑C区1号楼","info":""}},{"type":"Feature","geometry":{"type":"Point","coordinates":[111.745934,40.724033]},"properties":{"province":"内蒙古自治区","city":"呼和浩特市","county":"赛罕区","community":"金河镇天平营村","full_address":"内蒙古自治区呼和浩特市赛罕区金河镇天平营村","info":""}},{"type":"Feature","geometry":{"type":"Point","coordinates":[111.71508,40.82769]},"properties":{"province":"内蒙古自治区","city":"呼和浩特市","county":"赛罕区","community":"三干社区海外公寓（除3号楼）","full_address":"内蒙古自治区呼和浩特市赛罕区三干社区海外公寓（除3号楼）","info":""}},{"type":"Feature","geometry":{"type":"Point","coordinates":[111.733044,40.815657]},"properties":{"province":"内蒙古自治区","city":"呼和浩特市","county":"赛罕区","community":"巨海城10区（除1号楼）","full_address":"内蒙古自治区呼和浩特市赛罕区巨海城10区（除1号楼）","info":""}},{"type":"Feature","geometry":{"type":"Point","coordinates":[111.711661,40.826727]},"properties":{"province":"内蒙古自治区","city":"呼和浩特市","county":"赛罕区","community":"中行小区（除3号楼）","full_address":"内蒙古自治区呼和浩特市赛罕区中行小区（除3号楼）","info":""}},{"type":"Feature","geometry":{"type":"Point","coordinates":[111.72564,40.76666]},"properties":{"province":"内蒙古自治区","city":"呼和浩特市","county":"赛罕区","community":"金城小区1号楼（1单元，3单元）","full_address":"内蒙古自治区呼和浩特市赛罕区金城小区1号楼（1单元，3单元）","info":""}},{"type":"Feature","geometry":{"type":"Point","coordinates":[111.696617,40.798429]},"properties":{"province":"内蒙古自治区","city":"呼和浩特市","county":"赛罕区","community":"东苑小区中心区7号楼","full_address":"内蒙古自治区呼和浩特市赛罕区东苑小区中心区7号楼","info":""}},{"type":"Feature","geometry":{"type":"Point","coordinates":[111.723607,40.823131]},"properties":{"province":"内蒙古自治区","city":"呼和浩特市","county":"赛罕区","community":"东乐花园西区3号楼","full_address":"内蒙古自治区呼和浩特市赛罕区东乐花园西区3号楼","info":""}},{"type":"Feature","geometry":{"type":"Point","coordinates":[111.901962,40.849113]},"properties":{"province":"内蒙古自治区","city":"呼和浩特市","county":"赛罕区","community":"巴彦街道白塔村平房区","full_address":"内蒙古自治区呼和浩特市赛罕区巴彦街道白塔村平房区","info":""}},{"type":"Feature","geometry":{"type":"Point","coordinates":[111.709556,40.819234]},"properties":{"province":"内蒙古自治区","city":"呼和浩特市","county":"赛罕区","community":"祖光小区12号楼","full_address":"内蒙古自治区呼和浩特市赛罕区祖光小区12号楼","info":""}},{"type":"Feature","geometry":{"type":"Point","coordinates":[111.717819,40.82782]},"properties":{"province":"内蒙古自治区","city":"呼和浩特市","county":"赛罕区","community":"长乐湾小区（除5号楼）","full_address":"内蒙古自治区呼和浩特市赛罕区长乐湾小区（除5号楼）","info":""}},{"type":"Feature","geometry":{"type":"Point","coordinates":[111.706978,40.797729]},"properties":{"province":"内蒙古自治区","city":"呼和浩特市","county":"赛罕区","community":"牧机所小区（除8号楼）","full_address":"内蒙古自治区呼和浩特市赛罕区牧机所小区（除8号楼）","info":""}},{"type":"Feature","geometry":{"type":"Point","coordinates":[111.681747,40.804375]},"properties":{"province":"内蒙古自治区","city":"呼和浩特市","county":"赛罕区","community":"书香门第小区（除4号楼）","full_address":"内蒙古自治区呼和浩特市赛罕区书香门第小区（除4号楼）","info":""}},{"type":"Feature","geometry":{"type":"Point","coordinates":[111.868683,40.825119]},"properties":{"province":"内蒙古自治区","city":"呼和浩特市","county":"赛罕区","community":"巴彦街道郜独立村","full_address":"内蒙古自治区呼和浩特市赛罕区巴彦街道郜独立村","info":""}},{"type":"Feature","geometry":{"type":"Point","coordinates":[111.770135,40.796063]},"properties":{"province":"内蒙古自治区","city":"呼和浩特市","county":"赛罕区","community":"秀水佳园10号楼","full_address":"内蒙古自治区呼和浩特市赛罕区秀水佳园10号楼","info":""}},{"type":"Feature","geometry":{"type":"Point","coordinates":[111.752754,40.80394]},"properties":{"province":"内蒙古自治区","city":"呼和浩特市","county":"赛罕区","community":"锦绣福源B区8号楼","full_address":"内蒙古自治区呼和浩特市赛罕区锦绣福源B区8号楼","info":""}},{"type":"Feature","geometry":{"type":"Point","coordinates":[111.713257,40.816952]},"properties":{"province":"内蒙古自治区","city":"呼和浩特市","county":"赛罕区","community":"乌兰小区（除11、12、13号楼）","full_address":"内蒙古自治区呼和浩特市赛罕区乌兰小区（除11、12、13号楼）","info":""}},{"type":"Feature","geometry":{"type":"Point","coordinates":[111.781303,40.795399]},"properties":{"province":"内蒙古自治区","city":"呼和浩特市","county":"赛罕区","community":"东达景苑（除9号楼）","full_address":"内蒙古自治区呼和浩特市赛罕区东达景苑（除9号楼）","info":""}},{"type":"Feature","geometry":{"type":"Point","coordinates":[111.708679,40.827141]},"properties":{"province":"内蒙古自治区","city":"呼和浩特市","county":"赛罕区","community":"金川地税局艺校家属楼（除1号楼）","full_address":"内蒙古自治区呼和浩特市赛罕区金川地税局艺校家属楼（除1号楼）","info":""}},{"type":"Feature","geometry":{"type":"Point","coordinates":[111.855064,40.891586]},"properties":{"province":"内蒙古自治区","city":"呼和浩特市","county":"赛罕区","community":"巴彦街道罗家营村陶然雅居B（除8号楼）","full_address":"内蒙古自治区呼和浩特市赛罕区巴彦街道罗家营村陶然雅居B（除8号楼）","info":""}},{"type":"Feature","geometry":{"type":"Point","coordinates":[111.722839,40.785751]},"properties":{"province":"内蒙古自治区","city":"呼和浩特市","county":"赛罕区","community":"中海蓝湾南区（除1号楼）","full_address":"内蒙古自治区呼和浩特市赛罕区中海蓝湾南区（除1号楼）","info":""}},{"type":"Feature","geometry":{"type":"Point","coordinates":[111.708672,40.823383]},"properties":{"province":"内蒙古自治区","city":"呼和浩特市","county":"赛罕区","community":"自来水宿舍楼1号大院（除2号楼）","full_address":"内蒙古自治区呼和浩特市赛罕区自来水宿舍楼1号大院（除2号楼）","info":""}},{"type":"Feature","geometry":{"type":"Point","coordinates":[111.739357,40.824032]},"properties":{"province":"内蒙古自治区","city":"呼和浩特市","county":"赛罕区","community":"检察家园（除3号楼）","full_address":"内蒙古自治区呼和浩特市赛罕区检察家园（除3号楼）","info":""}},{"type":"Feature","geometry":{"type":"Point","coordinates":[111.713501,40.790794]},"properties":{"province":"内蒙古自治区","city":"呼和浩特市","county":"赛罕区","community":"永泰城（除4号楼）","full_address":"内蒙古自治区呼和浩特市赛罕区永泰城（除4号楼）","info":""}},{"type":"Feature","geometry":{"type":"Point","coordinates":[111.719872,40.770367]},"properties":{"province":"内蒙古自治区","city":"呼和浩特市","county":"赛罕区","community":"化肥厂生活小区8号楼","full_address":"内蒙古自治区呼和浩特市赛罕区化肥厂生活小区8号楼","info":""}},{"type":"Feature","geometry":{"type":"Point","coordinates":[111.6912,40.790199]},"properties":{"province":"内蒙古自治区","city":"呼和浩特市","county":"赛罕区","community":"司法厅住宅小区（除1号楼）","full_address":"内蒙古自治区呼和浩特市赛罕区司法厅住宅小区（除1号楼）","info":""}},{"type":"Feature","geometry":{"type":"Point","coordinates":[111.710281,40.828339]},"properties":{"province":"内蒙古自治区","city":"呼和浩特市","county":"赛罕区","community":"巨华朗域小区（除6号楼）","full_address":"内蒙古自治区呼和浩特市赛罕区巨华朗域小区（除6号楼）","info":""}},{"type":"Feature","geometry":{"type":"Point","coordinates":[111.692749,40.785542]},"properties":{"province":"内蒙古自治区","city":"呼和浩特市","county":"赛罕区","community":"景馨家园二区（除3号楼）","full_address":"内蒙古自治区呼和浩特市赛罕区景馨家园二区（除3号楼）","info":""}},{"type":"Feature","geometry":{"type":"Point","coordinates":[111.860283,40.718254]},"properties":{"province":"内蒙古自治区","city":"呼和浩特市","county":"赛罕区","community":"金河镇东达赖营村","full_address":"内蒙古自治区呼和浩特市赛罕区金河镇东达赖营村","info":""}},{"type":"Feature","geometry":{"type":"Point","coordinates":[111.54266,40.799762]},"properties":{"province":"内蒙古自治区","city":"呼和浩特市","county":"土默特左旗","community":"台阁牧镇碧水蓝山小区","full_address":"内蒙古自治区呼和浩特市土默特左旗台阁牧镇碧水蓝山小区","info":""}},{"type":"Feature","geometry":{"type":"Point","coordinates":[111.490601,40.569044]},"properties":{"province":"内蒙古自治区","city":"呼和浩特市","county":"土默特左旗","community":"白庙子镇旧圪太村","full_address":"内蒙古自治区呼和浩特市土默特左旗白庙子镇旧圪太村","info":""}},{"type":"Feature","geometry":{"type":"Point","coordinates":[111.54596,40.790836]},"properties":{"province":"内蒙古自治区","city":"呼和浩特市","county":"土默特左旗","community":"奇源济隆小区","full_address":"内蒙古自治区呼和浩特市土默特左旗奇源济隆小区","info":""}},{"type":"Feature","geometry":{"type":"Point","coordinates":[111.540553,40.77934]},"properties":{"province":"内蒙古自治区","city":"呼和浩特市","county":"土默特左旗","community":"公元大道小区","full_address":"内蒙古自治区呼和浩特市土默特左旗公元大道小区","info":""}},{"type":"Feature","geometry":{"type":"Point","coordinates":[111.395073,40.589653]},"properties":{"province":"内蒙古自治区","city":"呼和浩特市","county":"土默特左旗","community":"金浩区域服务中心宽城西区寿园（除5号楼）","full_address":"内蒙古自治区呼和浩特市土默特左旗金浩区域服务中心宽城西区寿园（除5号楼）","info":""}},{"type":"Feature","geometry":{"type":"Point","coordinates":[111.162338,40.726597]},"properties":{"province":"内蒙古自治区","city":"呼和浩特市","county":"土默特左旗","community":"察素齐镇职中家属院","full_address":"内蒙古自治区呼和浩特市土默特左旗察素齐镇职中家属院","info":""}},{"type":"Feature","geometry":{"type":"Point","coordinates":[110.066391,40.580532]},"properties":{"province":"内蒙古自治区","city":"包头市","county":"东河区","community":"杨圪塄街道办事处北梁新区北二区","full_address":"内蒙古自治区包头市东河区杨圪塄街道办事处北梁新区北二区","info":""}},{"type":"Feature","geometry":{"type":"Point","coordinates":[110.030251,40.5688]},"properties":{"province":"内蒙古自治区","city":"包头市","county":"东河区","community":"南门外街道办事处东官房小区7号楼","full_address":"内蒙古自治区包头市东河区南门外街道办事处东官房小区7号楼","info":""}},{"type":"Feature","geometry":{"type":"Point","coordinates":[110.014931,40.585186]},"properties":{"province":"内蒙古自治区","city":"包头市","county":"东河区","community":"东站街道办事处西五社区部分小区（东至西五街，西至西河东路，北至环城路，南至体南路）","full_address":"内蒙古自治区包头市东河区东站街道办事处西五社区部分小区（东至西五街，西至西河东路，北至环城路，南至体南路）","info":""}},{"type":"Feature","geometry":{"type":"Point","coordinates":[110.076508,40.579689]},"properties":{"province":"内蒙古自治区","city":"包头市","county":"东河区","community":"河东镇壕赖沟村（东至110国道，西至民生大街，北至110国道，南至壕赖沟村东华热电厂北墙平行届）","full_address":"内蒙古自治区包头市东河区河东镇壕赖沟村（东至110国道，西至民生大街，北至110国道，南至壕赖沟村东华热电厂北墙平行届）","info":""}},{"type":"Feature","geometry":{"type":"Point","coordinates":[109.79996,40.657478]},"properties":{"province":"内蒙古自治区","city":"包头市","county":"昆都仑区","community":"华和园2号楼","full_address":"内蒙古自治区包头市昆都仑区华和园2号楼","info":""}},{"type":"Feature","geometry":{"type":"Point","coordinates":[109.842529,40.657463]},"properties":{"province":"内蒙古自治区","city":"包头市","county":"昆都仑区","community":"苏宁雅悦A座、B座","full_address":"内蒙古自治区包头市昆都仑区苏宁雅悦A座、B座","info":""}},{"type":"Feature","geometry":{"type":"Point","coordinates":[109.829353,40.616749]},"properties":{"province":"内蒙古自治区","city":"包头市","county":"昆都仑区","community":"松石名第小区","full_address":"内蒙古自治区包头市昆都仑区松石名第小区","info":""}},{"type":"Feature","geometry":{"type":"Point","coordinates":[109.825241,40.631191]},"properties":{"province":"内蒙古自治区","city":"包头市","county":"昆都仑区","community":"东亚世纪城文芳苑小区","full_address":"内蒙古自治区包头市昆都仑区东亚世纪城文芳苑小区","info":""}},{"type":"Feature","geometry":{"type":"Point","coordinates":[109.836899,40.670322]},"properties":{"province":"内蒙古自治区","city":"包头市","county":"昆都仑区","community":"新星壹品小区瑞景4号楼","full_address":"内蒙古自治区包头市昆都仑区新星壹品小区瑞景4号楼","info":""}},{"type":"Feature","geometry":{"type":"Point","coordinates":[0,0]},"properties":{"province":"内蒙古自治区","city":"包头市","county":"昆都仑区","community":"友谊17#街坊8号楼","full_address":"内蒙古自治区包头市昆都仑区友谊17#街坊8号楼","info":""}},{"type":"Feature","geometry":{"type":"Point","coordinates":[0,0]},"properties":{"province":"内蒙古自治区","city":"包头市","county":"昆都仑区","community":"少先26#街坊894号楼","full_address":"内蒙古自治区包头市昆都仑区少先26#街坊894号楼","info":""}},{"type":"Feature","geometry":{"type":"Point","coordinates":[0,0]},"properties":{"province":"内蒙古自治区","city":"包头市","county":"昆都仑区","community":"团11#街坊广源小区5号楼","full_address":"内蒙古自治区包头市昆都仑区团11#街坊广源小区5号楼","info":""}},{"type":"Feature","geometry":{"type":"Point","coordinates":[0,0]},"properties":{"province":"内蒙古自治区","city":"包头市","county":"昆都仑区","community":"钢甲24#街坊17号楼","full_address":"内蒙古自治区包头市昆都仑区钢甲24#街坊17号楼","info":""}},{"type":"Feature","geometry":{"type":"Point","coordinates":[0,0]},"properties":{"province":"内蒙古自治区","city":"包头市","county":"昆都仑区","community":"钢38#街坊5号楼","full_address":"内蒙古自治区包头市昆都仑区钢38#街坊5号楼","info":""}},{"type":"Feature","geometry":{"type":"Point","coordinates":[109.816528,40.640591]},"properties":{"province":"内蒙古自治区","city":"包头市","county":"昆都仑区","community":"友谊19小区五区粮食局1栋","full_address":"内蒙古自治区包头市昆都仑区友谊19小区五区粮食局1栋","info":""}},{"type":"Feature","geometry":{"type":"Point","coordinates":[109.808304,40.641003]},"properties":{"province":"内蒙古自治区","city":"包头市","county":"昆都仑区","community":"禧瑞都一期14号楼","full_address":"内蒙古自治区包头市昆都仑区禧瑞都一期14号楼","info":""}},{"type":"Feature","geometry":{"type":"Point","coordinates":[0,0]},"properties":{"province":"内蒙古自治区","city":"包头市","county":"昆都仑区","community":"友谊19#街坊二区32号楼","full_address":"内蒙古自治区包头市昆都仑区友谊19#街坊二区32号楼","info":""}},{"type":"Feature","geometry":{"type":"Point","coordinates":[110.4021,41.177582]},"properties":{"province":"内蒙古自治区","city":"包头市","county":"昆都仑区","community":"南排三组西村2-19栋","full_address":"内蒙古自治区包头市昆都仑区南排三组西村2-19栋","info":""}},{"type":"Feature","geometry":{"type":"Point","coordinates":[109.809235,40.6432]},"properties":{"province":"内蒙古自治区","city":"包头市","county":"昆都仑区","community":"禧瑞都二期1号楼","full_address":"内蒙古自治区包头市昆都仑区禧瑞都二期1号楼","info":""}},{"type":"Feature","geometry":{"type":"Point","coordinates":[109.834641,40.684803]},"properties":{"province":"内蒙古自治区","city":"包头市","county":"昆都仑区","community":"阿尔丁北大街以西、番茄社区一期以东、齐贤道以南（含傲北上城北区）、文化路以北区域","full_address":"内蒙古自治区包头市昆都仑区阿尔丁北大街以西、番茄社区一期以东、齐贤道以南（含傲北上城北区）、文化路以北区域","info":""}},{"type":"Feature","geometry":{"type":"Point","coordinates":[109.845566,40.683155]},"properties":{"province":"内蒙古自治区","city":"包头市","county":"昆都仑区","community":"甲尔坝新村居住区","full_address":"内蒙古自治区包头市昆都仑区甲尔坝新村居住区","info":""}},{"type":"Feature","geometry":{"type":"Point","coordinates":[0,0]},"properties":{"province":"内蒙古自治区","city":"包头市","county":"昆都仑区","community":"友谊18#街坊114小区2栋","full_address":"内蒙古自治区包头市昆都仑区友谊18#街坊114小区2栋","info":""}},{"type":"Feature","geometry":{"type":"Point","coordinates":[109.839409,40.673351]},"properties":{"province":"内蒙古自治区","city":"包头市","county":"昆都仑区","community":"龙昱华府1号楼","full_address":"内蒙古自治区包头市昆都仑区龙昱华府1号楼","info":""}},{"type":"Feature","geometry":{"type":"Point","coordinates":[109.816284,40.6745]},"properties":{"province":"内蒙古自治区","city":"包头市","county":"昆都仑区","community":"明日星城文景苑小区(北院)5号楼","full_address":"内蒙古自治区包头市昆都仑区明日星城文景苑小区(北院)5号楼","info":""}},{"type":"Feature","geometry":{"type":"Point","coordinates":[0,0]},"properties":{"province":"内蒙古自治区","city":"包头市","county":"昆都仑区","community":"友谊23#街坊政府楼（住宅）","full_address":"内蒙古自治区包头市昆都仑区友谊23#街坊政府楼（住宅）","info":""}},{"type":"Feature","geometry":{"type":"Point","coordinates":[109.85426,40.64868]},"properties":{"province":"内蒙古自治区","city":"包头市","county":"青山区","community":"赵家营村二区12栋","full_address":"内蒙古自治区包头市青山区赵家营村二区12栋","info":""}},{"type":"Feature","geometry":{"type":"Point","coordinates":[109.87345,40.67759]},"properties":{"province":"内蒙古自治区","city":"包头市","county":"青山区","community":"富强路10号街坊","full_address":"内蒙古自治区包头市青山区富强路10号街坊","info":""}},{"type":"Feature","geometry":{"type":"Point","coordinates":[109.87287,40.67608]},"properties":{"province":"内蒙古自治区","city":"包头市","county":"青山区","community":"富强路12号街坊","full_address":"内蒙古自治区包头市青山区富强路12号街坊","info":""}},{"type":"Feature","geometry":{"type":"Point","coordinates":[109.84906,40.650398]},"properties":{"province":"内蒙古自治区","city":"包头市","county":"青山区","community":"赵家营村小西门258公寓","full_address":"内蒙古自治区包头市青山区赵家营村小西门258公寓","info":""}},{"type":"Feature","geometry":{"type":"Point","coordinates":[109.84906,40.650398]},"properties":{"province":"内蒙古自治区","city":"包头市","county":"青山区","community":"赵家营村三区5栋6号","full_address":"内蒙古自治区包头市青山区赵家营村三区5栋6号","info":""}},{"type":"Feature","geometry":{"type":"Point","coordinates":[109.84906,40.650398]},"properties":{"province":"内蒙古自治区","city":"包头市","county":"青山区","community":"赵家营村三区","full_address":"内蒙古自治区包头市青山区赵家营村三区","info":""}},{"type":"Feature","geometry":{"type":"Point","coordinates":[109.89186,40.66884]},"properties":{"province":"内蒙古自治区","city":"包头市","county":"青山区","community":"呼得木林大街7号街坊3栋","full_address":"内蒙古自治区包头市青山区呼得木林大街7号街坊3栋","info":""}},{"type":"Feature","geometry":{"type":"Point","coordinates":[109.867622,40.665482]},"properties":{"province":"内蒙古自治区","city":"包头市","county":"青山区","community":"富强路12号街坊民富新苑11栋","full_address":"内蒙古自治区包头市青山区富强路12号街坊民富新苑11栋","info":""}},{"type":"Feature","geometry":{"type":"Point","coordinates":[109.89186,40.66884]},"properties":{"province":"内蒙古自治区","city":"包头市","county":"青山区","community":"呼得木林大街7号街坊","full_address":"内蒙古自治区包头市青山区呼得木林大街7号街坊","info":""}},{"type":"Feature","geometry":{"type":"Point","coordinates":[109.84906,40.650398]},"properties":{"province":"内蒙古自治区","city":"包头市","county":"青山区","community":"赵家营村四区3栋","full_address":"内蒙古自治区包头市青山区赵家营村四区3栋","info":""}},{"type":"Feature","geometry":{"type":"Point","coordinates":[109.879555,40.650406]},"properties":{"province":"内蒙古自治区","city":"包头市","county":"青山区","community":"中环悦府5栋","full_address":"内蒙古自治区包头市青山区中环悦府5栋","info":""}},{"type":"Feature","geometry":{"type":"Point","coordinates":[109.880287,40.644543]},"properties":{"province":"内蒙古自治区","city":"包头市","county":"青山区","community":"安泰华庭小区","full_address":"内蒙古自治区包头市青山区安泰华庭小区","info":""}},{"type":"Feature","geometry":{"type":"Point","coordinates":[109.862961,40.678322]},"properties":{"province":"内蒙古自治区","city":"包头市","county":"青山区","community":"锦林花园小区","full_address":"内蒙古自治区包头市青山区锦林花园小区","info":""}},{"type":"Feature","geometry":{"type":"Point","coordinates":[109.90242,40.660416]},"properties":{"province":"内蒙古自治区","city":"包头市","county":"青山区","community":"迎宾小区1号街坊四运院","full_address":"内蒙古自治区包头市青山区迎宾小区1号街坊四运院","info":""}},{"type":"Feature","geometry":{"type":"Point","coordinates":[109.84906,40.650398]},"properties":{"province":"内蒙古自治区","city":"包头市","county":"青山区","community":"赵家营村4区","full_address":"内蒙古自治区包头市青山区赵家营村4区","info":""}},{"type":"Feature","geometry":{"type":"Point","coordinates":[109.954095,40.601773]},"properties":{"province":"内蒙古自治区","city":"包头市","county":"九原区","community":"沙河街道黄金小区","full_address":"内蒙古自治区包头市九原区沙河街道黄金小区","info":""}},{"type":"Feature","geometry":{"type":"Point","coordinates":[109.961075,40.597082]},"properties":{"province":"内蒙古自治区","city":"包头市","county":"九原区","community":"沙河街道桐荷嘉苑","full_address":"内蒙古自治区包头市九原区沙河街道桐荷嘉苑","info":""}},{"type":"Feature","geometry":{"type":"Point","coordinates":[109.970863,40.595734]},"properties":{"province":"内蒙古自治区","city":"包头市","county":"九原区","community":"沙河街道康园小区","full_address":"内蒙古自治区包头市九原区沙河街道康园小区","info":""}},{"type":"Feature","geometry":{"type":"Point","coordinates":[109.964267,40.597267]},"properties":{"province":"内蒙古自治区","city":"包头市","county":"九原区","community":"沙河街道金沙华府","full_address":"内蒙古自治区包头市九原区沙河街道金沙华府","info":""}},{"type":"Feature","geometry":{"type":"Point","coordinates":[109.954095,40.601773]},"properties":{"province":"内蒙古自治区","city":"包头市","county":"九原区","community":"沙河街道黄金佳园","full_address":"内蒙古自治区包头市九原区沙河街道黄金佳园","info":""}},{"type":"Feature","geometry":{"type":"Point","coordinates":[109.853935,40.563602]},"properties":{"province":"内蒙古自治区","city":"包头市","county":"九原区","community":"麻池镇农大新村","full_address":"内蒙古自治区包头市九原区麻池镇农大新村","info":""}},{"type":"Feature","geometry":{"type":"Point","coordinates":[109.982002,40.623489]},"properties":{"province":"内蒙古自治区","city":"包头市","county":"九原区","community":"白音席勒街道龙苑A区8号楼","full_address":"内蒙古自治区包头市九原区白音席勒街道龙苑A区8号楼","info":""}},{"type":"Feature","geometry":{"type":"Point","coordinates":[110.009941,40.635452]},"properties":{"province":"内蒙古自治区","city":"包头市","county":"九原区","community":"白音席勒街道鹿苑康城1号楼","full_address":"内蒙古自治区包头市九原区白音席勒街道鹿苑康城1号楼","info":""}},{"type":"Feature","geometry":{"type":"Point","coordinates":[109.999741,40.63287]},"properties":{"province":"内蒙古自治区","city":"包头市","county":"九原区","community":"白音席勒街道九元兴都B11、B12号楼及门前底店","full_address":"内蒙古自治区包头市九原区白音席勒街道九元兴都B11、B12号楼及门前底店","info":""}},{"type":"Feature","geometry":{"type":"Point","coordinates":[109.984161,40.583771]},"properties":{"province":"内蒙古自治区","city":"包头市","county":"九原区","community":"沙河街道北梁新区西一区","full_address":"内蒙古自治区包头市九原区沙河街道北梁新区西一区","info":""}},{"type":"Feature","geometry":{"type":"Point","coordinates":[109.981209,40.622211]},"properties":{"province":"内蒙古自治区","city":"包头市","county":"九原区","community":"白音席勒街道龙苑C区","full_address":"内蒙古自治区包头市九原区白音席勒街道龙苑C区","info":""}},{"type":"Feature","geometry":{"type":"Point","coordinates":[106.812836,39.69202]},"properties":{"province":"内蒙古自治区","city":"乌海市","county":"海勃湾区","community":"蒙西阳光丽舍A区","full_address":"内蒙古自治区乌海市海勃湾区蒙西阳光丽舍A区","info":""}},{"type":"Feature","geometry":{"type":"Point","coordinates":[106.829552,39.66774]},"properties":{"province":"内蒙古自治区","city":"乌海市","county":"海勃湾区","community":"丽日花园小区","full_address":"内蒙古自治区乌海市海勃湾区丽日花园小区","info":""}},{"type":"Feature","geometry":{"type":"Point","coordinates":[106.791763,39.659714]},"properties":{"province":"内蒙古自治区","city":"乌海市","county":"海勃湾区","community":"中山大厦公寓楼","full_address":"内蒙古自治区乌海市海勃湾区中山大厦公寓楼","info":""}},{"type":"Feature","geometry":{"type":"Point","coordinates":[106.814384,39.680874]},"properties":{"province":"内蒙古自治区","city":"乌海市","county":"海勃湾区","community":"华昌小区","full_address":"内蒙古自治区乌海市海勃湾区华昌小区","info":""}},{"type":"Feature","geometry":{"type":"Point","coordinates":[106.812958,39.680054]},"properties":{"province":"内蒙古自治区","city":"乌海市","county":"海勃湾区","community":"卧龙居小区","full_address":"内蒙古自治区乌海市海勃湾区卧龙居小区","info":""}},{"type":"Feature","geometry":{"type":"Point","coordinates":[106.813599,39.682281]},"properties":{"province":"内蒙古自治区","city":"乌海市","county":"海勃湾区","community":"锦馨园小区","full_address":"内蒙古自治区乌海市海勃湾区锦馨园小区","info":""}},{"type":"Feature","geometry":{"type":"Point","coordinates":[106.88578,39.44173]},"properties":{"province":"内蒙古自治区","city":"乌海市","county":"海南区","community":"泽园西区11号楼","full_address":"内蒙古自治区乌海市海南区泽园西区11号楼","info":""}},{"type":"Feature","geometry":{"type":"Point","coordinates":[106.821808,39.427273]},"properties":{"province":"内蒙古自治区","city":"乌海市","county":"海南区","community":"西卓子山街道办事处阿不切亥沟以南、重载公路以北、东兴养老院以西、矿山道路以东区域","full_address":"内蒙古自治区乌海市海南区西卓子山街道办事处阿不切亥沟以南、重载公路以北、东兴养老院以西、矿山道路以东区域","info":""}},{"type":"Feature","geometry":{"type":"Point","coordinates":[118.992302,42.285919]},"properties":{"province":"内蒙古自治区","city":"赤峰市","county":"红山区","community":"东城街道东城花园小区","full_address":"内蒙古自治区赤峰市红山区东城街道东城花园小区","info":""}},{"type":"Feature","geometry":{"type":"Point","coordinates":[118.99855,42.287018]},"properties":{"province":"内蒙古自治区","city":"赤峰市","county":"红山区","community":"东城街道二毛一生活区小区","full_address":"内蒙古自治区赤峰市红山区东城街道二毛一生活区小区","info":""}},{"type":"Feature","geometry":{"type":"Point","coordinates":[118.98867,42.283794]},"properties":{"province":"内蒙古自治区","city":"赤峰市","county":"红山区","community":"东城街道赤钢家属院小区2号楼","full_address":"内蒙古自治区赤峰市红山区东城街道赤钢家属院小区2号楼","info":""}},{"type":"Feature","geometry":{"type":"Point","coordinates":[118.999908,42.291641]},"properties":{"province":"内蒙古自治区","city":"赤峰市","county":"红山区","community":"东城街道润泰家园2号楼1单元","full_address":"内蒙古自治区赤峰市红山区东城街道润泰家园2号楼1单元","info":""}},{"type":"Feature","geometry":{"type":"Point","coordinates":[118.991776,42.288143]},"properties":{"province":"内蒙古自治区","city":"赤峰市","county":"红山区","community":"东城街道电线电缆厂小区1号楼1单元","full_address":"内蒙古自治区赤峰市红山区东城街道电线电缆厂小区1号楼1单元","info":""}},{"type":"Feature","geometry":{"type":"Point","coordinates":[118.98867,42.283794]},"properties":{"province":"内蒙古自治区","city":"赤峰市","county":"红山区","community":"东城街道电厂1号楼3单元","full_address":"内蒙古自治区赤峰市红山区东城街道电厂1号楼3单元","info":""}},{"type":"Feature","geometry":{"type":"Point","coordinates":[118.98703,42.267071]},"properties":{"province":"内蒙古自治区","city":"赤峰市","county":"红山区","community":"铁南街道机务段小区34号楼2单元","full_address":"内蒙古自治区赤峰市红山区铁南街道机务段小区34号楼2单元","info":""}},{"type":"Feature","geometry":{"type":"Point","coordinates":[119.000763,42.287842]},"properties":{"province":"内蒙古自治区","city":"赤峰市","county":"红山区","community":"东城街道龙景小区（除龙景小区4号楼2单元）","full_address":"内蒙古自治区赤峰市红山区东城街道龙景小区（除龙景小区4号楼2单元）","info":""}},{"type":"Feature","geometry":{"type":"Point","coordinates":[118.972382,42.283939]},"properties":{"province":"内蒙古自治区","city":"赤峰市","county":"红山区","community":"永巨街道清河园小区","full_address":"内蒙古自治区赤峰市红山区永巨街道清河园小区","info":""}},{"type":"Feature","geometry":{"type":"Point","coordinates":[120.059212,43.868572]},"properties":{"province":"内蒙古自治区","city":"赤峰市","county":"阿鲁科尔沁旗","community":"峰景新城C区1号楼","full_address":"内蒙古自治区赤峰市阿鲁科尔沁旗峰景新城C区1号楼","info":""}},{"type":"Feature","geometry":{"type":"Point","coordinates":[120.059738,43.877766]},"properties":{"province":"内蒙古自治区","city":"赤峰市","county":"阿鲁科尔沁旗","community":"御水园小区1号楼、2号楼","full_address":"内蒙古自治区赤峰市阿鲁科尔沁旗御水园小区1号楼、2号楼","info":""}},{"type":"Feature","geometry":{"type":"Point","coordinates":[120.082825,43.87429]},"properties":{"province":"内蒙古自治区","city":"赤峰市","county":"阿鲁科尔沁旗","community":"丽水欣居小区4号楼","full_address":"内蒙古自治区赤峰市阿鲁科尔沁旗丽水欣居小区4号楼","info":""}},{"type":"Feature","geometry":{"type":"Point","coordinates":[120.06556,43.87244]},"properties":{"province":"内蒙古自治区","city":"赤峰市","county":"阿鲁科尔沁旗","community":"阿鲁科尔沁旗金元风力发电有限公司","full_address":"内蒙古自治区赤峰市阿鲁科尔沁旗阿鲁科尔沁旗金元风力发电有限公司","info":""}},{"type":"Feature","geometry":{"type":"Point","coordinates":[120.074577,43.870171]},"properties":{"province":"内蒙古自治区","city":"赤峰市","county":"阿鲁科尔沁旗","community":"天元小区C区8号楼","full_address":"内蒙古自治区赤峰市阿鲁科尔沁旗天元小区C区8号楼","info":""}},{"type":"Feature","geometry":{"type":"Point","coordinates":[120.073349,43.867996]},"properties":{"province":"内蒙古自治区","city":"赤峰市","county":"阿鲁科尔沁旗","community":"仁和家园小区二期8号楼","full_address":"内蒙古自治区赤峰市阿鲁科尔沁旗仁和家园小区二期8号楼","info":""}},{"type":"Feature","geometry":{"type":"Point","coordinates":[120.088852,43.874264]},"properties":{"province":"内蒙古自治区","city":"赤峰市","county":"阿鲁科尔沁旗","community":"和平社区汇万家果蔬超市","full_address":"内蒙古自治区赤峰市阿鲁科尔沁旗和平社区汇万家果蔬超市","info":""}},{"type":"Feature","geometry":{"type":"Point","coordinates":[120.088898,43.873886]},"properties":{"province":"内蒙古自治区","city":"赤峰市","county":"阿鲁科尔沁旗","community":"和平社区利峰批发部","full_address":"内蒙古自治区赤峰市阿鲁科尔沁旗和平社区利峰批发部","info":""}},{"type":"Feature","geometry":{"type":"Point","coordinates":[120.088318,43.873581]},"properties":{"province":"内蒙古自治区","city":"赤峰市","county":"阿鲁科尔沁旗","community":"鑫和园小区（4号楼除外）","full_address":"内蒙古自治区赤峰市阿鲁科尔沁旗鑫和园小区（4号楼除外）","info":""}},{"type":"Feature","geometry":{"type":"Point","coordinates":[120.057022,43.873318]},"properties":{"province":"内蒙古自治区","city":"赤峰市","county":"阿鲁科尔沁旗","community":"百合新城二期（17号楼除外）","full_address":"内蒙古自治区赤峰市阿鲁科尔沁旗百合新城二期（17号楼除外）","info":""}},{"type":"Feature","geometry":{"type":"Point","coordinates":[120.070007,43.872723]},"properties":{"province":"内蒙古自治区","city":"赤峰市","county":"阿鲁科尔沁旗","community":"水务家园小区（1号楼除外）","full_address":"内蒙古自治区赤峰市阿鲁科尔沁旗水务家园小区（1号楼除外）","info":""}},{"type":"Feature","geometry":{"type":"Point","coordinates":[120.058357,43.877159]},"properties":{"province":"内蒙古自治区","city":"赤峰市","county":"阿鲁科尔沁旗","community":"益民家园B区","full_address":"内蒙古自治区赤峰市阿鲁科尔沁旗益民家园B区","info":""}},{"type":"Feature","geometry":{"type":"Point","coordinates":[119.872208,43.615341]},"properties":{"province":"内蒙古自治区","city":"赤峰市","county":"阿鲁科尔沁旗","community":"南至查布嘎大街、西至查布嘎体育公园东边界、东至欧沐沦路、北至房身村的塔山平房区（11胡同和13胡同除外）","full_address":"内蒙古自治区赤峰市阿鲁科尔沁旗南至查布嘎大街、西至查布嘎体育公园东边界、东至欧沐沦路、北至房身村的塔山平房区（11胡同和13胡同除外）","info":""}},{"type":"Feature","geometry":{"type":"Point","coordinates":[110.013222,40.384892]},"properties":{"province":"内蒙古自治区","city":"鄂尔多斯市","county":"达拉特旗","community":"电厂家属区16号楼1单元","full_address":"内蒙古自治区鄂尔多斯市达拉特旗电厂家属区16号楼1单元","info":""}},{"type":"Feature","geometry":{"type":"Point","coordinates":[110.014534,40.417702]},"properties":{"province":"内蒙古自治区","city":"鄂尔多斯市","county":"达拉特旗","community":"景隆佳苑小区3号楼","full_address":"内蒙古自治区鄂尔多斯市达拉特旗景隆佳苑小区3号楼","info":""}},{"type":"Feature","geometry":{"type":"Point","coordinates":[110.003059,40.391312]},"properties":{"province":"内蒙古自治区","city":"鄂尔多斯市","county":"达拉特旗","community":"锦华园小区","full_address":"内蒙古自治区鄂尔多斯市达拉特旗锦华园小区","info":""}},{"type":"Feature","geometry":{"type":"Point","coordinates":[111.224007,39.851082]},"properties":{"province":"内蒙古自治区","city":"鄂尔多斯市","county":"准格尔旗","community":"迎泽街道大诚祥云小区","full_address":"内蒙古自治区鄂尔多斯市准格尔旗迎泽街道大诚祥云小区","info":""}},{"type":"Feature","geometry":{"type":"Point","coordinates":[111.358429,39.576542]},"properties":{"province":"内蒙古自治区","city":"鄂尔多斯市","county":"准格尔旗","community":"魏家峁镇全域（除青春塔煤矿区域）","full_address":"内蒙古自治区鄂尔多斯市准格尔旗魏家峁镇全域（除青春塔煤矿区域）","info":""}},{"type":"Feature","geometry":{"type":"Point","coordinates":[108.731247,39.83456]},"properties":{"province":"内蒙古自治区","city":"鄂尔多斯市","county":"杭锦旗","community":"益尚客综合楼（日月轩G1区）外围底商","full_address":"内蒙古自治区鄂尔多斯市杭锦旗益尚客综合楼（日月轩G1区）外围底商","info":""}},{"type":"Feature","geometry":{"type":"Point","coordinates":[117.443504,49.585438]},"properties":{"province":"内蒙古自治区","city":"呼伦贝尔市","county":"满洲里市","community":"南区街道云杉小区西区全域","full_address":"内蒙古自治区呼伦贝尔市满洲里市南区街道云杉小区西区全域","info":""}},{"type":"Feature","geometry":{"type":"Point","coordinates":[117.37836,49.59655]},"properties":{"province":"内蒙古自治区","city":"呼伦贝尔市","county":"满洲里市","community":"南区街道七十栋平房 6 组1排 13号-16号及南北两侧附属建筑物","full_address":"内蒙古自治区呼伦贝尔市满洲里市南区街道七十栋平房 6 组1排 13号-16号及南北两侧附属建筑物","info":""}},{"type":"Feature","geometry":{"type":"Point","coordinates":[107.425072,40.761242]},"properties":{"province":"内蒙古自治区","city":"巴彦淖尔市","county":"临河区","community":"新华街道河大住宅小区","full_address":"内蒙古自治区巴彦淖尔市临河区新华街道河大住宅小区","info":""}},{"type":"Feature","geometry":{"type":"Point","coordinates":[107.359093,40.748981]},"properties":{"province":"内蒙古自治区","city":"巴彦淖尔市","county":"临河区","community":"汇丰街道金秋华城B区小区","full_address":"内蒙古自治区巴彦淖尔市临河区汇丰街道金秋华城B区小区","info":""}},{"type":"Feature","geometry":{"type":"Point","coordinates":[107.398178,40.748398]},"properties":{"province":"内蒙古自治区","city":"巴彦淖尔市","county":"临河区","community":"团结街道万锦世纪城二期小区","full_address":"内蒙古自治区巴彦淖尔市临河区团结街道万锦世纪城二期小区","info":""}},{"type":"Feature","geometry":{"type":"Point","coordinates":[107.431664,40.768982]},"properties":{"province":"内蒙古自治区","city":"巴彦淖尔市","county":"临河区","community":"东环街道山河湾小区","full_address":"内蒙古自治区巴彦淖尔市临河区东环街道山河湾小区","info":""}},{"type":"Feature","geometry":{"type":"Point","coordinates":[107.386169,40.736469]},"properties":{"province":"内蒙古自治区","city":"巴彦淖尔市","county":"临河区","community":"金川街道巴彦淖尔日报社大楼","full_address":"内蒙古自治区巴彦淖尔市临河区金川街道巴彦淖尔日报社大楼","info":""}},{"type":"Feature","geometry":{"type":"Point","coordinates":[107.410973,40.755322]},"properties":{"province":"内蒙古自治区","city":"巴彦淖尔市","county":"临河区","community":"团结街道今日嘉园小区北区","full_address":"内蒙古自治区巴彦淖尔市临河区团结街道今日嘉园小区北区","info":""}},{"type":"Feature","geometry":{"type":"Point","coordinates":[107.39473,40.74559]},"properties":{"province":"内蒙古自治区","city":"巴彦淖尔市","county":"临河区","community":"西环街道四季花城小区一区","full_address":"内蒙古自治区巴彦淖尔市临河区西环街道四季花城小区一区","info":""}},{"type":"Feature","geometry":{"type":"Point","coordinates":[107.408768,40.779949]},"properties":{"province":"内蒙古自治区","city":"巴彦淖尔市","county":"临河区","community":"北环街道天地凤凰城小区北墙永宽路北平房区","full_address":"内蒙古自治区巴彦淖尔市临河区北环街道天地凤凰城小区北墙永宽路北平房区","info":""}},{"type":"Feature","geometry":{"type":"Point","coordinates":[107.4136,40.76049]},"properties":{"province":"内蒙古自治区","city":"巴彦淖尔市","county":"临河区","community":"团结街道五星花园南区","full_address":"内蒙古自治区巴彦淖尔市临河区团结街道五星花园南区","info":""}},{"type":"Feature","geometry":{"type":"Point","coordinates":[107.429306,40.760033]},"properties":{"province":"内蒙古自治区","city":"巴彦淖尔市","county":"临河区","community":"新华街道水科所家属楼","full_address":"内蒙古自治区巴彦淖尔市临河区新华街道水科所家属楼","info":""}},{"type":"Feature","geometry":{"type":"Point","coordinates":[107.429962,40.761513]},"properties":{"province":"内蒙古自治区","city":"巴彦淖尔市","county":"临河区","community":"新华街道牧招楼","full_address":"内蒙古自治区巴彦淖尔市临河区新华街道牧招楼","info":""}},{"type":"Feature","geometry":{"type":"Point","coordinates":[107.433205,40.754814]},