{"type":"FeatureCollection","features":[{"type":"Feature","geometry":{"type":"Point","coordinates":[114.462468,35.946031]},"properties":{"full_address":"河南省安阳市汤阴县古贤镇"}},{"type":"Feature","geometry":{"type":"Point","coordinates":[117.208909,39.156577]},"properties":{"full_address":"天津市市辖区河北区望海楼街万福园7号楼"}},{"type":"Feature","geometry":{"type":"Point","coordinates":[117.227101,39.16467]},"properties":{"full_address":"天津市市辖区河北区宁园街舒园里5号楼"}},{"type":"Feature","geometry":{"type":"Point","coordinates":[116.367665,40.03222]},"properties":{"full_address":"北京市市辖区丰台区玉泉营街道万柳园社区"}},{"type":"Feature","geometry":{"type":"Point","coordinates":[116.367665,40.03222]},"properties":{"full_address":"北京市市辖区丰台区新村街道怡海花园社区"}},{"type":"Feature","geometry":{"type":"Point","coordinates":[116.330798,39.831838]},"properties":{"full_address":"北京市市辖区丰台区玉泉营街道黄土岗村"}},{"type":"Feature","geometry":{"type":"Point","coordinates":[116.474288,40.003561]},"properties":{"full_address":"北京市市辖区朝阳区安贞街道安贞里三区4号楼"}},{"type":"Feature","geometry":{"type":"Point","coordinates":[119.960076,30.048692]},"properties":{"full_address":"浙江省杭州市富阳区咕甜全球母婴店（咕甜全球进口母婴生活馆）"}}]}