{"type":"FeatureCollection","features":[{"type":"Feature","geometry":{"type":"Point","coordinates":[116.43935,39.86376]},"properties":{"full_address":"北京市丰台区方庄街道紫芳园一区除7号楼的其他区域、紫芳园三区1号楼及底商"}},{"type":"Feature","geometry":{"type":"Point","coordinates":[117.270283,39.090763]},"properties":{"full_address":"天津市天津市河东区富民路街道雅仕嘉园7号楼、8号楼、17号楼、19号楼、20号楼"}},{"type":"Feature","geometry":{"type":"Point","coordinates":[117.182632,39.164143]},"properties":{"full_address":"天津市天津市河北区新开河街荣都公寓5号楼"}},{"type":"Feature","geometry":{"type":"Point","coordinates":[117.243851,39.18277]},"properties":{"full_address":"天津市天津市河北区建昌道街外环小区（除高风险区）、鑫田公寓"}},{"type":"Feature","geometry":{"type":"Point","coordinates":[117.236816,39.181171]},"properties":{"full_address":"天津市天津市河北区建昌道街新天时园(除20号楼83-85门)"}},{"type":"Feature","geometry":{"type":"Point","coordinates":[117.741409,39.032761]},"properties":{"full_address":"天津市天津市滨海新区新港街道启航嘉园除高风险区外其他区域"}},{"type":"Feature","geometry":{"type":"Point","coordinates":[117.676147,39.031612]},"properties":{"full_address":"天津市天津市滨海新区杭州道街道万科紫台一期除高风险区外其他区域"}},{"type":"Feature","geometry":{"type":"Point","coordinates":[117.615074,38.985031]},"properties":{"full_address":"天津市天津市滨海新区新城镇梁锦西苑除高风险区外其他区域"}},{"type":"Feature","geometry":{"type":"Point","coordinates":[117.59938,39.03492]},"properties":{"full_address":"天津市天津市滨海新区胡家园街道滨尚花园除10号楼外其他区域"}},{"type":"Feature","geometry":{"type":"Point","coordinates":[116.760277,38.933559]},"properties":{"full_address":"天津市天津市静海区王口镇除高风险外的其他区域"}},{"type":"Feature","geometry":{"type":"Point","coordinates":[116.829338,38.862923]},"properties":{"full_address":"天津市天津市静海区子牙新城平祥园除20号楼外其他区域"}},{"type":"Feature","geometry":{"type":"Point","coordinates":[116.922684,38.929932]},"properties":{"full_address":"天津市天津市静海区静海镇锦绣佳园7号楼"}},{"type":"Feature","geometry":{"type":"Point","coordinates":[116.93203,38.922012]},"properties":{"full_address":"天津市天津市静海区朝阳街道振农里南1号至11号和振农里北1号至22号平房区域"}},{"type":"Feature","geometry":{"type":"Point","coordinates":[116.936531,38.92955]},"properties":{"full_address":"天津市天津市静海区朝阳街道上上佳园13/14/16/19号楼、静海镇新湖公寓6/11/14号楼"}},{"type":"Feature","geometry":{"type":"Point","coordinates":[114.506927,38.044914]},"properties":{"full_address":"河北省石家庄市长安区中山东路街道勒泰A座"}},{"type":"Feature","geometry":{"type":"Point","coordinates":[117.981148,40.197281]},"properties":{"full_address":"河北省唐山市遵化市华远世纪小区其他区域"}},{"type":"Feature","geometry":{"type":"Point","coordinates":[119.639023,39.942207]},"properties":{"full_address":"河北省秦皇岛市海港区大秦铁路秦东运用车间"}},{"type":"Feature","geometry":{"type":"Point","coordinates":[119.50914,39.987831]},"properties":{"full_address":"河北省秦皇岛市海港区秦东公寓"}},{"type":"Feature","geometry":{"type":"Point","coordinates":[119.440254,39.928516]},"properties":{"full_address":"河北省秦皇岛市开发区西区深河家园（东区）"}},{"type":"Feature","geometry":{"type":"Point","coordinates":[115.3022,36.547863]},"properties":{"full_address":"河北省邯郸市馆陶县金龙建材市场"}},{"type":"Feature","geometry":{"type":"Point","coordinates":[115.24482,36.608509]},"properties":{"full_address":"河北省邯郸市馆陶县寿山寺乡西董固村"}},{"type":"Feature","geometry":{"type":"Point","coordinates":[115.2944,36.53936]},"properties":{"full_address":"河北省邯郸市馆陶县文卫街以南、政府街以北、政问胡同以东、魏征路以西区域"}},{"type":"Feature","geometry":{"type":"Point","coordinates":[115.346024,38.380753]},"properties":{"full_address":"河北省保定市安国市祁州路街道南仕庄村"}},{"type":"Feature","geometry":{"type":"Point","coordinates":[115.287773,38.378021]},"properties":{"full_address":"河北省保定市安国市祁州路街道伏村"}},{"type":"Feature","geometry":{"type":"Point","coordinates":[115.315071,38.377422]},"properties":{"full_address":"河北省保定市安国市祁州路街道东长仕村"}},{"type":"Feature","geometry":{"type":"Point","coordinates":[115.330917,38.423634]},"properties":{"full_address":"河北省保定市安国市药都街道办事处东方药城社区"}},{"type":"Feature","geometry":{"type":"Point","coordinates":[115.33709,38.432652]},"properties":{"full_address":"河北省保定市安国市药都街道办事处八五村"}},{"type":"Feature","geometry":{"type":"Point","coordinates":[115.368423,38.428532]},"properties":{"full_address":"河北省保定市安国市药都街道办事处大文村"}},{"type":"Feature","geometry":{"type":"Point","coordinates":[115.318291,38.427032]},"properties":{"full_address":"河北省保定市安国市药都街道办事处观音堂村"}},{"type":"Feature","geometry":{"type":"Point","coordinates":[115.34717,38.42592]},"properties":{"full_address":"河北省保定市安国市药都街道办事处升级工程胜利中街18号院"}},{"type":"Feature","geometry":{"type":"Point","coordinates":[115.332169,38.422913]},"properties":{"full_address":"河北省保定市安国市药都街道办事处京海花园"}},{"type":"Feature","geometry":{"type":"Point","coordinates":[115.337395,38.430862]},"properties":{"full_address":"河北省保定市安国市药都街道办事处纪念馆北路王磊超市附近区域"}},{"type":"Feature","geometry":{"type":"Point","coordinates":[115.324982,38.40382]},"properties":{"full_address":"河北省保定市安国市祁州路街道办事处丽景佳苑"}},{"type":"Feature","geometry":{"type":"Point","coordinates":[115.279289,38.448582]},"properties":{"full_address":"河北省保定市安国市北段村乡瓦子里村"}},{"type":"Feature","geometry":{"type":"Point","coordinates":[115.294701,38.470554]},"properties":{"full_address":"河北省保定市安国市北段村乡卫生院"}},{"type":"Feature","geometry":{"type":"Point","coordinates":[115.98835,39.244522]},"properties":{"full_address":"河北省保定市高碑店市新城镇除高风险区域外的其他区域"}},{"type":"Feature","geometry":{"type":"Point","coordinates":[115.904366,39.323032]},"properties":{"full_address":"河北省保定市高碑店市家兴开发区店"}},{"type":"Feature","geometry":{"type":"Point","coordinates":[115.87373,39.32658]},"properties":{"full_address":"河北省保定市高碑店市世纪广场步行街"}},{"type":"Feature","geometry":{"type":"Point","coordinates":[116.057793,39.138935]},"properties":{"full_address":"河北省保定市白沟新城万象国际小区"}},{"type":"Feature","geometry":{"type":"Point","coordinates":[116.038589,39.144501]},"properties":{"full_address":"河北省保定市白沟新城富力城小区"}},{"type":"Feature","geometry":{"type":"Point","coordinates":[114.881646,40.818232]},"properties":{"full_address":"河北省张家口市桥西区堡子里武城街步行街"}},{"type":"Feature","geometry":{"type":"Point","coordinates":[114.863007,40.830471]},"properties":{"full_address":"河北省张家口市桥西区天河桐盛小区"}},{"type":"Feature","geometry":{"type":"Point","coordinates":[115.064397,40.604536]},"properties":{"full_address":"河北省张家口市宣化区万字会南路3号院"}},{"type":"Feature","geometry":{"type":"Point","coordinates":[115.064389,40.606121]},"properties":{"full_address":"河北省张家口市宣化区万字会南路"}},{"type":"Feature","geometry":{"type":"Point","coordinates":[115.067296,40.61291]},"properties":{"full_address":"河北省张家口市宣化区天泰寺街道（牌楼西街社区、大东街社区、西城社区、按院街社区）区域"}},{"type":"Feature","geometry":{"type":"Point","coordinates":[115.348579,40.714184]},"properties":{"full_address":"河北省张家口市宣化区赵川镇黄土坡村"}},{"type":"Feature","geometry":{"type":"Point","coordinates":[114.814331,40.755821]},"properties":{"full_address":"河北省张家口市万全区110国道南旧窑子村西宏达保温防水至张家口市六洋化加油站整排路边店"}},{"type":"Feature","geometry":{"type":"Point","coordinates":[114.696671,40.739761]},"properties":{"full_address":"河北省张家口市万全区110国道南小屯堡村西星星电喷然气至大胖修理店整排路边店"}},{"type":"Feature","geometry":{"type":"Point","coordinates":[114.74055,40.76699]},"properties":{"full_address":"河北省张家口市万全区西豪丽景区域"}},{"type":"Feature","geometry":{"type":"Point","coordinates":[114.818977,40.792984]},"properties":{"full_address":"河北省张家口市万全区宣平堡乡除水泉堡村以外区域"}},{"type":"Feature","geometry":{"type":"Point","coordinates":[114.760101,40.667332]},"properties":{"full_address":"河北省张家口市怀安县左卫镇叶家房村"}},{"type":"Feature","geometry":{"type":"Point","coordinates":[114.804512,40.757725]},"properties":{"full_address":"河北省张家口市涿鹿县乐寿源食品张家口技术开发有限公司"}},{"type":"Feature","geometry":{"type":"Point","coordinates":[115.215363,40.383827]},"properties":{"full_address":"河北省张家口市涿鹿县优选宾馆及周边人民北街（轩辕中路以北、隆都路以南）"}},{"type":"Feature","geometry":{"type":"Point","coordinates":[115.210197,40.389721]},"properties":{"full_address":"河北省张家口市涿鹿县苑府路（合符大街以东、人民北街以西）"}},{"type":"Feature","geometry":{"type":"Point","coordinates":[115.575554,40.78812]},"properties":{"full_address":"河北省张家口市赤城县龙关镇福宴楼饭店"}},{"type":"Feature","geometry":{"type":"Point","coordinates":[115.578598,40.785831]},"properties":{"full_address":"河北省张家口市赤城县龙关镇益盛缘食府"}},{"type":"Feature","geometry":{"type":"Point","coordinates":[115.578598,40.785831]},"properties":{"full_address":"河北省张家口市赤城县龙关镇商业街"}},{"type":"Feature","geometry":{"type":"Point","coordinates":[115.83166,40.91295]},"properties":{"full_address":"河北省张家口市赤城县北大村区域"}},{"type":"Feature","geometry":{"type":"Point","coordinates":[115.845657,40.908241]},"properties":{"full_address":"河北省张家口市赤城县赤城镇建国东街德医堂大药房"}},{"type":"Feature","geometry":{"type":"Point","coordinates":[115.839622,40.903042]},"properties":{"full_address":"河北省张家口市赤城县赤城镇霞丰水岸小区旁施工工地"}},{"type":"Feature","geometry":{"type":"Point","coordinates":[115.85907,40.880802]},"properties":{"full_address":"河北省张家口市赤城县赤城县人民医院"}},{"type":"Feature","geometry":{"type":"Point","coordinates":[114.929788,40.690771]},"properties":{"full_address":"河北省张家口市经开区沙岭子镇屈家庄村"}},{"type":"Feature","geometry":{"type":"Point","coordinates":[114.877609,40.716892]},"properties":{"full_address":"河北省张家口市经开区姚家房镇福鑫家园小区"}},{"type":"Feature","geometry":{"type":"Point","coordinates":[114.870552,40.698189]},"properties":{"full_address":"河北省张家口市经开区姚家房镇二台子村"}},{"type":"Feature","geometry":{"type":"Point","coordinates":[114.878632,40.717171]},"properties":{"full_address":"河北省张家口市经开区姚家房村北八街第六条"}},{"type":"Feature","geometry":{"type":"Point","coordinates":[114.878632,40.717171]},"properties":{"full_address":"河北省张家口市经开区姚家房村北八街第十六条"}},{"type":"Feature","geometry":{"type":"Point","coordinates":[114.875549,40.714691]},"properties":{"full_address":"河北省张家口市经开区姚家房村福星家园小区"}},{"type":"Feature","geometry":{"type":"Point","coordinates":[114.878532,40.770851]},"properties":{"full_address":"河北省张家口市经开区超市发（北方学院店）"}},{"type":"Feature","geometry":{"type":"Point","coordinates":[114.869987,40.762402]},"properties":{"full_address":"河北省张家口市经开区超市发（丰泰亲河苑店）"}},{"type":"Feature","geometry":{"type":"Point","coordinates":[114.869987,40.762402]},"properties":{"full_address":"河北省张家口市经开区丰泰亲河苑小区底商华佗药房"}},{"type":"Feature","geometry":{"type":"Point","coordinates":[117.94348,40.97469]},"properties":{"full_address":"河北省承德市双桥区合一瑜伽馆"}},{"type":"Feature","geometry":{"type":"Point","coordinates":[117.93885,40.971012]},"properties":{"full_address":"河北省承德市双桥区张妈土豆粉店"}},{"type":"Feature","geometry":{"type":"Point","coordinates":[117.94846,40.90514]},"properties":{"full_address":"河北省承德市高新区御龙瀚府小区1号楼、2号楼、3号楼、5号楼、6号楼、7号楼、9号楼、11号楼、12号楼、13号楼、14号楼、16号楼、17号楼、18号楼"}},{"type":"Feature","geometry":{"type":"Point","coordinates":[115.9627,38.73135]},"properties":{"full_address":"河北省沧州市任丘市出岸镇百尺村"}},{"type":"Feature","geometry":{"type":"Point","coordinates":[115.928185,38.936321]},"properties":{"full_address":"河北省安新县安新县安新镇的其他村"}},{"type":"Feature","geometry":{"type":"Point","coordinates":[115.951599,38.803642]},"properties":{"full_address":"河北省安新县安新县刘李庄镇的其他村"}},{"type":"Feature","geometry":{"type":"Point","coordinates":[115.928185,38.936321]},"properties":{"full_address":"河北省安新县安新县安新镇的小西街片区内的居民小区"}},{"type":"Feature","geometry":{"type":"Point","coordinates":[112.78743,38.070553]},"properties":{"full_address":"山西省太原市阳曲县东黄水镇（大汉村、水泉沟村、西殿村、东黄水村除外）"}},{"type":"Feature","geometry":{"type":"Point","coordinates":[112.704308,38.064392]},"properties":{"full_address":"山西省太原市阳曲县黄寨镇大屯庄村"}},{"type":"Feature","geometry":{"type":"Point","coordinates":[112.720955,38.073914]},"properties":{"full_address":"山西省太原市阳曲县小屯庄村"}},{"type":"Feature","geometry":{"type":"Point","coordinates":[113.272118,40.056328]},"properties":{"full_address":"山西省大同市平城区圣雅大厦及附近小饭店"}},{"type":"Feature","geometry":{"type":"Point","coordinates":[113.219444,39.996403]},"properties":{"full_address":"山西省大同市平城区碧水云天御河湾小区"}},{"type":"Feature","geometry":{"type":"Point","coordinates":[113.260521,40.100082]},"properties":{"full_address":"山西省大同市平城区五洲帝景青年城C区"}},{"type":"Feature","geometry":{"type":"Point","coordinates":[113.304222,40.109219]},"properties":{"full_address":"山西省大同市平城区凤凰翰林别院小区"}},{"type":"Feature","geometry":{"type":"Point","coordinates":[113.269493,40.068062]},"properties":{"full_address":"山西省大同市平城区桐城怡景西苑小区"}},{"type":"Feature","geometry":{"type":"Point","coordinates":[113.353554,40.062782]},"properties":{"full_address":"山西省大同市平城区星港城小区"}},{"type":"Feature","geometry":{"type":"Point","coordinates":[113.344368,40.065235]},"properties":{"full_address":"山西省大同市平城区万汇金城小区"}},{"type":"Feature","geometry":{"type":"Point","coordinates":[113.298798,40.116329]},"properties":{"full_address":"山西省大同市平城区红卫里小区"}},{"type":"Feature","geometry":{"type":"Point","coordinates":[113.307587,40.108059]},"properties":{"full_address":"山西省大同市平城区美好家园小区"}},{"type":"Feature","geometry":{"type":"Point","coordinates":[113.347122,40.059032]},"properties":{"full_address":"山西省大同市平城区御龙庭二期小区"}},{"type":"Feature","geometry":{"type":"Point","coordinates":[113.261681,40.087589]},"properties":{"full_address":"山西省大同市平城区大秦佳苑小区"}},{"type":"Feature","geometry":{"type":"Point","coordinates":[113.286552,40.064728]},"properties":{"full_address":"山西省大同市平城区德盛嘉园小区"}},{"type":"Feature","geometry":{"type":"Point","coordinates":[113.279099,40.0732]},"properties":{"full_address":"山西省大同市平城区北馨理想城小区"}},{"type":"Feature","geometry":{"type":"Point","coordinates":[113.317032,40.11536]},"properties":{"full_address":"山西省大同市平城区观澜华府小区（南区和北区）"}},{"type":"Feature","geometry":{"type":"Point","coordinates":[113.320862,40.059673]},"properties":{"full_address":"山西省大同市平城区御河九号小区"}},{"type":"Feature","geometry":{"type":"Point","coordinates":[113.315514,40.158131]},"properties":{"full_address":"山西省大同市平城区御河十号小区"}},{"type":"Feature","geometry":{"type":"Point","coordinates":[113.354088,40.065582]},"properties":{"full_address":"山西省大同市平城区文慧东苑小区"}},{"type":"Feature","geometry":{"type":"Point","coordinates":[113.167084,40.02523]},"properties":{"full_address":"山西省大同市云冈区瑞旺园小区"}},{"type":"Feature","geometry":{"type":"Point","coordinates":[113.191818,39.563572]},"properties":{"full_address":"山西省朔州市应县新建东路以北，左沙路以南，北街、南街以东，瑞东北路以西"}},{"type":"Feature","geometry":{"type":"Point","coordinates":[113.117882,39.80479]},"properties":{"full_address":"山西省朔州市怀仁市云东街道办事处除高风险区外的其他区域"}},{"type":"Feature","geometry":{"type":"Point","coordinates":[113.111626,39.803532]},"properties":{"full_address":"山西省朔州市怀仁市云中街道办事处除高风险区外的其他区域"}},{"type":"Feature","geometry":{"type":"Point","coordinates":[113.111626,39.803532]},"properties":{"full_address":"山西省朔州市怀仁市云西街道办事处除高风险区外的其他区域"}},{"type":"Feature","geometry":{"type":"Point","coordinates":[112.709244,37.70689]},"properties":{"full_address":"山西省晋中市榆次区榆次区使赵村"}},{"type":"Feature","geometry":{"type":"Point","coordinates":[111.021751,35.024082]},"properties":{"full_address":"山西省运城市盐湖区东城办文香苑小区(槐东路)3号楼2单元和红利庄18巷"}},{"type":"Feature","geometry":{"type":"Point","coordinates":[111.004189,35.09161]},"properties":{"full_address":"山西省运城市盐湖区姚孟办壕头村中巷"}},{"type":"Feature","geometry":{"type":"Point","coordinates":[110.972214,35.044189]},"properties":{"full_address":"山西省运城市盐湖区北城办事处东留村锦绣公寓"}},{"type":"Feature","geometry":{"type":"Point","coordinates":[111.001541,35.116341]},"properties":{"full_address":"山西省运城市盐湖区北相镇古上村后巷"}},{"type":"Feature","geometry":{"type":"Point","coordinates":[111.015022,35.029953]},"properties":{"full_address":"山西省运城市盐湖区东城办中银1巷11栋楼4单元"}},{"type":"Feature","geometry":{"type":"Point","coordinates":[110.970589,35.078873]},"properties":{"full_address":"山西省运城市盐湖区姚孟办姚孟村"}},{"type":"Feature","geometry":{"type":"Point","coordinates":[111.01902,35.033257]},"properties":{"full_address":"山西省运城市盐湖区东城办槐东路逸夫小学家属院五排除外其余区域"}},{"type":"Feature","geometry":{"type":"Point","coordinates":[110.9773,35.02016]},"properties":{"full_address":"山西省运城市盐湖区西城办北方鹅业家属院"}},{"type":"Feature","geometry":{"type":"Point","coordinates":[111.005821,34.940125]},"properties":{"full_address":"山西省运城市盐湖区南城办马家窑社区银康4巷"}},{"type":"Feature","geometry":{"type":"Point","coordinates":[110.997444,35.010361]},"properties":{"full_address":"山西省运城市盐湖区南城办泰山巷除西五巷外的其余区域"}},{"type":"Feature","geometry":{"type":"Point","coordinates":[110.975143,35.02396]},"properties":{"full_address":"山西省运城市盐湖区北城办圣惠绿城1号楼4单元除外其余区域"}},{"type":"Feature","geometry":{"type":"Point","coordinates":[110.9828,35.05314]},"properties":{"full_address":"山西省运城市盐湖区北城办富康小区北六巷幸福公寓除外其余区域"}},{"type":"Feature","geometry":{"type":"Point","coordinates":[111.041664,35.105122]},"properties":{"full_address":"山西省运城市盐湖区北城办状元府6号楼"}},{"type":"Feature","geometry":{"type":"Point","coordinates":[110.972214,35.044189]},"properties":{"full_address":"山西省运城市盐湖区北城办东留村-清雅贤居"}},{"type":"Feature","geometry":{"type":"Point","coordinates":[111.000198,35.05582]},"properties":{"full_address":"山西省运城市盐湖区北城办幸福里·铂郡（南区）9号楼3单元"}},{"type":"Feature","geometry":{"type":"Point","coordinates":[110.9898,35.05265]},"properties":{"full_address":"山西省运城市盐湖区北城办怡景华庭(条山街)小区5号、8号、27号楼"}},{"type":"Feature","geometry":{"type":"Point","coordinates":[110.99218,35.036388]},"properties":{"full_address":"山西省运城市盐湖区北城办供销家苑6号楼1单元"}},{"type":"Feature","geometry":{"type":"Point","coordinates":[110.999939,35.043007]},"properties":{"full_address":"山西省运城市盐湖区北城办星河新天地5号楼1单元"}},{"type":"Feature","geometry":{"type":"Point","coordinates":[111.003891,35.04549]},"properties":{"full_address":"山西省运城市盐湖区北城办原王庄村富源路冯府公寓"}},{"type":"Feature","geometry":{"type":"Point","coordinates":[110.99817,35.01505]},"properties":{"full_address":"山西省运城市盐湖区中城办特运公司南楼一单元"}},{"type":"Feature","geometry":{"type":"Point","coordinates":[111.045288,35.108028]},"properties":{"full_address":"山西省运城市盐湖区姚孟办金悦华府小区（西区）"}},{"type":"Feature","geometry":{"type":"Point","coordinates":[110.967911,35.07893]},"properties":{"full_address":"山西省运城市盐湖区姚孟办吉祥苑小区"}},{"type":"Feature","geometry":{"type":"Point","coordinates":[111.037102,35.031643]},"properties":{"full_address":"山西省运城市盐湖区安邑办天泰·金水湾除（8号1单元、4号楼2单元）以外的其他区域"}},{"type":"Feature","geometry":{"type":"Point","coordinates":[111.03878,35.06509]},"properties":{"full_address":"山西省运城市盐湖区安邑办国澳电梯毅身减肥基地宿舍楼除外其余区域"}},{"type":"Feature","geometry":{"type":"Point","coordinates":[111.0307,35.07981]},"properties":{"full_address":"山西省运城市盐湖区安邑办大市北村三组东二巷除外其余区域"}},{"type":"Feature","geometry":{"type":"Point","coordinates":[111.03878,35.06509]},"properties":{"full_address":"山西省运城市盐湖区安邑办下王村一组和三组（西后巷）除外其余区域"}},{"type":"Feature","geometry":{"type":"Point","coordinates":[111.029823,35.091228]},"properties":{"full_address":"山西省运城市盐湖区安邑办东站嘉园10号楼"}},{"type":"Feature","geometry":{"type":"Point","coordinates":[111.076988,35.095112]},"properties":{"full_address":"山西省运城市盐湖区安邑办梅林新村小区1号楼"}},{"type":"Feature","geometry":{"type":"Point","coordinates":[111.04111,35.10541]},"properties":{"full_address":"山西省运城市盐湖区安邑办颐贤园3号楼"}},{"type":"Feature","geometry":{"type":"Point","coordinates":[110.970642,35.015263]},"properties":{"full_address":"山西省运城市盐湖区大渠办富源新城北区10号楼"}},{"type":"Feature","geometry":{"type":"Point","coordinates":[110.959641,35.098351]},"properties":{"full_address":"山西省运城市盐湖区北相镇国韵天域小区独楼5单元"}},{"type":"Feature","geometry":{"type":"Point","coordinates":[111.062508,35.105751]},"properties":{"full_address":"山西省运城市盐湖区陶村镇万象华城3号楼"}},{"type":"Feature","geometry":{"type":"Point","coordinates":[111.506409,36.095379]},"properties":{"full_address":"山西省临汾市尧都区临汾经济开发区滨河办事处后楼底社区玉秀湾小区西区5号楼、8号楼"}},{"type":"Feature","geometry":{"type":"Point","coordinates":[111.458702,36.125141]},"properties":{"full_address":"山西省临汾市尧都区尧都区刘村镇刘北村"}},{"type":"Feature","geometry":{"type":"Point","coordinates":[111.533104,36.11898]},"properties":{"full_address":"山西省临汾市尧都区屯里镇润泽园社区润泽园小区"}},{"type":"Feature","geometry":{"type":"Point","coordinates":[111.671725,40.86325]},"properties":{"full_address":"内蒙古自治区呼和浩特市新城区交通家园小区"}},{"type":"Feature","geometry":{"type":"Point","coordinates":[111.70113,40.844453]},"properties":{"full_address":"内蒙古自治区呼和浩特市新城区丽苑阳光城小区"}},{"type":"Feature","geometry":{"type":"Point","coordinates":[111.67246,40.816052]},"properties":{"full_address":"内蒙古自治区呼和浩特市新城区团结巷人事厅宿舍"}},{"type":"Feature","geometry":{"type":"Point","coordinates":[111.72431,40.834795]},"properties":{"full_address":"内蒙古自治区呼和浩特市新城区鸿盛工业园区威尔浪工厂店及院内公寓"}},{"type":"Feature","geometry":{"type":"Point","coordinates":[111.661205,40.844571]},"properties":{"full_address":"内蒙古自治区呼和浩特市新城区供电局住宅楼"}},{"type":"Feature","geometry":{"type":"Point","coordinates":[111.684514,40.869396]},"properties":{"full_address":"内蒙古自治区呼和浩特市新城区通和小区"}},{"type":"Feature","geometry":{"type":"Point","coordinates":[111.749345,40.861456]},"properties":{"full_address":"内蒙古自治区呼和浩特市新城区衡达丁香河畔"}},{"type":"Feature","geometry":{"type":"Point","coordinates":[111.70731,40.836566]},"properties":{"full_address":"内蒙古自治区呼和浩特市新城区呼哈路水泥厂宿舍"}},{"type":"Feature","geometry":{"type":"Point","coordinates":[111.706256,40.899953]},"properties":{"full_address":"内蒙古自治区呼和浩特市新城区水泥厂鹰翔小区"}},{"type":"Feature","geometry":{"type":"Point","coordinates":[111.790192,40.922221]},"properties":{"full_address":"内蒙古自治区呼和浩特市新城区榆树沟村"}},{"type":"Feature","geometry":{"type":"Point","coordinates":[111.666354,40.843616]},"properties":{"full_address":"内蒙古自治区呼和浩特市新城区华新小区"}},{"type":"Feature","geometry":{"type":"Point","coordinates":[111.692234,40.856735]},"properties":{"full_address":"内蒙古自治区呼和浩特市新城区5303小区"}},{"type":"Feature","geometry":{"type":"Point","coordinates":[111.70119,40.860199]},"properties":{"full_address":"内蒙古自治区呼和浩特市新城区圣廷小区"}},{"type":"Feature","geometry":{"type":"Point","coordinates":[111.691399,40.842815]},"properties":{"full_address":"内蒙古自治区呼和浩特市新城区公路工程处家属院"}},{"type":"Feature","geometry":{"type":"Point","coordinates":[111.69806,40.837317]},"properties":{"full_address":"内蒙古自治区呼和浩特市新城区鼎盛华世纪广场公寓楼"}},{"type":"Feature","geometry":{"type":"Point","coordinates":[111.742095,40.867685]},"properties":{"full_address":"内蒙古自治区呼和浩特市新城区舜和慢城"}},{"type":"Feature","geometry":{"type":"Point","coordinates":[111.665544,40.858289]},"properties":{"full_address":"内蒙古自治区呼和浩特市新城区科协宿舍楼"}},{"type":"Feature","geometry":{"type":"Point","coordinates":[111.673357,40.813964]},"properties":{"full_address":"内蒙古自治区呼和浩特市新城区内蒙古医院家属院"}},{"type":"Feature","geometry":{"type":"Point","coordinates":[111.740825,40.877757]},"properties":{"full_address":"内蒙古自治区呼和浩特市新城区华润置地幸福里2号楼"}},{"type":"Feature","geometry":{"type":"Point","coordinates":[111.660131,40.829001]},"properties":{"full_address":"内蒙古自治区呼和浩特市新城区金太广场2号楼"}},{"type":"Feature","geometry":{"type":"Point","coordinates":[111.677702,40.839498]},"properties":{"full_address":"内蒙古自治区呼和浩特市新城区凤凰新城小区(除12号楼)"}},{"type":"Feature","geometry":{"type":"Point","coordinates":[111.653183,40.848202]},"properties":{"full_address":"内蒙古自治区呼和浩特市新城区天府花园(除22号楼)"}},{"type":"Feature","geometry":{"type":"Point","coordinates":[111.717595,40.836826]},"properties":{"full_address":"内蒙古自治区呼和浩特市新城区预制厂小区（除5号楼）"}},{"type":"Feature","geometry":{"type":"Point","coordinates":[111.659561,40.832821]},"properties":{"full_address":"内蒙古自治区呼和浩特市新城区道北5小区（除工程5号楼）"}},{"type":"Feature","geometry":{"type":"Point","coordinates":[111.651294,40.85633]},"properties":{"full_address":"内蒙古自治区呼和浩特市新城区维多利橄榄城（除6号楼、11号楼）"}},{"type":"Feature","geometry":{"type":"Point","coordinates":[111.679985,40.872517]},"properties":{"full_address":"内蒙古自治区呼和浩特市新城区团校巷宿舍楼（除2号楼）"}},{"type":"Feature","geometry":{"type":"Point","coordinates":[111.698868,40.832932]},"properties":{"full_address":"内蒙古自治区呼和浩特市新城区城建小区（除16号楼）"}},{"type":"Feature","geometry":{"type":"Point","coordinates":[111.676659,40.825119]},"properties":{"full_address":"内蒙古自治区呼和浩特市新城区财院西小区（西院）（除2号楼）"}},{"type":"Feature","geometry":{"type":"Point","coordinates":[111.719063,40.836548]},"properties":{"full_address":"内蒙古自治区呼和浩特市新城区电建二公司家属楼"}},{"type":"Feature","geometry":{"type":"Point","coordinates":[111.686104,40.824791]},"properties":{"full_address":"内蒙古自治区呼和浩特市新城区公安厅小区统建楼（除2号楼、3号楼）"}},{"type":"Feature","geometry":{"type":"Point","coordinates":[111.667305,40.854332]},"properties":{"full_address":"内蒙古自治区呼和浩特市新城区琦琳北辰小区（除1号楼）"}},{"type":"Feature","geometry":{"type":"Point","coordinates":[111.683693,40.853432]},"properties":{"full_address":"内蒙古自治区呼和浩特市新城区公园世家小区（除3号楼）"}},{"type":"Feature","geometry":{"type":"Point","coordinates":[111.649048,40.850849]},"properties":{"full_address":"内蒙古自治区呼和浩特市新城区公主花园小区（除13号楼）"}},{"type":"Feature","geometry":{"type":"Point","coordinates":[111.71553,40.837791]},"properties":{"full_address":"内蒙古自治区呼和浩特市新城区芳汀花园（除8号楼）"}},{"type":"Feature","geometry":{"type":"Point","coordinates":[111.709244,40.834064]},"properties":{"full_address":"内蒙古自治区呼和浩特市新城区金都园B座（除2号楼）"}},{"type":"Feature","geometry":{"type":"Point","coordinates":[111.675018,40.841503]},"properties":{"full_address":"内蒙古自治区呼和浩特市新城区八一小区（除11号楼、22号楼、26号楼）"}},{"type":"Feature","geometry":{"type":"Point","coordinates":[111.65358,40.829342]},"properties":{"full_address":"内蒙古自治区呼和浩特市新城区石油小区"}},{"type":"Feature","geometry":{"type":"Point","coordinates":[111.65965,40.807941]},"properties":{"full_address":"内蒙古自治区呼和浩特市回民区新民街心月家园西区"}},{"type":"Feature","geometry":{"type":"Point","coordinates":[111.63791,40.848585]},"properties":{"full_address":"内蒙古自治区呼和浩特市回民区恒大翡翠华庭铂郡"}},{"type":"Feature","geometry":{"type":"Point","coordinates":[111.605578,40.854688]},"properties":{"full_address":"内蒙古自治区呼和浩特市回民区依山北岸"}},{"type":"Feature","geometry":{"type":"Point","coordinates":[111.661578,40.814243]},"properties":{"full_address":"内蒙古自治区呼和浩特市回民区文化宫路西巷祥和花园南院及文化宫路西巷"}},{"type":"Feature","geometry":{"type":"Point","coordinates":[111.631123,40.847718]},"properties":{"full_address":"内蒙古自治区呼和浩特市回民区梦溪苑小区"}},{"type":"Feature","geometry":{"type":"Point","coordinates":[111.630716,40.80642]},"properties":{"full_address":"内蒙古自治区呼和浩特市回民区香槟美景"}},{"type":"Feature","geometry":{"type":"Point","coordinates":[111.617654,40.811466]},"properties":{"full_address":"内蒙古自治区呼和浩特市回民区呼钢家属院"}},{"type":"Feature","geometry":{"type":"Point","coordinates":[111.637037,40.821554]},"properties":{"full_address":"内蒙古自治区呼和浩特市回民区一鑫康乐苑"}},{"type":"Feature","geometry":{"type":"Point","coordinates":[111.665638,40.817209]},"properties":{"full_address":"内蒙古自治区呼和浩特市回民区防疫站小区"}},{"type":"Feature","geometry":{"type":"Point","coordinates":[111.617938,40.794669]},"properties":{"full_address":"内蒙古自治区呼和浩特市回民区丽和阳光城小区"}},{"type":"Feature","geometry":{"type":"Point","coordinates":[111.644793,40.819232]},"properties":{"full_address":"内蒙古自治区呼和浩特市回民区彤辉小区"}},{"type":"Feature","geometry":{"type":"Point","coordinates":[111.658655,40.805693]},"properties":{"full_address":"内蒙古自治区呼和浩特市回民区城市之光"}},{"type":"Feature","geometry":{"type":"Point","coordinates":[111.607103,40.830662]},"properties":{"full_address":"内蒙古自治区呼和浩特市回民区万达华府"}},{"type":"Feature","geometry":{"type":"Point","coordinates":[111.619462,40.810238]},"properties":{"full_address":"内蒙古自治区呼和浩特市回民区特竑社区特竑小区"}},{"type":"Feature","geometry":{"type":"Point","coordinates":[111.605351,40.819898]},"properties":{"full_address":"内蒙古自治区呼和浩特市回民区草原明珠南区"}},{"type":"Feature","geometry":{"type":"Point","coordinates":[111.630803,40.837637]},"properties":{"full_address":"内蒙古自治区呼和浩特市回民区城发绿园小区1期"}},{"type":"Feature","geometry":{"type":"Point","coordinates":[111.642204,40.840504]},"properties":{"full_address":"内蒙古自治区呼和浩特市回民区盛泰雅园"}},{"type":"Feature","geometry":{"type":"Point","coordinates":[111.635095,40.801181]},"properties":{"full_address":"内蒙古自治区呼和浩特市回民区艾博龙园B区"}},{"type":"Feature","geometry":{"type":"Point","coordinates":[111.657419,40.819748]},"properties":{"full_address":"内蒙古自治区呼和浩特市回民区水文队小区"}},{"type":"Feature","geometry":{"type":"Point","coordinates":[111.623692,40.808608]},"properties":{"full_address":"内蒙古自治区呼和浩特市回民区京蒙大院"}},{"type":"Feature","geometry":{"type":"Point","coordinates":[111.595586,40.833207]},"properties":{"full_address":"内蒙古自治区呼和浩特市回民区建筑学校家属楼"}},{"type":"Feature","geometry":{"type":"Point","coordinates":[111.62787,40.803014]},"properties":{"full_address":"内蒙古自治区呼和浩特市回民区冠丰家园二期"}},{"type":"Feature","geometry":{"type":"Point","coordinates":[111.610559,40.815014]},"properties":{"full_address":"内蒙古自治区呼和浩特市回民区盐站家属楼"}},{"type":"Feature","geometry":{"type":"Point","coordinates":[111.667675,40.812542]},"properties":{"full_address":"内蒙古自治区呼和浩特市回民区市委六号院"}},{"type":"Feature","geometry":{"type":"Point","coordinates":[111.650528,40.834041]},"properties":{"full_address":"内蒙古自治区呼和浩特市回民区水利学校家属院"}},{"type":"Feature","geometry":{"type":"Point","coordinates":[111.597426,40.792403]},"properties":{"full_address":"内蒙古自治区呼和浩特市回民区时代华城"}},{"type":"Feature","geometry":{"type":"Point","coordinates":[111.658381,40.811744]},"properties":{"full_address":"内蒙古自治区呼和浩特市回民区祥和二区"}},{"type":"Feature","geometry":{"type":"Point","coordinates":[111.59267,40.79388]},"properties":{"full_address":"内蒙古自治区呼和浩特市回民区康顺家园小区"}},{"type":"Feature","geometry":{"type":"Point","coordinates":[111.664498,40.813782]},"properties":{"full_address":"内蒙古自治区呼和浩特市回民区供销社家属院"}},{"type":"Feature","geometry":{"type":"Point","coordinates":[111.636107,40.807161]},"properties":{"full_address":"内蒙古自治区呼和浩特市回民区桃源水榭北区"}},{"type":"Feature","geometry":{"type":"Point","coordinates":[111.618821,40.801159]},"properties":{"full_address":"内蒙古自治区呼和浩特市回民区桃源水榭2期"}},{"type":"Feature","geometry":{"type":"Point","coordinates":[111.651288,40.842992]},"properties":{"full_address":"内蒙古自治区呼和浩特市回民区凯恩小区"}},{"type":"Feature","geometry":{"type":"Point","coordinates":[111.630803,40.837637]},"properties":{"full_address":"内蒙古自治区呼和浩特市回民区城发绿园小区2期"}},{"type":"Feature","geometry":{"type":"Point","coordinates":[111.633583,40.826518]},"properties":{"full_address":"内蒙古自治区呼和浩特市回民区阳光宜居小区"}},{"type":"Feature","geometry":{"type":"Point","coordinates":[111.660044,40.805878]},"properties":{"full_address":"内蒙古自治区呼和浩特市回民区世纪御园"}},{"type":"Feature","geometry":{"type":"Point","coordinates":[111.600581,40.826695]},"properties":{"full_address":"内蒙古自治区呼和浩特市回民区青城美墅时代天骄"}},{"type":"Feature","geometry":{"type":"Point","coordinates":[111.636192,40.802036]},"properties":{"full_address":"内蒙古自治区呼和浩特市回民区艾博龙园小区A区"}},{"type":"Feature","geometry":{"type":"Point","coordinates":[111.62664,40.837086]},"properties":{"full_address":"内蒙古自治区呼和浩特市回民区水泉文苑"}},{"type":"Feature","geometry":{"type":"Point","coordinates":[111.667844,40.81801]},"properties":{"full_address":"内蒙古自治区呼和浩特市回民区振华广场简易2层工人宿舍"}},{"type":"Feature","geometry":{"type":"Point","coordinates":[111.641071,40.835913]},"properties":{"full_address":"内蒙古自治区呼和浩特市回民区昌盛小区"}},{"type":"Feature","geometry":{"type":"Point","coordinates":[111.640617,40.820814]},"properties":{"full_address":"内蒙古自治区呼和浩特市回民区探矿小区"}},{"type":"Feature","geometry":{"type":"Point","coordinates":[111.6456,40.805406]},"properties":{"full_address":"内蒙古自治区呼和浩特市回民区艾博银河港湾"}},{"type":"Feature","geometry":{"type":"Point","coordinates":[111.645785,40.804632]},"properties":{"full_address":"内蒙古自治区呼和浩特市回民区县府家园"}},{"type":"Feature","geometry":{"type":"Point","coordinates":[111.646115,40.839951]},"properties":{"full_address":"内蒙古自治区呼和浩特市回民区清怡花苑住宅小区"}},{"type":"Feature","geometry":{"type":"Point","coordinates":[111.648156,40.815128]},"properties":{"full_address":"内蒙古自治区呼和浩特市回民区九德阳光商铺及水岸世纪西区"}},{"type":"Feature","geometry":{"type":"Point","coordinates":[111.64105,40.802331]},"properties":{"full_address":"内蒙古自治区呼和浩特市回民区众惠家园"}},{"type":"Feature","geometry":{"type":"Point","coordinates":[111.657551,40.813091]},"properties":{"full_address":"内蒙古自治区呼和浩特市回民区翔宇花园"}},{"type":"Feature","geometry":{"type":"Point","coordinates":[111.632353,40.849258]},"properties":{"full_address":"内蒙古自治区呼和浩特市回民区乾沁园"}},{"type":"Feature","geometry":{"type":"Point","coordinates":[111.66944,40.815014]},"properties":{"full_address":"内蒙古自治区呼和浩特市回民区供电小区(西区)"}},{"type":"Feature","geometry":{"type":"Point","coordinates":[111.608762,40.849225]},"properties":{"full_address":"内蒙古自治区呼和浩特市回民区厂汉板村北郊陵园平房区"}},{"type":"Feature","geometry":{"type":"Point","coordinates":[111.646102,40.841826]},"properties":{"full_address":"内蒙古自治区呼和浩特市回民区清和佳园16号楼"}},{"type":"Feature","geometry":{"type":"Point","coordinates":[111.614008,40.828727]},"properties":{"full_address":"内蒙古自治区呼和浩特市回民区明珠丽景东区2号楼"}},{"type":"Feature","geometry":{"type":"Point","coordinates":[111.642337,40.844367]},"properties":{"full_address":"内蒙古自治区呼和浩特市回民区府都花园"}},{"type":"Feature","geometry":{"type":"Point","coordinates":[111.641289,40.8456]},"properties":{"full_address":"内蒙古自治区呼和浩特市回民区塔布板村(除塔布板住宅小区)"}},{"type":"Feature","geometry":{"type":"Point","coordinates":[111.639519,40.849014]},"properties":{"full_address":"内蒙古自治区呼和浩特市回民区广龙苑小区17号楼"}},{"type":"Feature","geometry":{"type":"Point","coordinates":[111.670774,40.813618]},"properties":{"full_address":"内蒙古自治区呼和浩特市回民区海亮社区誉峰3号楼"}},{"type":"Feature","geometry":{"type":"Point","coordinates":[111.659292,40.826147]},"properties":{"full_address":"内蒙古自治区呼和浩特市回民区内三建平房"}},{"type":"Feature","geometry":{"type":"Point","coordinates":[111.614835,40.808482]},"properties":{"full_address":"内蒙古自治区呼和浩特市回民区光明城小区3号楼"}},{"type":"Feature","geometry":{"type":"Point","coordinates":[111.623692,40.808608]},"properties":{"full_address":"内蒙古自治区呼和浩特市回民区海西社区燃料南楼"}},{"type":"Feature","geometry":{"type":"Point","coordinates":[111.639519,40.849014]},"properties":{"full_address":"内蒙古自治区呼和浩特市回民区广龙苑小区（除17号楼）"}},{"type":"Feature","geometry":{"type":"Point","coordinates":[111.616264,40.809315]},"properties":{"full_address":"内蒙古自治区呼和浩特市回民区光明城小区（除3号楼）"}},{"type":"Feature","geometry":{"type":"Point","coordinates":[111.636513,40.806999]},"properties":{"full_address":"内蒙古自治区呼和浩特市回民区桃源水榭一期南区3号楼"}},{"type":"Feature","geometry":{"type":"Point","coordinates":[111.586911,40.827072]},"properties":{"full_address":"内蒙古自治区呼和浩特市回民区中铁诺德龙湾四地块2号楼"}},{"type":"Feature","geometry":{"type":"Point","coordinates":[111.637794,40.806313]},"properties":{"full_address":"内蒙古自治区呼和浩特市回民区桃源水榭南区（除3号楼）"}},{"type":"Feature","geometry":{"type":"Point","coordinates":[111.670502,40.8125]},"properties":{"full_address":"内蒙古自治区呼和浩特市回民区海亮名门（除11号楼）"}},{"type":"Feature","geometry":{"type":"Point","coordinates":[111.636375,40.814335]},"properties":{"full_address":"内蒙古自治区呼和浩特市回民区家和小区（除4号楼）"}},{"type":"Feature","geometry":{"type":"Point","coordinates":[111.584641,40.835499]},"properties":{"full_address":"内蒙古自治区呼和浩特市回民区塞外安康新居（除10号楼)"}},{"type":"Feature","geometry":{"type":"Point","coordinates":[111.587036,40.827038]},"properties":{"full_address":"内蒙古自治区呼和浩特市回民区中铁诺德龙湾四地块（除2号楼）"}},{"type":"Feature","geometry":{"type":"Point","coordinates":[111.650284,40.821022]},"properties":{"full_address":"内蒙古自治区呼和浩特市回民区浩鑫丽景苑小区（除2号楼）"}},{"type":"Feature","geometry":{"type":"Point","coordinates":[111.634903,40.8134]},"properties":{"full_address":"内蒙古自治区呼和浩特市回民区呼钢小区(除12号楼）"}},{"type":"Feature","geometry":{"type":"Point","coordinates":[111.676727,40.800129]},"properties":{"full_address":"内蒙古自治区呼和浩特市回民区电厂宿舍楼（除14号楼）"}},{"type":"Feature","geometry":{"type":"Point","coordinates":[111.644272,40.838249]},"properties":{"full_address":"内蒙古自治区呼和浩特市回民区昌盛家园"}},{"type":"Feature","geometry":{"type":"Point","coordinates":[111.602753,40.839661]},"properties":{"full_address":"内蒙古自治区呼和浩特市回民区大天森林小区"}},{"type":"Feature","geometry":{"type":"Point","coordinates":[111.625587,40.804062]},"properties":{"full_address":"内蒙古自治区呼和浩特市回民区锦泽园小区"}},{"type":"Feature","geometry":{"type":"Point","coordinates":[111.618004,40.793457]},"properties":{"full_address":"内蒙古自治区呼和浩特市回民区金苑小区"}},{"type":"Feature","geometry":{"type":"Point","coordinates":[111.588593,40.83194]},"properties":{"full_address":"内蒙古自治区呼和浩特市回民区东乌素图旧村"}},{"type":"Feature","geometry":{"type":"Point","coordinates":[111.60713,40.84041]},"properties":{"full_address":"内蒙古自治区呼和浩特市回民区新西蓝小区北区"}},{"type":"Feature","geometry":{"type":"Point","coordinates":[111.640892,40.837563]},"properties":{"full_address":"内蒙古自治区呼和浩特市回民区阀门厂小区"}},{"type":"Feature","geometry":{"type":"Point","coordinates":[111.640999,40.817841]},"properties":{"full_address":"内蒙古自治区呼和浩特市回民区金园社区铁路小区"}},{"type":"Feature","geometry":{"type":"Point","coordinates":[111.647644,40.848766]},"properties":{"full_address":"内蒙古自治区呼和浩特市回民区呼运花园"}},{"type":"Feature","geometry":{"type":"Point","coordinates":[111.638092,40.796658]},"properties":{"full_address":"内蒙古自治区呼和浩特市回民区水润嘉苑"}},{"type":"Feature","geometry":{"type":"Point","coordinates":[111.638801,40.75998]},"properties":{"full_address":"内蒙古自治区呼和浩特市玉泉区荣盛楠湖郦舍"}},{"type":"Feature","geometry":{"type":"Point","coordinates":[111.621985,40.788888]},"properties":{"full_address":"内蒙古自治区呼和浩特市玉泉区康居家园"}},{"type":"Feature","geometry":{"type":"Point","coordinates":[111.653602,40.78053]},"properties":{"full_address":"内蒙古自治区呼和浩特市玉泉区塞外名苑"}},{"type":"Feature","geometry":{"type":"Point","coordinates":[111.67845,40.796107]},"properties":{"full_address":"内蒙古自治区呼和浩特市玉泉区金宇新天地"}},{"type":"Feature","geometry":{"type":"Point","coordinates":[111.626923,40.765962]},"properties":{"full_address":"内蒙古自治区呼和浩特市玉泉区世纪新村"}},{"type":"Feature","geometry":{"type":"Point","coordinates":[111.674985,40.766284]},"properties":{"full_address":"内蒙古自治区呼和浩特市玉泉区世源佳境"}},{"type":"Feature","geometry":{"type":"Point","coordinates":[111.681262,40.749647]},"properties":{"full_address":"内蒙古自治区呼和浩特市玉泉区大盛魁文创园2期南区"}},{"type":"Feature","geometry":{"type":"Point","coordinates":[111.679953,40.776422]},"properties":{"full_address":"内蒙古自治区呼和浩特市玉泉区万锦融城"}},{"type":"Feature","geometry":{"type":"Point","coordinates":[111.657189,40.791609]},"properties":{"full_address":"内蒙古自治区呼和浩特市玉泉区钢管厂巷建北楼"}},{"type":"Feature","geometry":{"type":"Point","coordinates":[111.657189,40.791609]},"properties":{"full_address":"内蒙古自治区呼和浩特市玉泉区钢管厂巷建南楼"}},{"type":"Feature","geometry":{"type":"Point","coordinates":[111.653696,40.7743]},"properties":{"full_address":"内蒙古自治区呼和浩特市玉泉区食府花园小区"}},{"type":"Feature","geometry":{"type":"Point","coordinates":[111.633875,40.793175]},"properties":{"full_address":"内蒙古自治区呼和浩特市玉泉区和兴家园"}},{"type":"Feature","geometry":{"type":"Point","coordinates":[111.680528,40.77172]},"properties":{"full_address":"内蒙古自治区呼和浩特市玉泉区万锦花语岸"}},{"type":"Feature","geometry":{"type":"Point","coordinates":[111.666787,40.692831]},"properties":{"full_address":"内蒙古自治区呼和浩特市玉泉区达赖庄村"}},{"type":"Feature","geometry":{"type":"Point","coordinates":[111.18201,40.272644]},"properties":{"full_address":"内蒙古自治区呼和浩特市玉泉区金河社区"}},{"type":"Feature","geometry":{"type":"Point","coordinates":[111.661728,40.799181]},"properties":{"full_address":"内蒙古自治区呼和浩特市玉泉区泓博花园"}},{"type":"Feature","geometry":{"type":"Point","coordinates":[111.687074,40.775968]},"properties":{"full_address":"内蒙古自治区呼和浩特市玉泉区秋实璟峯汇3号楼，A座、B座"}},{"type":"Feature","geometry":{"type":"Point","coordinates":[111.673881,40.753655]},"properties":{"full_address":"内蒙古自治区呼和浩特市玉泉区福缘名居5号楼"}},{"type":"Feature","geometry":{"type":"Point","coordinates":[111.693641,40.733702]},"properties":{"full_address":"内蒙古自治区呼和浩特市玉泉区天颐尚居B1号楼"}},{"type":"Feature","geometry":{"type":"Point","coordinates":[111.665435,40.798913]},"properties":{"full_address":"内蒙古自治区呼和浩特市玉泉区五里营东小区"}},{"type":"Feature","geometry":{"type":"Point","coordinates":[111.678345,40.779458]},"properties":{"full_address":"内蒙古自治区呼和浩特市玉泉区闻都世界城(除18A)"}},{"type":"Feature","geometry":{"type":"Point","coordinates":[111.644009,40.785418]},"properties":{"full_address":"内蒙古自治区呼和浩特市玉泉区恒奥世纪华府5号楼"}},{"type":"Feature","geometry":{"type":"Point","coordinates":[111.650452,40.786953]},"properties":{"full_address":"内蒙古自治区呼和浩特市玉泉区西菜园东源村"}},{"type":"Feature","geometry":{"type":"Point","coordinates":[111.658684,40.800179]},"properties":{"full_address":"内蒙古自治区呼和浩特市玉泉区小召前街兴盛苑小区8号楼"}},{"type":"Feature","geometry":{"type":"Point","coordinates":[111.660771,40.796881]},"properties":{"full_address":"内蒙古自治区呼和浩特市玉泉区金角苑小区1号楼 2号楼"}},{"type":"Feature","geometry":{"type":"Point","coordinates":[111.67247,40.761711]},"properties":{"full_address":"内蒙古自治区呼和浩特市玉泉区小黑河村"}},{"type":"Feature","geometry":{"type":"Point","coordinates":[111.664528,40.785301]},"properties":{"full_address":"内蒙古自治区呼和浩特市玉泉区南茶坊村民小区"}},{"type":"Feature","geometry":{"type":"Point","coordinates":[111.67543,40.75319]},"properties":{"full_address":"内蒙古自治区呼和浩特市玉泉区华润瑞府工地宿舍楼"}},{"type":"Feature","geometry":{"type":"Point","coordinates":[111.668747,40.78688]},"properties":{"full_address":"内蒙古自治区呼和浩特市玉泉区俪城小区A（除7号楼）"}},{"type":"Feature","geometry":{"type":"Point","coordinates":[111.684807,40.773041]},"properties":{"full_address":"内蒙古自治区呼和浩特市玉泉区万锦枫泽湾（除1号楼）"}},{"type":"Feature","geometry":{"type":"Point","coordinates":[111.664597,40.795082]},"properties":{"full_address":"内蒙古自治区呼和浩特市玉泉区御景苑北区1号楼"}},{"type":"Feature","geometry":{"type":"Point","coordinates":[111.670189,40.782181]},"properties":{"full_address":"内蒙古自治区呼和浩特市玉泉区万象天地小区4号楼"}},{"type":"Feature","geometry":{"type":"Point","coordinates":[111.665756,40.792309]},"properties":{"full_address":"内蒙古自治区呼和浩特市玉泉区二建小区2号楼"}},{"type":"Feature","geometry":{"type":"Point","coordinates":[111.685432,40.748158]},"properties":{"full_address":"内蒙古自治区呼和浩特市玉泉区鼎盛国际（除B8号楼、G2号楼、G1号楼）"}},{"type":"Feature","geometry":{"type":"Point","coordinates":[111.616015,40.774071]},"properties":{"full_address":"内蒙古自治区呼和浩特市玉泉区蓝宇小区"}},{"type":"Feature","geometry":{"type":"Point","coordinates":[111.68635,40.808234]},"properties":{"full_address":"内蒙古自治区呼和浩特市赛罕区地质局宿舍148号院"}},{"type":"Feature","geometry":{"type":"Point","coordinates":[111.729437,40.81867]},"properties":{"full_address":"内蒙古自治区呼和浩特市赛罕区春雨小区"}},{"type":"Feature","geometry":{"type":"Point","coordinates":[111.82095,40.870545]},"properties":{"full_address":"内蒙古自治区呼和浩特市赛罕区黑土凹村"}},{"type":"Feature","geometry":{"type":"Point","coordinates":[111.680569,40.799866]},"properties":{"full_address":"内蒙古自治区呼和浩特市赛罕区山丹小区"}},{"type":"Feature","geometry":{"type":"Point","coordinates":[111.695418,40.789874]},"properties":{"full_address":"内蒙古自治区呼和浩特市赛罕区舒心园小区"}},{"type":"Feature","geometry":{"type":"Point","coordinates":[111.680407,40.79093]},"properties":{"full_address":"内蒙古自治区呼和浩特市赛罕区灯泡厂小区"}},{"type":"Feature","geometry":{"type":"Point","coordinates":[111.719086,40.818645]},"properties":{"full_address":"内蒙古自治区呼和浩特市赛罕区亚辰景院"}},{"type":"Feature","geometry":{"type":"Point","coordinates":[111.689661,40.799019]},"properties":{"full_address":"内蒙古自治区呼和浩特市赛罕区华运楼小区"}},{"type":"Feature","geometry":{"type":"Point","coordinates":[111.730701,40.818926]},"properties":{"full_address":"内蒙古自治区呼和浩特市赛罕区丰泽园小区"}},{"type":"Feature","geometry":{"type":"Point","coordinates":[111.719628,40.825548]},"properties":{"full_address":"内蒙古自治区呼和浩特市赛罕区化工学院小区"}},{"type":"Feature","geometry":{"type":"Point","coordinates":[111.801219,40.84416]},"properties":{"full_address":"内蒙古自治区呼和浩特市赛罕区什兰岱社区"}},{"type":"Feature","geometry":{"type":"Point","coordinates":[111.712494,40.817697]},"properties":{"full_address":"内蒙古自治区呼和浩特市赛罕区河西乌兰小区"}},{"type":"Feature","geometry":{"type":"Point","coordinates":[111.918987,40.798066]},"properties":{"full_address":"内蒙古自治区呼和浩特市赛罕区添密湾村"}},{"type":"Feature","geometry":{"type":"Point","coordinates":[111.741588,40.805633]},"properties":{"full_address":"内蒙古自治区呼和浩特市赛罕区竹园小区东区"}},{"type":"Feature","geometry":{"type":"Point","coordinates":[111.770579,40.842281]},"properties":{"full_address":"内蒙古自治区呼和浩特市赛罕区内蒙古糖研所家属楼"}},{"type":"Feature","geometry":{"type":"Point","coordinates":[111.913411,40.826901]},"properties":{"full_address":"内蒙古自治区呼和浩特市赛罕区巴彦街道保素村"}},{"type":"Feature","geometry":{"type":"Point","coordinates":[111.788774,40.836654]},"properties":{"full_address":"内蒙古自治区呼和浩特市赛罕区后不塔气村"}},{"type":"Feature","geometry":{"type":"Point","coordinates":[111.670102,40.816002]},"properties":{"full_address":"内蒙古自治区呼和浩特市赛罕区二期工厂"}},{"type":"Feature","geometry":{"type":"Point","coordinates":[111.70332,40.781187]},"properties":{"full_address":"内蒙古自治区呼和浩特市赛罕区青城蕴秀园"}},{"type":"Feature","geometry":{"type":"Point","coordinates":[111.969718,40.726063]},"properties":{"full_address":"内蒙古自治区呼和浩特市赛罕区六犋牛村奶牛小区"}},{"type":"Feature","geometry":{"type":"Point","coordinates":[111.768714,40.788875]},"properties":{"full_address":"内蒙古自治区呼和浩特市赛罕区民富家园2号楼"}},{"type":"Feature","geometry":{"type":"Point","coordinates":[111.731819,40.7537]},"properties":{"full_address":"内蒙古自治区呼和浩特市赛罕区锦绣嘉苑C区1号楼"}},{"type":"Feature","geometry":{"type":"Point","coordinates":[111.745934,40.724033]},"properties":{"full_address":"内蒙古自治区呼和浩特市赛罕区金河镇天平营村"}},{"type":"Feature","geometry":{"type":"Point","coordinates":[111.71508,40.82769]},"properties":{"full_address":"内蒙古自治区呼和浩特市赛罕区三干社区海外公寓（除3号楼）"}},{"type":"Feature","geometry":{"type":"Point","coordinates":[111.733044,40.815657]},"properties":{"full_address":"内蒙古自治区呼和浩特市赛罕区巨海城10区（除1号楼）"}},{"type":"Feature","geometry":{"type":"Point","coordinates":[111.711661,40.826727]},"properties":{"full_address":"内蒙古自治区呼和浩特市赛罕区中行小区（除3号楼）"}},{"type":"Feature","geometry":{"type":"Point","coordinates":[111.72564,40.76666]},"properties":{"full_address":"内蒙古自治区呼和浩特市赛罕区金城小区1号楼（1单元，3单元）"}},{"type":"Feature","geometry":{"type":"Point","coordinates":[111.696617,40.798429]},"properties":{"full_address":"内蒙古自治区呼和浩特市赛罕区东苑小区中心区7号楼"}},{"type":"Feature","geometry":{"type":"Point","coordinates":[111.723607,40.823131]},"properties":{"full_address":"内蒙古自治区呼和浩特市赛罕区东乐花园西区3号楼"}},{"type":"Feature","geometry":{"type":"Point","coordinates":[111.901962,40.849113]},"properties":{"full_address":"内蒙古自治区呼和浩特市赛罕区巴彦街道白塔村平房区"}},{"type":"Feature","geometry":{"type":"Point","coordinates":[111.709556,40.819234]},"properties":{"full_address":"内蒙古自治区呼和浩特市赛罕区祖光小区12号楼"}},{"type":"Feature","geometry":{"type":"Point","coordinates":[111.717819,40.82782]},"properties":{"full_address":"内蒙古自治区呼和浩特市赛罕区长乐湾小区（除5号楼）"}},{"type":"Feature","geometry":{"type":"Point","coordinates":[111.706978,40.797729]},"properties":{"full_address":"内蒙古自治区呼和浩特市赛罕区牧机所小区（除8号楼）"}},{"type":"Feature","geometry":{"type":"Point","coordinates":[111.681747,40.804375]},"properties":{"full_address":"内蒙古自治区呼和浩特市赛罕区书香门第小区（除4号楼）"}},{"type":"Feature","geometry":{"type":"Point","coordinates":[111.868683,40.825119]},"properties":{"full_address":"内蒙古自治区呼和浩特市赛罕区巴彦街道郜独立村"}},{"type":"Feature","geometry":{"type":"Point","coordinates":[111.770135,40.796063]},"properties":{"full_address":"内蒙古自治区呼和浩特市赛罕区秀水佳园10号楼"}},{"type":"Feature","geometry":{"type":"Point","coordinates":[111.752754,40.80394]},"properties":{"full_address":"内蒙古自治区呼和浩特市赛罕区锦绣福源B区8号楼"}},{"type":"Feature","geometry":{"type":"Point","coordinates":[111.713257,40.816952]},"properties":{"full_address":"内蒙古自治区呼和浩特市赛罕区乌兰小区（除11、12、13号楼）"}},{"type":"Feature","geometry":{"type":"Point","coordinates":[111.781303,40.795399]},"properties":{"full_address":"内蒙古自治区呼和浩特市赛罕区东达景苑（除9号楼）"}},{"type":"Feature","geometry":{"type":"Point","coordinates":[111.708679,40.827141]},"properties":{"full_address":"内蒙古自治区呼和浩特市赛罕区金川地税局艺校家属楼（除1号楼）"}},{"type":"Feature","geometry":{"type":"Point","coordinates":[111.855064,40.891586]},"properties":{"full_address":"内蒙古自治区呼和浩特市赛罕区巴彦街道罗家营村陶然雅居B（除8号楼）"}},{"type":"Feature","geometry":{"type":"Point","coordinates":[111.722839,40.785751]},"properties":{"full_address":"内蒙古自治区呼和浩特市赛罕区中海蓝湾南区（除1号楼）"}},{"type":"Feature","geometry":{"type":"Point","coordinates":[111.708672,40.823383]},"properties":{"full_address":"内蒙古自治区呼和浩特市赛罕区自来水宿舍楼1号大院（除2号楼）"}},{"type":"Feature","geometry":{"type":"Point","coordinates":[111.739357,40.824032]},"properties":{"full_address":"内蒙古自治区呼和浩特市赛罕区检察家园（除3号楼）"}},{"type":"Feature","geometry":{"type":"Point","coordinates":[111.713501,40.790794]},"properties":{"full_address":"内蒙古自治区呼和浩特市赛罕区永泰城（除4号楼）"}},{"type":"Feature","geometry":{"type":"Point","coordinates":[111.719872,40.770367]},"properties":{"full_address":"内蒙古自治区呼和浩特市赛罕区化肥厂生活小区8号楼"}},{"type":"Feature","geometry":{"type":"Point","coordinates":[111.6912,40.790199]},"properties":{"full_address":"内蒙古自治区呼和浩特市赛罕区司法厅住宅小区（除1号楼）"}},{"type":"Feature","geometry":{"type":"Point","coordinates":[111.710281,40.828339]},"properties":{"full_address":"内蒙古自治区呼和浩特市赛罕区巨华朗域小区（除6号楼）"}},{"type":"Feature","geometry":{"type":"Point","coordinates":[111.692749,40.785542]},"properties":{"full_address":"内蒙古自治区呼和浩特市赛罕区景馨家园二区（除3号楼）"}},{"type":"Feature","geometry":{"type":"Point","coordinates":[111.860283,40.718254]},"properties":{"full_address":"内蒙古自治区呼和浩特市赛罕区金河镇东达赖营村"}},{"type":"Feature","geometry":{"type":"Point","coordinates":[111.54266,40.799762]},"properties":{"full_address":"内蒙古自治区呼和浩特市土默特左旗台阁牧镇碧水蓝山小区"}},{"type":"Feature","geometry":{"type":"Point","coordinates":[111.490601,40.569044]},"properties":{"full_address":"内蒙古自治区呼和浩特市土默特左旗白庙子镇旧圪太村"}},{"type":"Feature","geometry":{"type":"Point","coordinates":[111.54596,40.790836]},"properties":{"full_address":"内蒙古自治区呼和浩特市土默特左旗奇源济隆小区"}},{"type":"Feature","geometry":{"type":"Point","coordinates":[111.540553,40.77934]},"properties":{"full_address":"内蒙古自治区呼和浩特市土默特左旗公元大道小区"}},{"type":"Feature","geometry":{"type":"Point","coordinates":[111.395073,40.589653]},"properties":{"full_address":"内蒙古自治区呼和浩特市土默特左旗金浩区域服务中心宽城西区寿园（除5号楼）"}},{"type":"Feature","geometry":{"type":"Point","coordinates":[111.162338,40.726597]},"properties":{"full_address":"内蒙古自治区呼和浩特市土默特左旗察素齐镇职中家属院"}},{"type":"Feature","geometry":{"type":"Point","coordinates":[110.066391,40.580532]},"properties":{"full_address":"内蒙古自治区包头市东河区杨圪塄街道办事处北梁新区北二区"}},{"type":"Feature","geometry":{"type":"Point","coordinates":[110.030251,40.5688]},"properties":{"full_address":"内蒙古自治区包头市东河区南门外街道办事处东官房小区7号楼"}},{"type":"Feature","geometry":{"type":"Point","coordinates":[110.014931,40.585186]},"properties":{"full_address":"内蒙古自治区包头市东河区东站街道办事处西五社区部分小区（东至西五街，西至西河东路，北至环城路，南至体南路）"}},{"type":"Feature","geometry":{"type":"Point","coordinates":[110.076508,40.579689]},"properties":{"full_address":"内蒙古自治区包头市东河区河东镇壕赖沟村（东至110国道，西至民生大街，北至110国道，南至壕赖沟村东华热电厂北墙平行届）"}},{"type":"Feature","geometry":{"type":"Point","coordinates":[109.79996,40.657478]},"properties":{"full_address":"内蒙古自治区包头市昆都仑区华和园2号楼"}},{"type":"Feature","geometry":{"type":"Point","coordinates":[109.842529,40.657463]},"properties":{"full_address":"内蒙古自治区包头市昆都仑区苏宁雅悦A座、B座"}},{"type":"Feature","geometry":{"type":"Point","coordinates":[109.829353,40.616749]},"properties":{"full_address":"内蒙古自治区包头市昆都仑区松石名第小区"}},{"type":"Feature","geometry":{"type":"Point","coordinates":[109.825241,40.631191]},"properties":{"full_address":"内蒙古自治区包头市昆都仑区东亚世纪城文芳苑小区"}},{"type":"Feature","geometry":{"type":"Point","coordinates":[109.836899,40.670322]},"properties":{"full_address":"内蒙古自治区包头市昆都仑区新星壹品小区瑞景4号楼"}},{"type":"Feature","geometry":{"type":"Point","coordinates":[109.823366,40.649847]},"properties":{"full_address":"内蒙古自治区包头市昆都仑区友谊17#街坊8号楼"}},{"type":"Feature","geometry":{"type":"Point","coordinates":[109.835868,40.651789]},"properties":{"full_address":"内蒙古自治区包头市昆都仑区少先26#街坊894号楼"}},{"type":"Feature","geometry":{"type":"Point","coordinates":[109.826128,40.672806]},"properties":{"full_address":"内蒙古自治区包头市昆都仑区团11#街坊广源小区5号楼"}},{"type":"Feature","geometry":{"type":"Point","coordinates":[109.822604,40.6585]},"properties":{"full_address":"内蒙古自治区包头市昆都仑区钢甲24#街坊17号楼"}},{"type":"Feature","geometry":{"type":"Point","coordinates":[109.801083,40.658833]},"properties":{"full_address":"内蒙古自治区包头市昆都仑区钢38#街坊5号楼"}},{"type":"Feature","geometry":{"type":"Point","coordinates":[109.816528,40.640591]},"properties":{"full_address":"内蒙古自治区包头市昆都仑区友谊19小区五区粮食局1栋"}},{"type":"Feature","geometry":{"type":"Point","coordinates":[109.808304,40.641003]},"properties":{"full_address":"内蒙古自治区包头市昆都仑区禧瑞都一期14号楼"}},{"type":"Feature","geometry":{"type":"Point","coordinates":[109.810675,40.642295]},"properties":{"full_address":"内蒙古自治区包头市昆都仑区友谊19#街坊二区32号楼"}},{"type":"Feature","geometry":{"type":"Point","coordinates":[110.4021,41.177582]},"properties":{"full_address":"内蒙古自治区包头市昆都仑区南排三组西村2-19栋"}},{"type":"Feature","geometry":{"type":"Point","coordinates":[109.809235,40.6432]},"properties":{"full_address":"内蒙古自治区包头市昆都仑区禧瑞都二期1号楼"}},{"type":"Feature","geometry":{"type":"Point","coordinates":[109.834641,40.684803]},"properties":{"full_address":"内蒙古自治区包头市昆都仑区阿尔丁北大街以西、番茄社区一期以东、齐贤道以南（含傲北上城北区）、文化路以北区域"}},{"type":"Feature","geometry":{"type":"Point","coordinates":[109.845566,40.683155]},"properties":{"full_address":"内蒙古自治区包头市昆都仑区甲尔坝新村居住区"}},{"type":"Feature","geometry":{"type":"Point","coordinates":[109.80683,40.65806]},"properties":{"full_address":"内蒙古自治区包头市昆都仑区友谊18#街坊114小区2栋"}},{"type":"Feature","geometry":{"type":"Point","coordinates":[109.839409,40.673351]},"properties":{"full_address":"内蒙古自治区包头市昆都仑区龙昱华府1号楼"}},{"type":"Feature","geometry":{"type":"Point","coordinates":[109.816284,40.6745]},"properties":{"full_address":"内蒙古自治区包头市昆都仑区明日星城文景苑小区(北院)5号楼"}},{"type":"Feature","geometry":{"type":"Point","coordinates":[109.812796,40.648245]},"properties":{"full_address":"内蒙古自治区包头市昆都仑区友谊23#街坊政府楼（住宅）"}},{"type":"Feature","geometry":{"type":"Point","coordinates":[109.85426,40.64868]},"properties":{"full_address":"内蒙古自治区包头市青山区赵家营村二区12栋"}},{"type":"Feature","geometry":{"type":"Point","coordinates":[109.87345,40.67759]},"properties":{"full_address":"内蒙古自治区包头市青山区富强路10号街坊"}},{"type":"Feature","geometry":{"type":"Point","coordinates":[109.87287,40.67608]},"properties":{"full_address":"内蒙古自治区包头市青山区富强路12号街坊"}},{"type":"Feature","geometry":{"type":"Point","coordinates":[109.84906,40.650398]},"properties":{"full_address":"内蒙古自治区包头市青山区赵家营村小西门258公寓"}},{"type":"Feature","geometry":{"type":"Point","coordinates":[109.84906,40.650398]},"properties":{"full_address":"内蒙古自治区包头市青山区赵家营村三区5栋6号"}},{"type":"Feature","geometry":{"type":"Point","coordinates":[109.84906,40.650398]},"properties":{"full_address":"内蒙古自治区包头市青山区赵家营村三区"}},{"type":"Feature","geometry":{"type":"Point","coordinates":[109.89186,40.66884]},"properties":{"full_address":"内蒙古自治区包头市青山区呼得木林大街7号街坊3栋"}},{"type":"Feature","geometry":{"type":"Point","coordinates":[109.867622,40.665482]},"properties":{"full_address":"内蒙古自治区包头市青山区富强路12号街坊民富新苑11栋"}},{"type":"Feature","geometry":{"type":"Point","coordinates":[109.89186,40.66884]},"properties":{"full_address":"内蒙古自治区包头市青山区呼得木林大街7号街坊"}},{"type":"Feature","geometry":{"type":"Point","coordinates":[109.84906,40.650398]},"properties":{"full_address":"内蒙古自治区包头市青山区赵家营村四区3栋"}},{"type":"Feature","geometry":{"type":"Point","coordinates":[109.879555,40.650406]},"properties":{"full_address":"内蒙古自治区包头市青山区中环悦府5栋"}},{"type":"Feature","geometry":{"type":"Point","coordinates":[109.880287,40.644543]},"properties":{"full_address":"内蒙古自治区包头市青山区安泰华庭小区"}},{"type":"Feature","geometry":{"type":"Point","coordinates":[109.862961,40.678322]},"properties":{"full_address":"内蒙古自治区包头市青山区锦林花园小区"}},{"type":"Feature","geometry":{"type":"Point","coordinates":[109.90242,40.660416]},"properties":{"full_address":"内蒙古自治区包头市青山区迎宾小区1号街坊四运院"}},{"type":"Feature","geometry":{"type":"Point","coordinates":[109.84906,40.650398]},"properties":{"full_address":"内蒙古自治区包头市青山区赵家营村4区"}},{"type":"Feature","geometry":{"type":"Point","coordinates":[109.954095,40.601773]},"properties":{"full_address":"内蒙古自治区包头市九原区沙河街道黄金小区"}},{"type":"Feature","geometry":{"type":"Point","coordinates":[109.961075,40.597082]},"properties":{"full_address":"内蒙古自治区包头市九原区沙河街道桐荷嘉苑"}},{"type":"Feature","geometry":{"type":"Point","coordinates":[109.970863,40.595734]},"properties":{"full_address":"内蒙古自治区包头市九原区沙河街道康园小区"}},{"type":"Feature","geometry":{"type":"Point","coordinates":[109.964267,40.597267]},"properties":{"full_address":"内蒙古自治区包头市九原区沙河街道金沙华府"}},{"type":"Feature","geometry":{"type":"Point","coordinates":[109.954095,40.601773]},"properties":{"full_address":"内蒙古自治区包头市九原区沙河街道黄金佳园"}},{"type":"Feature","geometry":{"type":"Point","coordinates":[109.853935,40.563602]},"properties":{"full_address":"内蒙古自治区包头市九原区麻池镇农大新村"}},{"type":"Feature","geometry":{"type":"Point","coordinates":[109.982002,40.623489]},"properties":{"full_address":"内蒙古自治区包头市九原区白音席勒街道龙苑A区8号楼"}},{"type":"Feature","geometry":{"type":"Point","coordinates":[110.009941,40.635452]},"properties":{"full_address":"内蒙古自治区包头市九原区白音席勒街道鹿苑康城1号楼"}},{"type":"Feature","geometry":{"type":"Point","coordinates":[109.999741,40.63287]},"properties":{"full_address":"内蒙古自治区包头市九原区白音席勒街道九元兴都B11、B12号楼及门前底店"}},{"type":"Feature","geometry":{"type":"Point","coordinates":[109.984161,40.583771]},"properties":{"full_address":"内蒙古自治区包头市九原区沙河街道北梁新区西一区"}},{"type":"Feature","geometry":{"type":"Point","coordinates":[109.981209,40.622211]},"properties":{"full_address":"内蒙古自治区包头市九原区白音席勒街道龙苑C区"}},{"type":"Feature","geometry":{"type":"Point","coordinates":[106.812836,39.69202]},"properties":{"full_address":"内蒙古自治区乌海市海勃湾区蒙西阳光丽舍A区"}},{"type":"Feature","geometry":{"type":"Point","coordinates":[106.829552,39.66774]},"properties":{"full_address":"内蒙古自治区乌海市海勃湾区丽日花园小区"}},{"type":"Feature","geometry":{"type":"Point","coordinates":[106.791763,39.659714]},"properties":{"full_address":"内蒙古自治区乌海市海勃湾区中山大厦公寓楼"}},{"type":"Feature","geometry":{"type":"Point","coordinates":[106.814384,39.680874]},"properties":{"full_address":"内蒙古自治区乌海市海勃湾区华昌小区"}},{"type":"Feature","geometry":{"type":"Point","coordinates":[106.812958,39.680054]},"properties":{"full_address":"内蒙古自治区乌海市海勃湾区卧龙居小区"}},{"type":"Feature","geometry":{"type":"Point","coordinates":[106.813599,39.682281]},"properties":{"full_address":"内蒙古自治区乌海市海勃湾区锦馨园小区"}},{"type":"Feature","geometry":{"type":"Point","coordinates":[106.88578,39.44173]},"properties":{"full_address":"内蒙古自治区乌海市海南区泽园西区11号楼"}},{"type":"Feature","geometry":{"type":"Point","coordinates":[106.821808,39.427273]},"properties":{"full_address":"内蒙古自治区乌海市海南区西卓子山街道办事处阿不切亥沟以南、重载公路以北、东兴养老院以西、矿山道路以东区域"}},{"type":"Feature","geometry":{"type":"Point","coordinates":[118.992302,42.285919]},"properties":{"full_address":"内蒙古自治区赤峰市红山区东城街道东城花园小区"}},{"type":"Feature","geometry":{"type":"Point","coordinates":[118.99855,42.287018]},"properties":{"full_address":"内蒙古自治区赤峰市红山区东城街道二毛一生活区小区"}},{"type":"Feature","geometry":{"type":"Point","coordinates":[118.98867,42.283794]},"properties":{"full_address":"内蒙古自治区赤峰市红山区东城街道赤钢家属院小区2号楼"}},{"type":"Feature","geometry":{"type":"Point","coordinates":[118.999908,42.291641]},"properties":{"full_address":"内蒙古自治区赤峰市红山区东城街道润泰家园2号楼1单元"}},{"type":"Feature","geometry":{"type":"Point","coordinates":[118.991776,42.288143]},"properties":{"full_address":"内蒙古自治区赤峰市红山区东城街道电线电缆厂小区1号楼1单元"}},{"type":"Feature","geometry":{"type":"Point","coordinates":[118.98867,42.283794]},"properties":{"full_address":"内蒙古自治区赤峰市红山区东城街道电厂1号楼3单元"}},{"type":"Feature","geometry":{"type":"Point","coordinates":[118.98703,42.267071]},"properties":{"full_address":"内蒙古自治区赤峰市红山区铁南街道机务段小区34号楼2单元"}},{"type":"Feature","geometry":{"type":"Point","coordinates":[119.000763,42.287842]},"properties":{"full_address":"内蒙古自治区赤峰市红山区东城街道龙景小区（除龙景小区4号楼2单元）"}},{"type":"Feature","geometry":{"type":"Point","coordinates":[118.972382,42.283939]},"properties":{"full_address":"内蒙古自治区赤峰市红山区永巨街道清河园小区"}},{"type":"Feature","geometry":{"type":"Point","coordinates":[120.059212,43.868572]},"properties":{"full_address":"内蒙古自治区赤峰市阿鲁科尔沁旗峰景新城C区1号楼"}},{"type":"Feature","geometry":{"type":"Point","coordinates":[120.059738,43.877766]},"properties":{"full_address":"内蒙古自治区赤峰市阿鲁科尔沁旗御水园小区1号楼、2号楼"}},{"type":"Feature","geometry":{"type":"Point","coordinates":[120.082825,43.87429]},"properties":{"full_address":"内蒙古自治区赤峰市阿鲁科尔沁旗丽水欣居小区4号楼"}},{"type":"Feature","geometry":{"type":"Point","coordinates":[120.06556,43.87244]},"properties":{"full_address":"内蒙古自治区赤峰市阿鲁科尔沁旗阿鲁科尔沁旗金元风力发电有限公司"}},{"type":"Feature","geometry":{"type":"Point","coordinates":[120.074577,43.870171]},"properties":{"full_address":"内蒙古自治区赤峰市阿鲁科尔沁旗天元小区C区8号楼"}},{"type":"Feature","geometry":{"type":"Point","coordinates":[120.073349,43.867996]},"properties":{"full_address":"内蒙古自治区赤峰市阿鲁科尔沁旗仁和家园小区二期8号楼"}},{"type":"Feature","geometry":{"type":"Point","coordinates":[120.088852,43.874264]},"properties":{"full_address":"内蒙古自治区赤峰市阿鲁科尔沁旗和平社区汇万家果蔬超市"}},{"type":"Feature","geometry":{"type":"Point","coordinates":[120.088898,43.873886]},"properties":{"full_address":"内蒙古自治区赤峰市阿鲁科尔沁旗和平社区利峰批发部"}},{"type":"Feature","geometry":{"type":"Point","coordinates":[120.088318,43.873581]},"properties":{"full_address":"内蒙古自治区赤峰市阿鲁科尔沁旗鑫和园小区（4号楼除外）"}},{"type":"Feature","geometry":{"type":"Point","coordinates":[120.057022,43.873318]},"properties":{"full_address":"内蒙古自治区赤峰市阿鲁科尔沁旗百合新城二期（17号楼除外）"}},{"type":"Feature","geometry":{"type":"Point","coordinates":[120.070007,43.872723]},"properties":{"full_address":"内蒙古自治区赤峰市阿鲁科尔沁旗水务家园小区（1号楼除外）"}},{"type":"Feature","geometry":{"type":"Point","coordinates":[120.058357,43.877159]},"properties":{"full_address":"内蒙古自治区赤峰市阿鲁科尔沁旗益民家园B区"}},{"type":"Feature","geometry":{"type":"Point","coordinates":[119.872208,43.615341]},"properties":{"full_address":"内蒙古自治区赤峰市阿鲁科尔沁旗南至查布嘎大街、西至查布嘎体育公园东边界、东至欧沐沦路、北至房身村的塔山平房区（11胡同和13胡同除外）"}},{"type":"Feature","geometry":{"type":"Point","coordinates":[110.013222,40.384892]},"properties":{"full_address":"内蒙古自治区鄂尔多斯市达拉特旗电厂家属区16号楼1单元"}},{"type":"Feature","geometry":{"type":"Point","coordinates":[110.014534,40.417702]},"properties":{"full_address":"内蒙古自治区鄂尔多斯市达拉特旗景隆佳苑小区3号楼"}},{"type":"Feature","geometry":{"type":"Point","coordinates":[110.003059,40.391312]},"properties":{"full_address":"内蒙古自治区鄂尔多斯市达拉特旗锦华园小区"}},{"type":"Feature","geometry":{"type":"Point","coordinates":[111.224007,39.851082]},"properties":{"full_address":"内蒙古自治区鄂尔多斯市准格尔旗迎泽街道大诚祥云小区"}},{"type":"Feature","geometry":{"type":"Point","coordinates":[111.358429,39.576542]},"properties":{"full_address":"内蒙古自治区鄂尔多斯市准格尔旗魏家峁镇全域（除青春塔煤矿区域）"}},{"type":"Feature","geometry":{"type":"Point","coordinates":[108.731247,39.83456]},"properties":{"full_address":"内蒙古自治区鄂尔多斯市杭锦旗益尚客综合楼（日月轩G1区）外围底商"}},{"type":"Feature","geometry":{"type":"Point","coordinates":[117.443504,49.585438]},"properties":{"full_address":"内蒙古自治区呼伦贝尔市满洲里市南区街道云杉小区西区全域"}},{"type":"Feature","geometry":{"type":"Point","coordinates":[117.37836,49.59655]},"properties":{"full_address":"内蒙古自治区呼伦贝尔市满洲里市南区街道七十栋平房 6 组1排 13号-16号及南北两侧附属建筑物"}},{"type":"Feature","geometry":{"type":"Point","coordinates":[107.425072,40.761242]},"properties":{"full_address":"内蒙古自治区巴彦淖尔市临河区新华街道河大住宅小区"}},{"type":"Feature","geometry":{"type":"Point","coordinates":[107.359093,40.748981]},"properties":{"full_address":"内蒙古自治区巴彦淖尔市临河区汇丰街道金秋华城B区小区"}},{"type":"Feature","geometry":{"type":"Point","coordinates":[107.398178,40.748398]},"properties":{"full_address":"内蒙古自治区巴彦淖尔市临河区团结街道万锦世纪城二期小区"}},{"type":"Feature","geometry":{"type":"Point","coordinates":[107.431664,40.768982]},"properties":{"full_address":"内蒙古自治区巴彦淖尔市临河区东环街道山河湾小区"}},{"type":"Feature","geometry":{"type":"Point","coordinates":[107.386169,40.736469]},"properties":{"full_address":"内蒙古自治区巴彦淖尔市临河区金川街道巴彦淖尔日报社大楼"}},{"type":"Feature","geometry":{"type":"Point","coordinates":[107.410973,40.755322]},"properties":{"full_address":"内蒙古自治区巴彦淖尔市临河区团结街道今日嘉园小区北区"}},{"type":"Feature","geometry":{"type":"Point","coordinates":[107.39473,40.74559]},"properties":{"full_address":"内蒙古自治区巴彦淖尔市临河区西环街道四季花城小区一区"}},{"type":"Feature","geometry":{"type":"Point","coordinates":[107.408768,40.779949]},"properties":{"full_address":"内蒙古自治区巴彦淖尔市临河区北环街道天地凤凰城小区北墙永宽路北平房区"}},{"type":"Feature","geometry":{"type":"Point","coordinates":[107.4136,40.76049]},"properties":{"full_address":"内蒙古自治区巴彦淖尔市临河区团结街道五星花园南区"}},{"type":"Feature","geometry":{"type":"Point","coordinates":[107.429306,40.760033]},"properties":{"full_address":"内蒙古自治区巴彦淖尔市临河区新华街道水科所家属楼"}},{"type":"Feature","geometry":{"type":"Point","coordinates":[107.429962,40.761513]},"properties":{"full_address":"内蒙古自治区巴彦淖尔市临河区新华街道牧招楼"}},{"type":"Feature","geometry":{"type":"Point","coordinates":[107.433205,40.754814]},"properties":{"full_address":"内蒙古自治区巴彦淖尔市临河区车站街道恒丰粮油市场便民小区西区及沿街门店"}},{"type":"Feature","geometry":{"type":"Point","coordinates":[113.116058,40.985962]},"properties":{"full_address":"内蒙古自治区乌兰察布市集宁区鸿玉园区小区"}},{"type":"Feature","geometry":{"type":"Point","coordinates":[113.108871,41.025753]},"properties":{"full_address":"内蒙古自治区乌兰察布市集宁区古城虎食山庄"}},{"type":"Feature","geometry":{"type":"Point","coordinates":[113.187881,41.014591]},"properties":{"full_address":"内蒙古自治区乌兰察布市集宁区江东郡B区"}},{"type":"Feature","geometry":{"type":"Point","coordinates":[113.147873,40.949699]},"properties":{"full_address":"内蒙古自治区乌兰察布市察哈尔右翼前旗平地泉大街（北至友谊大道，南至苏鲁锭路）两侧商户，苏鲁锭路（西至平地泉大街，东至富广路）两侧商户所在区域"}},{"type":"Feature","geometry":{"type":"Point","coordinates":[106.666702,39.41206]},"properties":{"full_address":"内蒙古自治区阿拉善盟高新技术产业开发区恒安佳苑及周边商铺"}},{"type":"Feature","geometry":{"type":"Point","coordinates":[124.921753,42.100742]},"properties":{"full_address":"辽宁省抚顺市清原满族自治县清原镇工会小区1号楼"}},{"type":"Feature","geometry":{"type":"Point","coordinates":[124.929939,42.098671]},"properties":{"full_address":"辽宁省抚顺市清原满族自治县清原镇东园小区3号楼"}},{"type":"Feature","geometry":{"type":"Point","coordinates":[124.918022,42.089561]},"properties":{"full_address":"辽宁省抚顺市清原满族自治县清原镇畜牧局家属楼"}},{"type":"Feature","geometry":{"type":"Point","coordinates":[122.120468,41.68782]},"properties":{"full_address":"辽宁省锦州市黑山县黑山街道光荣社区亿鑫招待所"}},{"type":"Feature","geometry":{"type":"Point","coordinates":[122.125397,41.677891]},"properties":{"full_address":"辽宁省锦州市黑山县黑山街道南湖社区湖畔花园小区南门西侧宋学民便利店"}},{"type":"Feature","geometry":{"type":"Point","coordinates":[122.122917,41.673306]},"properties":{"full_address":"辽宁省锦州市黑山县黑山街道中国石化锦州双山加油站"}},{"type":"Feature","geometry":{"type":"Point","coordinates":[127.502571,50.247921]},"properties":{"full_address":"黑龙江省黑河市爱辉区兴安街道邮政社区富绅小区（兴安街卡口管理区域）及附属门市"}},{"type":"Feature","geometry":{"type":"Point","coordinates":[127.529472,50.232582]},"properties":{"full_address":"黑龙江省黑河市爱辉区中央东大街365号区域内6、10号楼"}},{"type":"Feature","geometry":{"type":"Point","coordinates":[127.509048,50.24258]},"properties":{"full_address":"黑龙江省黑河市爱辉区花园街道网通社区楼中楼小区"}},{"type":"Feature","geometry":{"type":"Point","coordinates":[127.511414,50.24477]},"properties":{"full_address":"黑龙江省黑河市爱辉区花园街道网通社中房佳苑小区"}},{"type":"Feature","geometry":{"type":"Point","coordinates":[127.514999,50.247765]},"properties":{"full_address":"黑龙江省黑河市爱辉区花园街道联通社区东市场小区"}},{"type":"Feature","geometry":{"type":"Point","coordinates":[127.512691,50.243996]},"properties":{"full_address":"黑龙江省黑河市爱辉区长海社区鹏瑞新起点小区"}},{"type":"Feature","geometry":{"type":"Point","coordinates":[127.518967,50.234451]},"properties":{"full_address":"黑龙江省黑河市爱辉区博文社区华泰龙江嘉园小区"}},{"type":"Feature","geometry":{"type":"Point","coordinates":[127.514999,50.247765]},"properties":{"full_address":"黑龙江省黑河市爱辉区花园街道联通社区体育馆小区（不含中行3号楼及附属门市）"}},{"type":"Feature","geometry":{"type":"Point","coordinates":[127.498497,50.242054]},"properties":{"full_address":"黑龙江省黑河市爱辉区兴安街道热电社区天诚家园小区"}},{"type":"Feature","geometry":{"type":"Point","coordinates":[127.509979,50.231895]},"properties":{"full_address":"黑龙江省黑河市爱辉区花园街道博文社区中房尚城小区及附属门市车库（不含6号楼及附属车库）"}},{"type":"Feature","geometry":{"type":"Point","coordinates":[127.517799,50.240204]},"properties":{"full_address":"黑龙江省黑河市爱辉区花园街道长海社区幸福B小区及附属门市车库（不含幸福11号楼1单元及附属门市、2单元及附属门市）"}},{"type":"Feature","geometry":{"type":"Point","coordinates":[126.506271,48.24168]},"properties":{"full_address":"黑龙江省黑河市北安市和平街道铁东社区文化家园二期小区5号楼、6号楼及附属门市"}},{"type":"Feature","geometry":{"type":"Point","coordinates":[126.508774,48.241848]},"properties":{"full_address":"黑龙江省黑河市北安市和平街道铁东社区凤凰尊品小区"}},{"type":"Feature","geometry":{"type":"Point","coordinates":[126.506271,48.24168]},"properties":{"full_address":"黑龙江省黑河市北安市和平街道铁东社区文化家园一期小区B栋及附属门市"}},{"type":"Feature","geometry":{"type":"Point","coordinates":[126.505051,48.239891]},"properties":{"full_address":"黑龙江省黑河市北安市兆麟街道通达社区机电街联营楼、机务段3号楼、环保局厢房楼及车库楼"}},{"type":"Feature","geometry":{"type":"Point","coordinates":[126.524712,48.242161]},"properties":{"full_address":"黑龙江省黑河市北安市庆华街道热电社区北盛惠银座小区高层3号楼、多层9号楼、11号楼、12号楼、14号楼、15号楼及附属门市"}},{"type":"Feature","geometry":{"type":"Point","coordinates":[126.51442,48.249477]},"properties":{"full_address":"黑龙江省黑河市北安市和平街道农垦社区农垦小区1号楼、2号楼、3号楼、4号楼、5号楼、6号楼、7号楼、8号楼、9号楼、10号楼、11号楼、文化中心、农垦检察院及附属门市"}},{"type":"Feature","geometry":{"type":"Point","coordinates":[126.514259,48.236931]},"properties":{"full_address":"黑龙江省黑河市北安市兆麟街道北苑社区冠安小区1号楼、2号楼、3号楼、4号楼、5号楼、6号楼"}},{"type":"Feature","geometry":{"type":"Point","coordinates":[126.51873,48.239811]},"properties":{"full_address":"黑龙江省黑河市北安市兆麟街道北苑社区冠安三期7号楼不含（7、8、9）、8号楼"}},{"type":"Feature","geometry":{"type":"Point","coordinates":[126.523247,48.243542]},"properties":{"full_address":"黑龙江省黑河市北安市庆华街道人和社区绿洲雅苑1号楼、2号楼、3号楼、4号楼、5号楼、6号楼、7号楼、9号楼、10号楼、11号楼"}},{"type":"Feature","geometry":{"type":"Point","coordinates":[126.507744,48.243336]},"properties":{"full_address":"黑龙江省黑河市北安市和平街道东北亚社区雷豹楼"}},{"type":"Feature","geometry":{"type":"Point","coordinates":[126.502892,48.257164]},"properties":{"full_address":"黑龙江省黑河市北安市北岗街道园林社区南京路400号至402号路东到花园街道平房区"}},{"type":"Feature","geometry":{"type":"Point","coordinates":[126.50695,48.254612]},"properties":{"full_address":"黑龙江省黑河市北安市北岗街道园林社区公园一号1号楼、2号楼、3号楼、5号楼、6号楼、7号楼、8号楼、9号楼、10号楼、11号楼"}},{"type":"Feature","geometry":{"type":"Point","coordinates":[126.505051,48.239891]},"properties":{"full_address":"黑龙江省黑河市北安市兆麟街道通达社区通达小区5号楼、7号楼、8号楼、9号楼、10号楼、11号楼"}},{"type":"Feature","geometry":{"type":"Point","coordinates":[126.511993,48.239613]},"properties":{"full_address":"黑龙江省黑河市北安市兆麟街道通达社区邮政小区3号楼、4号楼"}},{"type":"Feature","geometry":{"type":"Point","coordinates":[126.505051,48.239891]},"properties":{"full_address":"黑龙江省黑河市北安市兆麟街道通达社区交通楼、信用社楼、安居楼、国税家属楼2号楼"}},{"type":"Feature","geometry":{"type":"Point","coordinates":[126.504379,48.24316]},"properties":{"full_address":"黑龙江省黑河市北安市和平街道铁东社区希望一期小区"}},{"type":"Feature","geometry":{"type":"Point","coordinates":[126.507019,48.244072]},"properties":{"full_address":"黑龙江省黑河市北安市和平街道铁东社区华钰尚品高层1至4单元"}},{"type":"Feature","geometry":{"type":"Point","coordinates":[126.505051,48.239891]},"properties":{"full_address":"黑龙江省黑河市北安市兆麟街道通达社区（区域内原有中高风险区不变）"}},{"type":"Feature","geometry":{"type":"Point","coordinates":[126.980637,46.620781]},"properties":{"full_address":"黑龙江省绥化市北林区苹果乐园小区"}},{"type":"Feature","geometry":{"type":"Point","coordinates":[127.008324,46.642429]},"properties":{"full_address":"黑龙江省绥化市北林区巨兴家园小区"}},{"type":"Feature","geometry":{"type":"Point","coordinates":[127.01062,46.63496]},"properties":{"full_address":"黑龙江省绥化市北林区顺业家园小区"}},{"type":"Feature","geometry":{"type":"Point","coordinates":[126.98632,46.628071]},"properties":{"full_address":"黑龙江省绥化市北林区兴旺小区"}},{"type":"Feature","geometry":{"type":"Point","coordinates":[127.005051,46.628071]},"properties":{"full_address":"黑龙江省绥化市北林区东湖壹号"}},{"type":"Feature","geometry":{"type":"Point","coordinates":[127.010689,46.63937]},"properties":{"full_address":"黑龙江省绥化市北林区东风小区"}},{"type":"Feature","geometry":{"type":"Point","coordinates":[127.008804,46.639771]},"properties":{"full_address":"黑龙江省绥化市北林区嘉美小区一期"}},{"type":"Feature","geometry":{"type":"Point","coordinates":[126.978752,46.628933]},"properties":{"full_address":"黑龙江省绥化市北林区兴电小区"}},{"type":"Feature","geometry":{"type":"Point","coordinates":[127.005196,46.642338]},"properties":{"full_address":"黑龙江省绥化市北林区嘉美小区二期"}},{"type":"Feature","geometry":{"type":"Point","coordinates":[126.997467,46.647381]},"properties":{"full_address":"黑龙江省绥化市北林区翡翠城"}},{"type":"Feature","geometry":{"type":"Point","coordinates":[126.976509,46.644878]},"properties":{"full_address":"黑龙江省绥化市北林区世福汇小区"}},{"type":"Feature","geometry":{"type":"Point","coordinates":[126.983864,46.659821]},"properties":{"full_address":"黑龙江省绥化市北林区铁路二货场"}},{"type":"Feature","geometry":{"type":"Point","coordinates":[127.011147,46.638802]},"properties":{"full_address":"黑龙江省绥化市北林区鑫威御景"}},{"type":"Feature","geometry":{"type":"Point","coordinates":[126.972473,46.657082]},"properties":{"full_address":"黑龙江省绥化市北林区.颐和苑小区"}},{"type":"Feature","geometry":{"type":"Point","coordinates":[126.980942,46.645996]},"properties":{"full_address":"黑龙江省绥化市北林区福顺家园"}},{"type":"Feature","geometry":{"type":"Point","coordinates":[126.999382,46.624588]},"properties":{"full_address":"黑龙江省绥化市北林区铂金未来城"}},{"type":"Feature","geometry":{"type":"Point","coordinates":[127.002335,46.632488]},"properties":{"full_address":"黑龙江省绥化市北林区东方新城"}},{"type":"Feature","geometry":{"type":"Point","coordinates":[126.995941,46.644112]},"properties":{"full_address":"黑龙江省绥化市北林区世隆雅居"}},{"type":"Feature","geometry":{"type":"Point","coordinates":[126.995514,46.647339]},"properties":{"full_address":"黑龙江省绥化市北林区铁路9委小区"}},{"type":"Feature","geometry":{"type":"Point","coordinates":[126.987038,47.316841]},"properties":{"full_address":"黑龙江省绥化市海伦市乐业乡勤荣村"}},{"type":"Feature","geometry":{"type":"Point","coordinates":[126.93306,47.45203]},"properties":{"full_address":"黑龙江省绥化市海伦市帝豪花园小区"}},{"type":"Feature","geometry":{"type":"Point","coordinates":[121.471411,31.254151]},"properties":{"full_address":"上海市上海市静安区宝山路街道中兴路726号"}},{"type":"Feature","geometry":{"type":"Point","coordinates":[121.445488,31.25576]},"properties":{"full_address":"上海市上海市普陀区宜川路街道龚家宅第一小区"}},{"type":"Feature","geometry":{"type":"Point","coordinates":[121.379883,31.260071]},"properties":{"full_address":"上海市上海市普陀区桃浦镇昆仑花苑桃浦路1149弄"}},{"type":"Feature","geometry":{"type":"Point","coordinates":[121.514427,31.260477]},"properties":{"full_address":"上海市上海市杨浦区江浦路街道唐山路1380弄小区（包括沿街商铺）"}},{"type":"Feature","geometry":{"type":"Point","coordinates":[121.514399,31.264403]},"properties":{"full_address":"上海市上海市杨浦区江浦路街道唐山路1280弄小区（包括沿街商铺）"}},{"type":"Feature","geometry":{"type":"Point","coordinates":[121.51598,31.31167]},"properties":{"full_address":"上海市上海市杨浦区长海路街道三门路11弄小区（包括沿街商铺）"}},{"type":"Feature","geometry":{"type":"Point","coordinates":[121.516792,31.26894]},"properties":{"full_address":"上海市上海市杨浦区江浦路街道张家浜小区（包括沿街商铺）"}},{"type":"Feature","geometry":{"type":"Point","coordinates":[121.49678,31.28201]},"properties":{"full_address":"上海市上海市杨浦区四平路街道赤峰路200号"}},{"type":"Feature","geometry":{"type":"Point","coordinates":[121.52831,31.26686]},"properties":{"full_address":"上海市上海市杨浦区大桥街道长阳路1315弄 (包括沿街商铺 )"}},{"type":"Feature","geometry":{"type":"Point","coordinates":[121.385536,31.10857]},"properties":{"full_address":"上海市上海市闵行区莘庄镇莘朱路222弄江南苑小区"}},{"type":"Feature","geometry":{"type":"Point","coordinates":[121.39114,31.13245]},"properties":{"full_address":"上海市上海市闵行区古美路街道古美西路631弄"}},{"type":"Feature","geometry":{"type":"Point","coordinates":[121.46536,31.34094]},"properties":{"full_address":"上海市上海市宝山区淞南镇长江西路以南、江杨南路以西、向阳河以北、西泗塘河以东区域"}},{"type":"Feature","geometry":{"type":"Point","coordinates":[121.323112,30.878923]},"properties":{"full_address":"上海市上海市金山区金山区亭林镇东新村13组"}},{"type":"Feature","geometry":{"type":"Point","coordinates":[121.32011,30.88024]},"properties":{"full_address":"上海市上海市金山区金山区亭林镇复兴东路以东、进宅路以南、桃贤路以西、南亭公路以北，复兴东路2号至南亭公路6328号的门店（南亭公路北侧），南亭公路6455号至6497号的门店（南亭公路南侧），桃贤路6号至桃贤路28号以南的门店"}},{"type":"Feature","geometry":{"type":"Point","coordinates":[121.33466,30.73643]},"properties":{"full_address":"上海市上海市金山区山阳镇卫零路以东、蒙山路以西、金山大道以南、老龙泉港以北区域"}},{"type":"Feature","geometry":{"type":"Point","coordinates":[118.807373,32.084023]},"properties":{"full_address":"江苏省南京市玄武区红山街道曹后村宁东机宿舍"}},{"type":"Feature","geometry":{"type":"Point","coordinates":[118.792755,32.101124]},"properties":{"full_address":"江苏省南京市鼓楼区幕府山街道汽轮七村小区（北崮山路东）"}},{"type":"Feature","geometry":{"type":"Point","coordinates":[118.864006,32.141834]},"properties":{"full_address":"江苏省南京市栖霞区下关粮食仓库有限公司新港粮油食品市场"}},{"type":"Feature","geometry":{"type":"Point","coordinates":[118.882668,32.122444]},"properties":{"full_address":"江苏省南京市栖霞区尧化街道尧林仙居小区"}},{"type":"Feature","geometry":{"type":"Point","coordinates":[118.784637,31.933846]},"properties":{"full_address":"江苏省南京市江宁区秣陵街道翠屏国际城（广场苑、水杉苑、香樟苑、梧桐苑、银杏苑、紫檀苑、金榕苑）"}},{"type":"Feature","geometry":{"type":"Point","coordinates":[118.711441,32.176762]},"properties":{"full_address":"江苏省南京市江北新区弘阳时光里二期"}},{"type":"Feature","geometry":{"type":"Point","coordinates":[117.245499,34.247906]},"properties":{"full_address":"江苏省徐州市云龙区绿地世纪城二期"}},{"type":"Feature","geometry":{"type":"Point","coordinates":[117.25029,34.24395]},"properties":{"full_address":"江苏省徐州市云龙区徐州市绿地小学"}},{"type":"Feature","geometry":{"type":"Point","coordinates":[117.286812,34.192162]},"properties":{"full_address":"江苏省徐州市云龙区大龙湖街道国信龙湖世家小区"}},{"type":"Feature","geometry":{"type":"Point","coordinates":[117.146767,34.216431]},"properties":{"full_address":"江苏省徐州市泉山区中国矿业大学南湖校区"}},{"type":"Feature","geometry":{"type":"Point","coordinates":[116.919228,34.736412]},"properties":{"full_address":"江苏省徐州市沛县沛城街道西郊社区清怡花园小区23号楼"}},{"type":"Feature","geometry":{"type":"Point","coordinates":[116.924057,34.734879]},"properties":{"full_address":"江苏省徐州市沛县沛城街道新风社区工人新村"}},{"type":"Feature","geometry":{"type":"Point","coordinates":[120.937126,31.44898]},"properties":{"full_address":"江苏省苏州市昆山市玉山镇玉杨路299号平谦国际现代产业园"}},{"type":"Feature","geometry":{"type":"Point","coordinates":[120.94725,31.43918]},"properties":{"full_address":"江苏省苏州市昆山市玉山镇五联路228号苏州奥德高端装备股份有限公司"}},{"type":"Feature","geometry":{"type":"Point","coordinates":[120.943741,31.407089]},"properties":{"full_address":"江苏省苏州市昆山市玉山镇景秀苑小区"}},{"type":"Feature","geometry":{"type":"Point","coordinates":[121.066559,31.992582]},"properties":{"full_address":"江苏省南通市通州区川姜镇义成村25组、26组、27组、28组"}},{"type":"Feature","geometry":{"type":"Point","coordinates":[121.061096,31.98156]},"properties":{"full_address":"江苏省南通市通州区川姜镇磨框小区"}},{"type":"Feature","geometry":{"type":"Point","coordinates":[121.060852,31.97105]},"properties":{"full_address":"江苏省南通市通州区川姜镇磨框镇村24组"}},{"type":"Feature","geometry":{"type":"Point","coordinates":[121.034599,31.994791]},"properties":{"full_address":"江苏省南通市通州区川姜镇姜灶居5组、17组、18组、19组、20组"}},{"type":"Feature","geometry":{"type":"Point","coordinates":[121.120705,32.015053]},"properties":{"full_address":"江苏省南通市通州区二甲镇通运桥村24组"}},{"type":"Feature","geometry":{"type":"Point","coordinates":[121.118843,32.01717]},"properties":{"full_address":"江苏省南通市通州区二甲镇紫东花苑"}},{"type":"Feature","geometry":{"type":"Point","coordinates":[121.015663,31.994963]},"properties":{"full_address":"江苏省南通市通州区川姜镇辖区G40以北区域及金新街道夏四店村、复兴村和朝东圩村"}},{"type":"Feature","geometry":{"type":"Point","coordinates":[120.604271,32.35207]},"properties":{"full_address":"江苏省南通市如皋市城南街道 城南花苑小区（城南二路以北、丞相大道以南、万寿路以东、城东路以西）"}},{"type":"Feature","geometry":{"type":"Point","coordinates":[120.619194,32.327061]},"properties":{"full_address":"江苏省南通市如皋市城南街道 三红超市（建平路店）"}},{"type":"Feature","geometry":{"type":"Point","coordinates":[120.613914,32.317986]},"properties":{"full_address":"江苏省南通市如皋市城南街道 骐达园林苗圃基地"}},{"type":"Feature","geometry":{"type":"Point","coordinates":[120.561325,32.375881]},"properties":{"full_address":"江苏省南通市如皋市如城街道 万达建行西侧日料店"}},{"type":"Feature","geometry":{"type":"Point","coordinates":[121.17393,31.88973]},"properties":{"full_address":"江苏省南通市海门区海门街道 拥军路社区（北至人民中路、东至日新河、西至五一路、南至秀山路）"}},{"type":"Feature","geometry":{"type":"Point","coordinates":[121.17347,31.88588]},"properties":{"full_address":"江苏省南通市海门区海门街道 海南社区（北至秀山路、东至日新河、西至静海路、南至黄海中路）"}},{"type":"Feature","geometry":{"type":"Point","coordinates":[121.20053,32.33584]},"properties":{"full_address":"江苏省南通市海门区海门街道 东风新村社区（北至解放路、南至秀山路、东至长江路、西至日新河）"}},{"type":"Feature","geometry":{"type":"Point","coordinates":[121.17537,31.90092]},"properties":{"full_address":"江苏省南通市海门区海门街道 海影社区（北至丝绸路、南至解放路、东至日新河、西至狮山路）"}},{"type":"Feature","geometry":{"type":"Point","coordinates":[121.42011,32.05624]},"properties":{"full_address":"江苏省南通市海门区海门街道 育才社区（北至解放路、南至人民路、东至日新河、西至静海路）"}},{"type":"Feature","geometry":{"type":"Point","coordinates":[121.17537,31.90092]},"properties":{"full_address":"江苏省南通市海门区海门街道 狮山路社区（北至丝绸路、南至解放路、东至狮山路、西至宏伟河）"}},{"type":"Feature","geometry":{"type":"Point","coordinates":[121.1685,31.90059]},"properties":{"full_address":"江苏省南通市海门区海门街道 向民路社区（北至丝绸路、南至新海路、东至宏伟河、西至镇中路）"}},{"type":"Feature","geometry":{"type":"Point","coordinates":[121.1685,31.90059]},"properties":{"full_address":"江苏省南通市海门区海门街道 长江新村社区（北至丝绸路、南至新海路、东至镇中路、西至江海路）"}},{"type":"Feature","geometry":{"type":"Point","coordinates":[121.16564,31.89611]},"properties":{"full_address":"江苏省南通市海门区海门街道 大同新村社区（北至新海路、南至健康路、东至宏伟河、西至江海路）"}},{"type":"Feature","geometry":{"type":"Point","coordinates":[121.16558,31.89354]},"properties":{"full_address":"江苏省南通市海门区海门街道 解放中路社区（北至健康路、南至人民路、东至宏伟河、西至江海路）"}},{"type":"Feature","geometry":{"type":"Point","coordinates":[120.69309,32.55628]},"properties":{"full_address":"江苏省南通市海门区海门街道 人民西路社区（北至人民路、南至秀山路、东至静海路、西至江海路）"}},{"type":"Feature","geometry":{"type":"Point","coordinates":[121.17467,31.88624]},"properties":{"full_address":"江苏省南通市海门区海门街道 拥军路社区（北至人民路、南至秀山路、东至五一路、西至静海路）"}},{"type":"Feature","geometry":{"type":"Point","coordinates":[121.18113,31.90091]},"properties":{"full_address":"江苏省南通市海门区海门街道 城北社区（北至海门河、东至日新路、西至江海路、南至丝绸路）"}},{"type":"Feature","geometry":{"type":"Point","coordinates":[121.173943,31.885138]},"properties":{"full_address":"江苏省南通市海门区海门街道 海门区老科技工作者协会专家门诊部"}},{"type":"Feature","geometry":{"type":"Point","coordinates":[121.175758,31.89188]},"properties":{"full_address":"江苏省南通市海门区海门街道 东洲市场"}},{"type":"Feature","geometry":{"type":"Point","coordinates":[121.176552,31.884592]},"properties":{"full_address":"江苏省南通市海门区海门街道 康师傅牛肉面馆（拥军路）"}},{"type":"Feature","geometry":{"type":"Point","coordinates":[121.444412,32.108162]},"properties":{"full_address":"江苏省南通市海门区海门港新区 艾郎风电"}},{"type":"Feature","geometry":{"type":"Point","coordinates":[121.20053,32.33584]},"properties":{"full_address":"江苏省南通市海门区海门街道 青海路社区（北至海门河、南至解放路、东至长江路、西至日新河）"}},{"type":"Feature","geometry":{"type":"Point","coordinates":[121.168137,31.901911]},"properties":{"full_address":"江苏省南通市海门区海门街道 城北新村1804幢"}},{"type":"Feature","geometry":{"type":"Point","coordinates":[121.253365,31.941927]},"properties":{"full_address":"江苏省南通市海门区海门港新区 南通艾郎风电员工宿舍区1期D幢"}},{"type":"Feature","geometry":{"type":"Point","coordinates":[121.459715,32.103193]},"properties":{"full_address":"江苏省南通市海门区海门港新区 清园旅馆"}},{"type":"Feature","geometry":{"type":"Point","coordinates":[119.907181,32.501869]},"properties":{"full_address":"江苏省泰州市海陵区城西街道天达佳园"}},{"type":"Feature","geometry":{"type":"Point","coordinates":[118.602264,33.712883]},"properties":{"full_address":"江苏省宿迁市泗阳县临河镇大兴居委会滨河花园一期小区（除1号楼外）"}},{"type":"Feature","geometry":{"type":"Point","coordinates":[118.599739,33.708801]},"properties":{"full_address":"江苏省宿迁市泗阳县临河镇大兴大浩轮胎店"}},{"type":"Feature","geometry":{"type":"Point","coordinates":[118.600449,33.708717]},"properties":{"full_address":"江苏省宿迁市泗阳县临河镇鲤鱼门酒楼"}},{"type":"Feature","geometry":{"type":"Point","coordinates":[118.597267,33.711433]},"properties":{"full_address":"江苏省宿迁市泗阳县临河镇大兴村临郑路药店"}},{"type":"Feature","geometry":{"type":"Point","coordinates":[118.542847,33.727932]},"properties":{"full_address":"江苏省宿迁市泗阳县临河镇小林补胎修车"}},{"type":"Feature","geometry":{"type":"Point","coordinates":[118.542847,33.727932]},"properties":{"full_address":"江苏省宿迁市泗阳县临河镇小于修车店"}},{"type":"Feature","geometry":{"type":"Point","coordinates":[118.542847,33.727932]},"properties":{"full_address":"江苏省宿迁市泗阳县临河镇大兴焊接门市"}},{"type":"Feature","geometry":{"type":"Point","coordinates":[118.68396,33.729282]},"properties":{"full_address":"江苏省宿迁市泗阳县泗阳县众兴街道厚地和美一、二期小区（除38栋外）"}},{"type":"Feature","geometry":{"type":"Point","coordinates":[118.71489,33.698704]},"properties":{"full_address":"江苏省宿迁市泗阳县众兴街道闸塘新村南第一排"}},{"type":"Feature","geometry":{"type":"Point","coordinates":[118.549782,33.72607]},"properties":{"full_address":"江苏省宿迁市泗阳县临河镇景苑小区除9栋以外的其他区域"}},{"type":"Feature","geometry":{"type":"Point","coordinates":[118.542847,33.727932]},"properties":{"full_address":"江苏省宿迁市泗阳县临河镇大兴街东组除115号所在村庄及前后两排以外的其他区域"}},{"type":"Feature","geometry":{"type":"Point","coordinates":[117.344986,31.845789]},"properties":{"full_address":"安徽省合肥市瑶海区老合钢片区（东至郎溪路，西至当涂路，北至新安江路，南至和平路）"}},{"type":"Feature","geometry":{"type":"Point","coordinates":[117.338753,31.8776]},"properties":{"full_address":"安徽省合肥市瑶海区森海豪庭小区"}},{"type":"Feature","geometry":{"type":"Point","coordinates":[117.30949,31.85797]},"properties":{"full_address":"安徽省合肥市瑶海区和康居苑小区"}},{"type":"Feature","geometry":{"type":"Point","coordinates":[117.37471,31.842436]},"properties":{"full_address":"安徽省合肥市瑶海区兴泰苑小区"}},{"type":"Feature","geometry":{"type":"Point","coordinates":[117.310097,31.855061]},"properties":{"full_address":"安徽省合肥市瑶海区正创鸣香苑小区"}},{"type":"Feature","geometry":{"type":"Point","coordinates":[117.324303,31.865353]},"properties":{"full_address":"安徽省合肥市瑶海区精铸小区"}},{"type":"Feature","geometry":{"type":"Point","coordinates":[117.293732,31.88652]},"properties":{"full_address":"安徽省合肥市瑶海区新海西苑小区"}},{"type":"Feature","geometry":{"type":"Point","coordinates":[117.321758,31.851825]},"properties":{"full_address":"安徽省合肥市瑶海区宝业城市绿苑东区"}},{"type":"Feature","geometry":{"type":"Point","coordinates":[117.395752,31.888371]},"properties":{"full_address":"安徽省合肥市瑶海区油坊新城小区"}},{"type":"Feature","geometry":{"type":"Point","coordinates":[117.30905,31.88078]},"properties":{"full_address":"安徽省合肥市瑶海区罗马花园西区"}},{"type":"Feature","geometry":{"type":"Point","coordinates":[117.34391,31.873831]},"properties":{"full_address":"安徽省合肥市瑶海区金盛家园小区"}},{"type":"Feature","geometry":{"type":"Point","coordinates":[117.333856,31.873312]},"properties":{"full_address":"安徽省合肥市瑶海区芳邻家园小区"}},{"type":"Feature","geometry":{"type":"Point","coordinates":[117.332855,31.85981]},"properties":{"full_address":"安徽省合肥市瑶海区梦和雅居小区"}},{"type":"Feature","geometry":{"type":"Point","coordinates":[117.323578,31.84845]},"properties":{"full_address":"安徽省合肥市瑶海区唐桥新村小区"}},{"type":"Feature","geometry":{"type":"Point","coordinates":[117.352043,31.86409]},"properties":{"full_address":"安徽省合肥市瑶海区新安江花园小区"}},{"type":"Feature","geometry":{"type":"Point","coordinates":[117.30949,31.85797]},"properties":{"full_address":"安徽省合肥市瑶海区禹州郎溪上里小区"}},{"type":"Feature","geometry":{"type":"Point","coordinates":[117.280586,31.876842]},"properties":{"full_address":"安徽省合肥市庐阳区五河路232号五河路生活小区"}},{"type":"Feature","geometry":{"type":"Point","coordinates":[117.285431,31.906681]},"properties":{"full_address":"安徽省合肥市庐阳区城改美景人家小区"}},{"type":"Feature","geometry":{"type":"Point","coordinates":[117.284203,31.885849]},"properties":{"full_address":"安徽省合肥市庐阳区钢铁新村小区"}},{"type":"Feature","geometry":{"type":"Point","coordinates":[117.273849,31.878389]},"properties":{"full_address":"安徽省合肥市庐阳区钢苑新村小区"}},{"type":"Feature","geometry":{"type":"Point","coordinates":[117.309982,31.8654]},"properties":{"full_address":"安徽省合肥市庐阳区材料站小区"}},{"type":"Feature","geometry":{"type":"Point","coordinates":[117.259811,31.891573]},"properties":{"full_address":"安徽省合肥市庐阳区橡树湾一期"}},{"type":"Feature","geometry":{"type":"Point","coordinates":[117.200233,31.81143]},"properties":{"full_address":"安徽省合肥市蜀山区潜山路、绿洲东路、万佛湖路、习友西路围合范围内商业区域。"}},{"type":"Feature","geometry":{"type":"Point","coordinates":[117.24437,31.80485]},"properties":{"full_address":"安徽省合肥市蜀山区姚公新村小区"}},{"type":"Feature","geometry":{"type":"Point","coordinates":[117.247261,31.82827]},"properties":{"full_address":"安徽省合肥市蜀山区汽修小区"}},{"type":"Feature","geometry":{"type":"Point","coordinates":[117.222122,31.860178]},"properties":{"full_address":"安徽省合肥市蜀山区公园道1号小区"}},{"type":"Feature","geometry":{"type":"Point","coordinates":[117.248627,31.846769]},"properties":{"full_address":"安徽省合肥市蜀山区通和易居同辉北苑"}},{"type":"Feature","geometry":{"type":"Point","coordinates":[117.248116,31.840757]},"properties":{"full_address":"安徽省合肥市蜀山区安徽省公路桥梁工程有限公司道路工程分公司"}},{"type":"Feature","geometry":{"type":"Point","coordinates":[117.264229,31.833391]},"properties":{"full_address":"安徽省合肥市蜀山区肥西路以东、金寨路以西、水阳江路以北、洪岗路和太湖路以南，除稻香村派出所、铁路公安处以外区域"}},{"type":"Feature","geometry":{"type":"Point","coordinates":[117.26061,31.8512]},"properties":{"full_address":"安徽省合肥市蜀山区怀宁路和十里店路以东、金牛路以西、长江路以北、史河路以南"}},{"type":"Feature","geometry":{"type":"Point","coordinates":[117.302979,31.838043]},"properties":{"full_address":"安徽省合肥市包河区金地国际城小区"}},{"type":"Feature","geometry":{"type":"Point","coordinates":[117.259148,31.821854]},"properties":{"full_address":"安徽省合肥市包河区金寨路以东、宿松路以西、水阳江路以北、太湖路以南，除市三院以外区域"}},{"type":"Feature","geometry":{"type":"Point","coordinates":[117.346321,31.73875]},"properties":{"full_address":"安徽省合肥市包河区紫云别院小区"}},{"type":"Feature","geometry":{"type":"Point","coordinates":[117.351494,31.737233]},"properties":{"full_address":"安徽省合肥市包河区滨湖润园小区"}},{"type":"Feature","geometry":{"type":"Point","coordinates":[117.473587,31.839594]},"properties":{"full_address":"安徽省合肥市肥东县撮镇镇马桥社区红旗村民组"}},{"type":"Feature","geometry":{"type":"Point","coordinates":[117.168854,31.78046]},"properties":{"full_address":"安徽省合肥市肥西县禹州天玺一期"}},{"type":"Feature","geometry":{"type":"Point","coordinates":[117.15239,31.78162]},"properties":{"full_address":"安徽省合肥市肥西县绿地海德公馆"}},{"type":"Feature","geometry":{"type":"Point","coordinates":[117.208076,31.765831]},"properties":{"full_address":"安徽省合肥市经开区翠微路以北、金寨路以西的经开区范围"}},{"type":"Feature","geometry":{"type":"Point","coordinates":[117.24079,31.73014]},"properties":{"full_address":"安徽省合肥市经开区天都路以东、始信路以西、卧云路以北、紫云路以南"}},{"type":"Feature","geometry":{"type":"Point","coordinates":[117.27033,31.75628]},"properties":{"full_address":"安徽省合肥市经开区习友路以东、宿松路以西、紫篷路以北、锦绣大道以南"}},{"type":"Feature","geometry":{"type":"Point","coordinates":[117.2408,31.77904]},"properties":{"full_address":"安徽省合肥市经开区金寨路以东、天都路以西、北海路以北、绕城高速以南"}},{"type":"Feature","geometry":{"type":"Point","coordinates":[117.27116,31.76496]},"properties":{"full_address":"安徽省合肥市经开区海恒街以东、芙蓉路拟建路段以西、慈光路以北、观海路以南范围"}},{"type":"Feature","geometry":{"type":"Point","coordinates":[117.23139,31.76537]},"properties":{"full_address":"安徽省合肥市经开区莲花路以西、丹霞路以南、耕云路以北、蓬莱路以东"}},{"type":"Feature","geometry":{"type":"Point","coordinates":[119.325813,26.083851]},"properties":{"full_address":"福建省福州市晋安区老关东铁锅炖（长乐北路140号福霞小区底商）"}},{"type":"Feature","geometry":{"type":"Point","coordinates":[119.330193,26.08473]},"properties":{"full_address":"福建省福州市晋安区岳峰镇岳前路中建·岳前雅居小区（1,3号楼）"}},{"type":"Feature","geometry":{"type":"Point","coordinates":[119.318459,26.088451]},"properties":{"full_address":"福建省福州市晋安区岳峰镇塔头路36号鸿达大厦"}},{"type":"Feature","geometry":{"type":"Point","coordinates":[119.32536,26.09047]},"properties":{"full_address":"福建省福州市晋安区岳峰镇塔头路251号-2塔头生鲜市集所在楼栋"}},{"type":"Feature","geometry":{"type":"Point","coordinates":[119.311043,26.111223]},"properties":{"full_address":"福建省福州市晋安区茶亭街道茶园路46号丹桂小院红木樨餐饮店"}},{"type":"Feature","geometry":{"type":"Point","coordinates":[119.312523,26.065178]},"properties":{"full_address":"福建省福州市晋安区茶亭街道北二环中路222号汉庭酒店（火车站店）"}},{"type":"Feature","geometry":{"type":"Point","coordinates":[119.329727,26.078461]},"properties":{"full_address":"福建省福州市晋安区王庄街道岳峰南路58号东显花园小区"}},{"type":"Feature","geometry":{"type":"Point","coordinates":[119.3226,26.07561]},"properties":{"full_address":"福建省福州市晋安区王庄街道晋安南路8号紫光公寓2号楼"}},{"type":"Feature","geometry":{"type":"Point","coordinates":[119.334908,26.06992]},"properties":{"full_address":"福建省福州市晋安区象园街道晋连路367号熙悦锦城1号楼"}},{"type":"Feature","geometry":{"type":"Point","coordinates":[119.327103,26.094561]},"properties":{"full_address":"福建省福州市晋安区岳峰镇东至化工河，西至三八路，南至九龙城小区北侧，北至三八路的合围区域（凤峦郡、金岳府、丽景东方、怡景佳源小区）"}},{"type":"Feature","geometry":{"type":"Point","coordinates":[119.334267,26.09783]},"properties":{"full_address":"福建省福州市晋安区岳峰镇东至竹屿路，西至连江北路，南至横屿路，北至鹤林路的合围区域（岳峰新城一、二、三区，保利香槟国际、时代春秋小区）"}},{"type":"Feature","geometry":{"type":"Point","coordinates":[119.33774,26.0891]},"properties":{"full_address":"福建省福州市晋安区岳峰镇东至竹屿路，西至化工河，南至化工路，北至星光大道的合围区域（泰禾广场）"}},{"type":"Feature","geometry":{"type":"Point","coordinates":[119.325514,26.081902]},"properties":{"full_address":"福建省福州市晋安区岳峰镇东至长乐北路，西至新华巷，南至星华商业广场，北至新华支巷的合围区域（远景豪庭小区）"}},{"type":"Feature","geometry":{"type":"Point","coordinates":[119.336868,26.068262]},"properties":{"full_address":"福建省福州市晋安区鼓山镇东至秀坂路，西至福州市光荣院，南至威海巷，北至双翔巷的合围区域（建发悦府小区）"}},{"type":"Feature","geometry":{"type":"Point","coordinates":[119.32312,26.12033]},"properties":{"full_address":"福建省福州市晋安区新店镇东至桂山村，西至桂后溪，南至玄南岭路，北至西园路的合围区域（后山村）"}},{"type":"Feature","geometry":{"type":"Point","coordinates":[119.328918,26.07127]},"properties":{"full_address":"福建省福州市晋安区王庄街道东至珠宝路，西至长乐中路，南至晋连路，北至王庄街的合围区域（世欧王庄四区）"}},{"type":"Feature","geometry":{"type":"Point","coordinates":[119.324333,26.06595]},"properties":{"full_address":"福建省福州市晋安区象园街道东至东泰公寓西侧，西至晋安南路，南至国货路，北至象园支路的合围区域（世欧王庄十一区）"}},{"type":"Feature","geometry":{"type":"Point","coordinates":[119.212334,26.075544]},"properties":{"full_address":"福建省福州市闽侯县上街镇金桥花园"}},{"type":"Feature","geometry":{"type":"Point","coordinates":[119.211067,26.071407]},"properties":{"full_address":"福建省福州市闽侯县上街镇博仕后公馆"}},{"type":"Feature","geometry":{"type":"Point","coordinates":[119.157928,26.130346]},"properties":{"full_address":"福建省福州市闽侯县甘蔗街道阳光城西海岸B区"}},{"type":"Feature","geometry":{"type":"Point","coordinates":[119.15358,26.135639]},"properties":{"full_address":"福建省福州市闽侯县甘蔗街道世茂上游墅2期（56栋至64栋）"}},{"type":"Feature","geometry":{"type":"Point","coordinates":[119.135391,26.148081]},"properties":{"full_address":"福建省福州市闽侯县甘蔗街道东至校园路，北至峰福铁路，西至交通路，南至昙石山大道的合围区域（大元村、龙峰花园、瀛洲花园、万家广场）"}},{"type":"Feature","geometry":{"type":"Point","coordinates":[119.126099,26.152151]},"properties":{"full_address":"福建省福州市闽侯县甘蔗街道东至旗下路，北至峰福铁路，西至闽侯大桥，南至江滨西大道的合围区域（美和天著、墩园洲工业区）"}},{"type":"Feature","geometry":{"type":"Point","coordinates":[119.155632,26.138903]},"properties":{"full_address":"福建省福州市闽侯县甘蔗街道东至昙石山大道（闽都民俗园停车场）、北至蔗洲路、西至榕洲路、南至昙石山大道的合围区域（三英花园、新城丽景）"}},{"type":"Feature","geometry":{"type":"Point","coordinates":[118.804924,26.182701]},"properties":{"full_address":"福建省福州市闽清县白樟镇云渡村"}},{"type":"Feature","geometry":{"type":"Point","coordinates":[118.735657,26.133251]},"properties":{"full_address":"福建省福州市闽清县白中镇田中村"}},{"type":"Feature","geometry":{"type":"Point","coordinates":[119.71044586628905,25.481894178580067]},"properties":{"full_address":"福建省平潭综合实验区平潭综合实验区平潭海坛金座万宝城东区6-9号"}},{"type":"Feature","geometry":{"type":"Point","coordinates":[117.078842,36.680733]},"properties":{"full_address":"山东省济南市历城区东风街道七里河小区内除2号楼及4号楼以外的楼栋"}},{"type":"Feature","geometry":{"type":"Point","coordinates":[117.0825,36.68089]},"properties":{"full_address":"山东省济南市历城区东风街道新阳光超市（华龙路1160号）"}},{"type":"Feature","geometry":{"type":"Point","coordinates":[118.247762,36.768282]},"properties":{"full_address":"山东省淄博市临淄区辛店街道石槐生活区46号楼"}},{"type":"Feature","geometry":{"type":"Point","coordinates":[118.285469,36.801292]},"properties":{"full_address":"山东省淄博市临淄区辛店街道合顺店村"}},{"type":"Feature","geometry":{"type":"Point","coordinates":[118.319649,36.823231]},"properties":{"full_address":"山东省淄博市临淄区稷下街道金茵小区"}},{"type":"Feature","geometry":{"type":"Point","coordinates":[118.338478,36.81432]},"properties":{"full_address":"山东省淄博市临淄区稷下街道淄江花园南一区4号楼"}},{"type":"Feature","geometry":{"type":"Point","coordinates":[118.401001,36.904182]},"properties":{"full_address":"山东省淄博市临淄区皇城镇大铁村"}},{"type":"Feature","geometry":{"type":"Point","coordinates":[117.665031,34.671864]},"properties":{"full_address":"山东省枣庄市台儿庄区泥沟镇泥沟村"}},{"type":"Feature","geometry":{"type":"Point","coordinates":[117.720413,34.694283]},"properties":{"full_address":"山东省枣庄市台儿庄区泥沟镇红瓦屋屯社区红西村除45号楼以外区域"}},{"type":"Feature","geometry":{"type":"Point","coordinates":[117.325882,35.10318]},"properties":{"full_address":"山东省枣庄市山亭区桑村镇除高风险区以外的其他区域"}},{"type":"Feature","geometry":{"type":"Point","coordinates":[117.314491,35.142372]},"properties":{"full_address":"山东省枣庄市山亭区城头镇除高风险区以外的其他区域"}},{"type":"Feature","geometry":{"type":"Point","coordinates":[117.460724,35.085979]},"properties":{"full_address":"山东省枣庄市山亭区山城街道除高风险区以外的其他区域"}},{"type":"Feature","geometry":{"type":"Point","coordinates":[117.1502,35.101139]},"properties":{"full_address":"山东省枣庄市滕州市北辛街道华孚商贸城"}},{"type":"Feature","geometry":{"type":"Point","coordinates":[117.160408,35.120815]},"properties":{"full_address":"山东省枣庄市滕州市北辛街道新华街北园街"}},{"type":"Feature","geometry":{"type":"Point","coordinates":[117.14782,35.112358]},"properties":{"full_address":"山东省枣庄市滕州市北辛街道伦达商贸城"}},{"type":"Feature","geometry":{"type":"Point","coordinates":[117.136283,35.109631]},"properties":{"full_address":"山东省枣庄市滕州市荆河街道鲁华物流中心"}},{"type":"Feature","geometry":{"type":"Point","coordinates":[117.153679,35.085495]},"properties":{"full_address":"山东省枣庄市滕州市荆河街道幸福西区"}},{"type":"Feature","geometry":{"type":"Point","coordinates":[117.143326,35.100685]},"properties":{"full_address":"山东省枣庄市滕州市荆河街道金馨花园"}},{"type":"Feature","geometry":{"type":"Point","coordinates":[118.516068,37.04052]},"properties":{"full_address":"山东省东营市广饶县稻庄镇宋店村"}},{"type":"Feature","geometry":{"type":"Point","coordinates":[118.543587,36.988159]},"properties":{"full_address":"山东省东营市广饶县大王镇复兴王村"}},{"type":"Feature","geometry":{"type":"Point","coordinates":[118.430443,37.181919]},"properties":{"full_address":"山东省东营市广饶县花官镇草桥南村"}},{"type":"Feature","geometry":{"type":"Point","coordinates":[116.803719,35.57708]},"properties":{"full_address":"山东省济宁市兖州区新兖镇楚家洼村"}},{"type":"Feature","geometry":{"type":"Point","coordinates":[116.820953,35.60273]},"properties":{"full_address":"山东省济宁市兖州区大安镇史家庄村"}},{"type":"Feature","geometry":{"type":"Point","coordinates":[116.827179,35.608921]},"properties":{"full_address":"山东省济宁市兖州区大安镇安家庙村"}},{"type":"Feature","geometry":{"type":"Point","coordinates":[116.775383,35.553543]},"properties":{"full_address":"山东省济宁市兖州区龙桥街道锦绣城小区"}},{"type":"Feature","geometry":{"type":"Point","coordinates":[116.811371,35.559322]},"properties":{"full_address":"山东省济宁市兖州区龙桥街道旧关小区（西区）"}},{"type":"Feature","geometry":{"type":"Point","coordinates":[117.138054,34.813148]},"properties":{"full_address":"山东省济宁市微山县夏镇街道悦达广场小区"}},{"type":"Feature","geometry":{"type":"Point","coordinates":[117.100761,34.90461]},"properties":{"full_address":"山东省济宁市微山县欢城镇於村"}},{"type":"Feature","geometry":{"type":"Point","coordinates":[117.081238,34.877411]},"properties":{"full_address":"山东省济宁市微山县欢城镇吴庄村"}},{"type":"Feature","geometry":{"type":"Point","coordinates":[116.341576,35.421001]},"properties":{"full_address":"山东省济宁市嘉祥县嘉祥街道嘉和苑东区"}},{"type":"Feature","geometry":{"type":"Point","coordinates":[116.287529,35.374371]},"properties":{"full_address":"山东省济宁市嘉祥县卧龙山街道苏营村"}},{"type":"Feature","geometry":{"type":"Point","coordinates":[116.285683,35.403973]},"properties":{"full_address":"山东省济宁市嘉祥县卧龙山街道舟船山村"}},{"type":"Feature","geometry":{"type":"Point","coordinates":[116.353943,35.411282]},"properties":{"full_address":"山东省济宁市嘉祥县嘉祥街道教育二区小区"}},{"type":"Feature","geometry":{"type":"Point","coordinates":[117.106918,35.656902]},"properties":{"full_address":"山东省济宁市泗水县杨柳镇周家庄村"}},{"type":"Feature","geometry":{"type":"Point","coordinates":[116.94146,35.389496]},"properties":{"full_address":"山东省济宁市邹城市凫山街道三兴家园除5号楼以外的区域"}},{"type":"Feature","geometry":{"type":"Point","coordinates":[117.035065,35.411659]},"properties":{"full_address":"山东省济宁市邹城市千泉街道东丽花园小区除5号楼以外的区域。"}},{"type":"Feature","geometry":{"type":"Point","coordinates":[117.086243,36.1493]},"properties":{"full_address":"山东省泰安市泰山区惠普家园西区"}},{"type":"Feature","geometry":{"type":"Point","coordinates":[117.085632,36.146065]},"properties":{"full_address":"山东省泰安市泰山区惠普家园南区"}},{"type":"Feature","geometry":{"type":"Point","coordinates":[117.13526,36.19198]},"properties":{"full_address":"山东省泰安市泰山区南关中岳花园小区南院"}},{"type":"Feature","geometry":{"type":"Point","coordinates":[117.129433,36.179016]},"properties":{"full_address":"山东省泰安市泰山区南湖回迁楼（1、2、3、4、5、6号楼院落），东至中岳花园南院，西至南湖东路（青年路）"}},{"type":"Feature","geometry":{"type":"Point","coordinates":[122.16172,37.377995]},"properties":{"full_address":"山东省威海市环翠区环翠区温泉镇温泉康城40号楼"}},{"type":"Feature","geometry":{"type":"Point","coordinates":[122.129433,37.477234]},"properties":{"full_address":"山东省威海市环翠区环翠区四方路12-4-16号景仁馅饼（四方路店）"}},{"type":"Feature","geometry":{"type":"Point","coordinates":[118.845238,35.602493]},"properties":{"full_address":"山东省日照市莒县城阳街道锦苑华庭小区1号楼"}},{"type":"Feature","geometry":{"type":"Point","coordinates":[118.863937,35.543621]},"properties":{"full_address":"山东省日照市莒县山东方新食品有限公司"}},{"type":"Feature","geometry":{"type":"Point","coordinates":[118.828194,35.664673]},"properties":{"full_address":"山东省日照市莒县阎庄街道锦泰家园社区魏家村小区9号楼"}},{"type":"Feature","geometry":{"type":"Point","coordinates":[118.829948,35.59827]},"properties":{"full_address":"山东省日照市莒县炎睿电脑经纬店（青年北路晨曦家园沿街）"}},{"type":"Feature","geometry":{"type":"Point","coordinates":[118.890862,35.592072]},"properties":{"full_address":"山东省日照市莒县东方城小区"}},{"type":"Feature","geometry":{"type":"Point","coordinates":[118.831238,35.579681]},"properties":{"full_address":"山东省日照市莒县日百万德福（莒县店）"}},{"type":"Feature","geometry":{"type":"Point","coordinates":[118.763985,35.637974]},"properties":{"full_address":"山东省日照市莒县浮来山街道后栗园村"}},{"type":"Feature","geometry":{"type":"Point","coordinates":[118.793396,35.517111]},"properties":{"full_address":"山东省日照市莒县刘官庄镇驻地刘兰路西段沿街"}},{"type":"Feature","geometry":{"type":"Point","coordinates":[118.793396,35.517111]},"properties":{"full_address":"山东省日照市莒县刘官庄镇五花营村"}},{"type":"Feature","geometry":{"type":"Point","coordinates":[118.793396,35.517111]},"properties":{"full_address":"山东省日照市莒县刘官庄镇马驹岭村"}},{"type":"Feature","geometry":{"type":"Point","coordinates":[118.795013,35.517456]},"properties":{"full_address":"山东省日照市莒县万杰时代广场"}},{"type":"Feature","geometry":{"type":"Point","coordinates":[118.888092,35.567886]},"properties":{"full_address":"山东省日照市莒县杏林苑北区"}},{"type":"Feature","geometry":{"type":"Point","coordinates":[118.853363,35.589722]},"properties":{"full_address":"山东省日照市莒县盛元御景小区"}},{"type":"Feature","geometry":{"type":"Point","coordinates":[118.912941,35.649189]},"properties":{"full_address":"山东省日照市莒县峤山镇庄家洪沟村"}},