{"type":"FeatureCollection","features":[{"type":"Feature","geometry":{"type":"Point","coordinates":[116.449044,39.885582]},"properties":{"full_address":"北京市朝阳区双井街道广和南里二条"}},{"type":"Feature","geometry":{"type":"Point","coordinates":[116.469271,39.875693]},"properties":{"full_address":"北京市朝阳区潘家园街道松榆里社区"}},{"type":"Feature","geometry":{"type":"Point","coordinates":[116.464375,39.87376]},"properties":{"full_address":"北京市朝阳区潘家园街道松榆西里社区"}},{"type":"Feature","geometry":{"type":"Point","coordinates":[116.476273,39.910345]},"properties":{"full_address":"北京市朝阳区建外街道北郎东社区"}},{"type":"Feature","geometry":{"type":"Point","coordinates":[116.469512,39.882055]},"properties":{"full_address":"北京市朝阳区劲松街道农光东里社区"}},{"type":"Feature","geometry":{"type":"Point","coordinates":[116.492067,40.043867]},"properties":{"full_address":"北京市朝阳区高碑店（地区）乡方家园社区"}},{"type":"Feature","geometry":{"type":"Point","coordinates":[116.492067,40.043867]},"properties":{"full_address":"北京市朝阳区十八里店（地区）乡周家庄中路19号院"}},{"type":"Feature","geometry":{"type":"Point","coordinates":[116.482204,39.851558]},"properties":{"full_address":"北京市朝阳区十八里店（地区）乡周家庄村"}},{"type":"Feature","geometry":{"type":"Point","coordinates":[116.561261,40.009846]},"properties":{"full_address":"北京市朝阳区金盏（地区）乡金盏嘉园二社区"}},{"type":"Feature","geometry":{"type":"Point","coordinates":[116.069794,39.675424]},"properties":{"full_address":"北京市房山区窦店镇于庄村"}},{"type":"Feature","geometry":{"type":"Point","coordinates":[116.070887,39.657603]},"properties":{"full_address":"北京市房山区窦店镇燕都世界名园社区"}},{"type":"Feature","geometry":{"type":"Point","coordinates":[116.12402,39.646426]},"properties":{"full_address":"北京市房山区窦店镇一街村"}},{"type":"Feature","geometry":{"type":"Point","coordinates":[116.171118,39.769868]},"properties":{"full_address":"北京市房山区长阳镇加州水郡东区社区金桥国际公寓"}},{"type":"Feature","geometry":{"type":"Point","coordinates":[126.591415,45.686153]},"properties":{"full_address":"黑龙江省哈尔滨市南岗区王岗镇"}},{"type":"Feature","geometry":{"type":"Point","coordinates":[126.620505,45.667556]},"properties":{"full_address":"黑龙江省哈尔滨市南岗区跃进街道全域"}}]}