{"type":"FeatureCollection","features":[{"type":"Feature","geometry":{"type":"Point","coordinates":[116.34219,39.872546]},"properties":{"full_address":"北京市丰台区太平桥街道丽新嘉园南区1号楼"}},{"type":"Feature","geometry":{"type":"Point","coordinates":[116.666482,40.180213]},"properties":{"full_address":"北京市顺义区双丰街道鲁能7号院溪园除36号楼以外的其他栋楼（含1-23号楼；26-34号楼、鲁能7号院溪园核酸采集点院内鲁能溪园居委会、鲁能7号别墅金钥匙物业服务中心）"}},{"type":"Feature","geometry":{"type":"Point","coordinates":[116.4646,40.111198]},"properties":{"full_address":"北京市昌平区北七家镇融尚未来小区1号楼"}},{"type":"Feature","geometry":{"type":"Point","coordinates":[116.4348,39.78132]},"properties":{"full_address":"北京市大兴区旧宫（地区）镇上林苑小区除14号楼以外其他楼栋以及德茂小区29号楼、11号楼"}},{"type":"Feature","geometry":{"type":"Point","coordinates":[114.952279,36.553701]},"properties":{"full_address":"河北省邯郸市肥乡区西吕营镇西吕营村"}},{"type":"Feature","geometry":{"type":"Point","coordinates":[114.953168,36.563885]},"properties":{"full_address":"河北省邯郸市肥乡区北高镇北河马村"}},{"type":"Feature","geometry":{"type":"Point","coordinates":[115.548767,40.405812]},"properties":{"full_address":"河北省张家口市怀来县沙城镇三堡街社区"}},{"type":"Feature","geometry":{"type":"Point","coordinates":[115.548767,40.405812]},"properties":{"full_address":"河北省张家口市怀来县沙城镇滨河社区"}},{"type":"Feature","geometry":{"type":"Point","coordinates":[115.685489,40.359657]},"properties":{"full_address":"河北省张家口市怀来县狼山乡狼山村"}},{"type":"Feature","geometry":{"type":"Point","coordinates":[115.52375,40.401173]},"properties":{"full_address":"河北省张家口市怀来县沙城镇荣庆家园C区"}},{"type":"Feature","geometry":{"type":"Point","coordinates":[116.225574,38.249509]},"properties":{"full_address":"河北省沧州市献县十五级乡小营村"}},{"type":"Feature","geometry":{"type":"Point","coordinates":[116.135879,38.170964]},"properties":{"full_address":"河北省沧州市献县龙韵城一期、二期小区（及底商红雨超市、豪旭超市、福慧超市、天津汤包铺）"}},{"type":"Feature","geometry":{"type":"Point","coordinates":[116.340988,38.643491]},"properties":{"full_address":"河北省沧州市河间市卧佛堂镇后王庄村"}},{"type":"Feature","geometry":{"type":"Point","coordinates":[111.029588,35.036677]},"properties":{"full_address":"山西省运城市盐湖区御溪苑小区"}},{"type":"Feature","geometry":{"type":"Point","coordinates":[111.012518,35.058079]},"properties":{"full_address":"山西省运城市盐湖区壹家网咖"}},{"type":"Feature","geometry":{"type":"Point","coordinates":[111.012783,35.055575]},"properties":{"full_address":"山西省运城市盐湖区汉堡王快餐（大商联生活广场店）"}},{"type":"Feature","geometry":{"type":"Point","coordinates":[111.011615,35.027189]},"properties":{"full_address":"山西省运城市盐湖区雅典娜蛋糕(万达广场店）"}},{"type":"Feature","geometry":{"type":"Point","coordinates":[111.028409,35.033982]},"properties":{"full_address":"山西省运城市盐湖区运城市规划和自然资源局核酸采集点"}},{"type":"Feature","geometry":{"type":"Point","coordinates":[111.005867,35.022851]},"properties":{"full_address":"山西省运城市盐湖区荟萃小区核酸采集点"}},{"type":"Feature","geometry":{"type":"Point","coordinates":[111.035578,35.035097]},"properties":{"full_address":"山西省运城市盐湖区运城市中心医院核酸采集点"}},{"type":"Feature","geometry":{"type":"Point","coordinates":[111.030623,35.025477]},"properties":{"full_address":"山西省运城市盐湖区荣河1+1生鲜超市（盐湖城店）"}},{"type":"Feature","geometry":{"type":"Point","coordinates":[111.227218,35.129961]},"properties":{"full_address":"山西省运城市夏县南关村"}},{"type":"Feature","geometry":{"type":"Point","coordinates":[117.453271,49.59985]},"properties":{"full_address":"内蒙古自治区呼伦贝尔市满洲里市兴华街道学子家园"}},{"type":"Feature","geometry":{"type":"Point","coordinates":[117.454164,49.576192]},"properties":{"full_address":"内蒙古自治区呼伦贝尔市满洲里市农牧水利局"}},{"type":"Feature","geometry":{"type":"Point","coordinates":[117.451309,49.5774]},"properties":{"full_address":"内蒙古自治区呼伦贝尔市满洲里市满城新世界小区A区"}},{"type":"Feature","geometry":{"type":"Point","coordinates":[117.446639,49.604549]},"properties":{"full_address":"内蒙古自治区呼伦贝尔市满洲里市卡斯特小镇"}},{"type":"Feature","geometry":{"type":"Point","coordinates":[111.9976,43.644991]},"properties":{"full_address":"内蒙古自治区锡林郭勒盟二连浩特市迎宾路东一街坊（十栋平房及东侧大院）"}},{"type":"Feature","geometry":{"type":"Point","coordinates":[121.582668,38.943009]},"properties":{"full_address":"辽宁省大连市沙河口区三合大厦"}},{"type":"Feature","geometry":{"type":"Point","coordinates":[123.753348,47.866652]},"properties":{"full_address":"黑龙江省齐齐哈尔市甘南县双河农场南方熟食店"}},{"type":"Feature","geometry":{"type":"Point","coordinates":[123.753348,47.866652]},"properties":{"full_address":"黑龙江省齐齐哈尔市甘南县双河农场七彩复印社"}},{"type":"Feature","geometry":{"type":"Point","coordinates":[123.515214,47.914238]},"properties":{"full_address":"黑龙江省齐齐哈尔市甘南县王子花苑小区除6号楼外其他区域"}},{"type":"Feature","geometry":{"type":"Point","coordinates":[123.513844,47.912342]},"properties":{"full_address":"黑龙江省齐齐哈尔市甘南县红太阳美发店"}},{"type":"Feature","geometry":{"type":"Point","coordinates":[123.5063,47.9195]},"properties":{"full_address":"黑龙江省齐齐哈尔市甘南县天泽购物中心超市"}},{"type":"Feature","geometry":{"type":"Point","coordinates":[125.109397,46.598266]},"properties":{"full_address":"黑龙江省大庆市萨尔图区东风街道花样年华小区"}},{"type":"Feature","geometry":{"type":"Point","coordinates":[125.114361,46.598594]},"properties":{"full_address":"黑龙江省大庆市萨尔图区东风街道香榭丽小区"}},{"type":"Feature","geometry":{"type":"Point","coordinates":[125.104442,46.592479]},"properties":{"full_address":"黑龙江省大庆市萨尔图区东风街道H高层"}},{"type":"Feature","geometry":{"type":"Point","coordinates":[125.112854,46.597411]},"properties":{"full_address":"黑龙江省大庆市萨尔图区东风街道东安阳光公寓"}},{"type":"Feature","geometry":{"type":"Point","coordinates":[125.1152,46.596564]},"properties":{"full_address":"黑龙江省大庆市萨尔图区东风街道义耕小区（含东安市场）"}},{"type":"Feature","geometry":{"type":"Point","coordinates":[125.111517,46.601413]},"properties":{"full_address":"黑龙江省大庆市萨尔图区东风街道新村二区新源小区A、B、C、D组团"}},{"type":"Feature","geometry":{"type":"Point","coordinates":[125.102539,46.598395]},"properties":{"full_address":"黑龙江省大庆市萨尔图区东风街道经三街商服组团（利民医院周边）"}},{"type":"Feature","geometry":{"type":"Point","coordinates":[125.00964,46.583816]},"properties":{"full_address":"黑龙江省大庆市萨尔图区萨尔图街道九龙达小区"}},{"type":"Feature","geometry":{"type":"Point","coordinates":[125.127906,46.59275]},"properties":{"full_address":"黑龙江省大庆市萨尔图区东安街道新村四区"}},{"type":"Feature","geometry":{"type":"Point","coordinates":[125.085646,46.70192]},"properties":{"full_address":"黑龙江省大庆市萨尔图区火炬街道萨北社区"}},{"type":"Feature","geometry":{"type":"Point","coordinates":[125.125254,46.649958]},"properties":{"full_address":"黑龙江省大庆市萨尔图区火炬街道慧园社区"}},{"type":"Feature","geometry":{"type":"Point","coordinates":[127.520693,50.235812]},"properties":{"full_address":"黑龙江省黑河市爱辉区花园街道博文社区星辉小区6号楼楼下门市龙江路146号（王志国内科诊所、大众医药）"}},{"type":"Feature","geometry":{"type":"Point","coordinates":[127.520141,50.235805]},"properties":{"full_address":"黑龙江省黑河市爱辉区花园街道龙江路148号（福利堂中草药有限责任公司）"}},{"type":"Feature","geometry":{"type":"Point","coordinates":[127.520041,50.235776]},"properties":{"full_address":"黑龙江省黑河市爱辉区花园街道龙江路150号（兔宝宝全屋定制）"}},{"type":"Feature","geometry":{"type":"Point","coordinates":[127.519912,50.235744]},"properties":{"full_address":"黑龙江省黑河市爱辉区花园街道龙江路150-2号（美大集成灶）"}},{"type":"Feature","geometry":{"type":"Point","coordinates":[127.516412,50.235128]},"properties":{"full_address":"黑龙江省黑河市爱辉区花园街道博文社区警苑小区（不包含警苑小区2号楼及附属门市楼）"}},{"type":"Feature","geometry":{"type":"Point","coordinates":[127.466921,50.210306]},"properties":{"full_address":"黑龙江省黑河市爱辉区幸福乡上二公村（不包含永兴旺超市西侧路口道南某阳性感染者住所及周边8户住宅）"}},{"type":"Feature","geometry":{"type":"Point","coordinates":[121.454572,31.118048]},"properties":{"full_address":"上海市上海市徐汇区华泾镇龙吟路67号"}},{"type":"Feature","geometry":{"type":"Point","coordinates":[121.409313,31.271582]},"properties":{"full_address":"上海市上海市普陀区万里街道新村路1717弄19、21、23号"}},{"type":"Feature","geometry":{"type":"Point","coordinates":[121.476585,31.273413]},"properties":{"full_address":"上海市上海市虹口区广中路街道何家宅小区（中山北一路131弄1支弄、广中支路24弄、水电路261弄、水电路245弄，含沿街商铺）"}},{"type":"Feature","geometry":{"type":"Point","coordinates":[121.479463,31.268969]},"properties":{"full_address":"上海市上海市虹口区四川北路街道溧阳路1155号白玉兰食品（溧阳路店）"}},{"type":"Feature","geometry":{"type":"Point","coordinates":[121.4739,31.043881]},"properties":{"full_address":"上海市上海市闵行区吴泾镇通海路360弄"}},{"type":"Feature","geometry":{"type":"Point","coordinates":[121.40999,31.29972]},"properties":{"full_address":"上海市上海市宝山区大场镇南大路12弄洛河桥小区"}},{"type":"Feature","geometry":{"type":"Point","coordinates":[121.201363,31.152093]},"properties":{"full_address":"上海市上海市青浦区赵巷镇赵华路301弄"}},{"type":"Feature","geometry":{"type":"Point","coordinates":[118.73366,32.020544]},"properties":{"full_address":"江苏省南京市建邺区月安街18-1号"}},{"type":"Feature","geometry":{"type":"Point","coordinates":[118.71975,32.015375]},"properties":{"full_address":"江苏省南京市建邺区滨江奥城听雨苑小区（松花江西街59号）"}},{"type":"Feature","geometry":{"type":"Point","coordinates":[118.751136,32.223134]},"properties":{"full_address":"江苏省南京市江北新区大厂街道新华四村太子阁片区56-62栋"}},{"type":"Feature","geometry":{"type":"Point","coordinates":[118.738097,32.211609]},"properties":{"full_address":"江苏省南京市江北新区大厂街道杨庄北村南苑"}},{"type":"Feature","geometry":{"type":"Point","coordinates":[118.733464,32.21514]},"properties":{"full_address":"江苏省南京市江北新区大厂街道泰亿市场（含泰亿步行街）"}},{"type":"Feature","geometry":{"type":"Point","coordinates":[118.669725,32.062303]},"properties":{"full_address":"江苏省南京市江北新区顶山街道雅居乐滨江国际花园二期一幢"}},{"type":"Feature","geometry":{"type":"Point","coordinates":[120.344497,31.917485]},"properties":{"full_address":"江苏省无锡市江阴市城东街道西苑新村"}},{"type":"Feature","geometry":{"type":"Point","coordinates":[120.339628,31.935424]},"properties":{"full_address":"江苏省无锡市江阴市城东街道渡江三村"}},{"type":"Feature","geometry":{"type":"Point","coordinates":[120.327383,31.911239]},"properties":{"full_address":"江苏省无锡市江阴市城东街道东恒嘉苑"}},{"type":"Feature","geometry":{"type":"Point","coordinates":[120.359936,31.918694]},"properties":{"full_address":"江苏省无锡市江阴市城东街道银城长江赋（尚澜名筑）"}},{"type":"Feature","geometry":{"type":"Point","coordinates":[120.344084,31.921321]},"properties":{"full_address":"江苏省无锡市江阴市城东街道西苑二村"}},{"type":"Feature","geometry":{"type":"Point","coordinates":[120.334329,31.873327]},"properties":{"full_address":"江苏省无锡市江阴市云亭街道山湾水榭"}},{"type":"Feature","geometry":{"type":"Point","coordinates":[120.308026,30.299769]},"properties":{"full_address":"浙江省杭州市钱塘区月雅路－下沙路－乔司港河合围区区域（除高风险区外）"}},{"type":"Feature","geometry":{"type":"Point","coordinates":[121.602764,29.801329]},"properties":{"full_address":"浙江省宁波市鄞州区下应街道东兴小区最北面，南至东兴社区居委会前主干道，东至启明南路，西至东兴内河（除高风险区外）"}},{"type":"Feature","geometry":{"type":"Point","coordinates":[120.323356,27.631266]},"properties":{"full_address":"浙江省温州市平阳县水头镇除高风险地区外"}},{"type":"Feature","geometry":{"type":"Point","coordinates":[120.331277,27.679276]},"properties":{"full_address":"浙江省温州市平阳县腾蛟镇除高风险地区外"}},{"type":"Feature","geometry":{"type":"Point","coordinates":[120.283589,27.660375]},"properties":{"full_address":"浙江省温州市平阳县凤卧镇除高风险地区外"}},{"type":"Feature","geometry":{"type":"Point","coordinates":[116.709435,30.566508]},"properties":{"full_address":"安徽省安庆市怀宁县三桥镇南方村（可丛组和东风组除外）"}},{"type":"Feature","geometry":{"type":"Point","coordinates":[116.766514,30.59753]},"properties":{"full_address":"安徽省安庆市怀宁县黄墩镇独秀山居委会（和谐东路174号和老梗组除外）"}},{"type":"Feature","geometry":{"type":"Point","coordinates":[116.789851,30.605713]},"properties":{"full_address":"安徽省安庆市怀宁县黄墩镇岭北村（立新组、楼西组和大塘组除外）"}},{"type":"Feature","geometry":{"type":"Point","coordinates":[116.789861,30.570046]},"properties":{"full_address":"安徽省安庆市怀宁县黄墩镇花山村（背屋组除外）"}},{"type":"Feature","geometry":{"type":"Point","coordinates":[116.712837,30.55099]},"properties":{"full_address":"安徽省安庆市怀宁县清河乡清河社区（清河街除外）"}},{"type":"Feature","geometry":{"type":"Point","coordinates":[116.76941,30.555585]},"properties":{"full_address":"安徽省安庆市怀宁县清河乡硖石村（何老组除外）"}},{"type":"Feature","geometry":{"type":"Point","coordinates":[118.102138,24.46948]},"properties":{"full_address":"福建省厦门市思明区湖滨中路51号、53号"}},{"type":"Feature","geometry":{"type":"Point","coordinates":[118.009832,24.522173]},"properties":{"full_address":"福建省厦门市海沧区新阳街道霞阳社区东路476号、东路486号、东路255-3号、东路465号、东路467号、东路472号、东路466号、东路484号"}},{"type":"Feature","geometry":{"type":"Point","coordinates":[117.992855,24.53414]},"properties":{"full_address":"福建省厦门市海沧区新阳街道厦门院子B区（新景西里327、328、329、331、332、333号）"}},{"type":"Feature","geometry":{"type":"Point","coordinates":[118.040872,24.496215]},"properties":{"full_address":"福建省厦门市海沧区嵩屿街道石塘村南片133、133-101、133-102、133-103、140、140-101、140-102、140-103、140-104、142、143、143-101、145、145-1、145-2、145-3、146、180-1、180-2"}},{"type":"Feature","geometry":{"type":"Point","coordinates":[117.034285,28.241707]},"properties":{"full_address":"江西省鹰潭市月湖区凯翔新天地2号院2栋2、3单元"}},{"type":"Feature","geometry":{"type":"Point","coordinates":[117.035637,28.241676]},"properties":{"full_address":"江西省鹰潭市月湖区凯翔新天地小红帽幼儿园"}},{"type":"Feature","geometry":{"type":"Point","coordinates":[117.03386,28.23588]},"properties":{"full_address":"江西省鹰潭市月湖区四青街道西站社区铁路新村10号楼1、2单元"}},{"type":"Feature","geometry":{"type":"Point","coordinates":[117.020574,28.2384]},"properties":{"full_address":"江西省鹰潭市月湖区童家镇刘家社区演塘桂家村"}},{"type":"Feature","geometry":{"type":"Point","coordinates":[117.037137,28.239153]},"properties":{"full_address":"江西省鹰潭市月湖区御玺堂足疗馆"}},{"type":"Feature","geometry":{"type":"Point","coordinates":[117.0656,28.2613]},"properties":{"full_address":"江西省鹰潭市月湖区鹰潭市供电北苑招待所"}},{"type":"Feature","geometry":{"type":"Point","coordinates":[117.054536,28.238733]},"properties":{"full_address":"江西省鹰潭市月湖区梅园街道东二村南片区（除32栋）"}},{"type":"Feature","geometry":{"type":"Point","coordinates":[117.216554,28.284155]},"properties":{"full_address":"江西省鹰潭市贵溪市东门街道筲箕山社区筲箕山菜市场"}},{"type":"Feature","geometry":{"type":"Point","coordinates":[117.224172,28.288766]},"properties":{"full_address":"江西省鹰潭市贵溪市东门街道贵电社区阳光花城（除11栋、12栋）"}},{"type":"Feature","geometry":{"type":"Point","coordinates":[117.214696,28.287539]},"properties":{"full_address":"江西省鹰潭市贵溪市东门街道信江社区石油公司"}},{"type":"Feature","geometry":{"type":"Point","coordinates":[117.221285,28.287311]},"properties":{"full_address":"江西省鹰潭市贵溪市东门街道筲箕山社区御水苑小区"}},{"type":"Feature","geometry":{"type":"Point","coordinates":[117.210203,28.270002]},"properties":{"full_address":"江西省鹰潭市贵溪市雄石街道象山村狮源樊家"}},{"type":"Feature","geometry":{"type":"Point","coordinates":[117.241065,28.306482]},"properties":{"full_address":"江西省鹰潭市贵溪市花园街道铜城社区铜苑小区"}},{"type":"Feature","geometry":{"type":"Point","coordinates":[117.250632,28.294641]},"properties":{"full_address":"江西省鹰潭市贵溪市花园街道四冶社区3区"}},{"type":"Feature","geometry":{"type":"Point","coordinates":[117.187095,28.285464]},"properties":{"full_address":"江西省鹰潭市贵溪市滨江镇御园小区"}},{"type":"Feature","geometry":{"type":"Point","coordinates":[117.195049,28.305886]},"properties":{"full_address":"江西省鹰潭市贵溪市滨江镇黄坑村塘背组"}},{"type":"Feature","geometry":{"type":"Point","coordinates":[117.238938,28.290104]},"properties":{"full_address":"江西省鹰潭市贵溪市花园街道晋兴社区福润印象城商场"}},{"type":"Feature","geometry":{"type":"Point","coordinates":[117.228249,28.291182]},"properties":{"full_address":"江西省鹰潭市贵溪市花园街道白果社区凤凰城小区123栋"}},{"type":"Feature","geometry":{"type":"Point","coordinates":[117.209849,28.292644]},"properties":{"full_address":"江西省鹰潭市贵溪市东门街道雄石社区新都花苑小区（除1栋、5栋外）"}},{"type":"Feature","geometry":{"type":"Point","coordinates":[117.224703,28.282897]},"properties":{"full_address":"江西省鹰潭市贵溪市东门街道芗溪社区电厂东区（除6栋、13栋、阳光花苑G栋2单元外）"}},{"type":"Feature","geometry":{"type":"Point","coordinates":[117.226447,28.289037]},"properties":{"full_address":"江西省鹰潭市贵溪市东门街道筲箕山社区商场波浪街"}},{"type":"Feature","geometry":{"type":"Point","coordinates":[117.221573,28.273296]},"properties":{"full_address":"江西省鹰潭市贵溪市雄石街道仙桥社区福达家园小区（除瑞景楼外）"}},{"type":"Feature","geometry":{"type":"Point","coordinates":[117.202858,28.526333]},"properties":{"full_address":"江西省鹰潭市贵溪市周坊镇杨家村刘子华组"}},{"type":"Feature","geometry":{"type":"Point","coordinates":[117.251201,28.332984]},"properties":{"full_address":"江西省鹰潭市贵溪市滨江镇滨江社区祥和小区"}},{"type":"Feature","geometry":{"type":"Point","coordinates":[117.17761,28.271693]},"properties":{"full_address":"江西省鹰潭市贵溪市滨江镇长石社区幸福小区"}},{"type":"Feature","geometry":{"type":"Point","coordinates":[117.180706,28.371181]},"properties":{"full_address":"江西省鹰潭市贵溪市泗沥镇东洪村刑源组"}},{"type":"Feature","geometry":{"type":"Point","coordinates":[117.210746,28.297872]},"properties":{"full_address":"江西省鹰潭市贵溪市东门街道城北社区和谐小区"}},{"type":"Feature","geometry":{"type":"Point","coordinates":[117.215577,28.283536]},"properties":{"full_address":"江西省鹰潭市贵溪市东门街道江边社区雄石东路国税局旁"}},{"type":"Feature","geometry":{"type":"Point","coordinates":[117.216597,28.283792]},"properties":{"full_address":"江西省鹰潭市贵溪市东门街道江边社区木材公司宿舍楼"}},{"type":"Feature","geometry":{"type":"Point","coordinates":[117.210782,28.295505]},"properties":{"full_address":"江西省鹰潭市贵溪市东门街道雄石社区柏里大道方家岭"}},{"type":"Feature","geometry":{"type":"Point","coordinates":[117.211314,28.317085]},"properties":{"full_address":"江西省鹰潭市贵溪市滨江镇柏里村委会鲤塘组"}},{"type":"Feature","geometry":{"type":"Point","coordinates":[117.229104,28.448686]},"properties":{"full_address":"江西省鹰潭市贵溪市泗沥镇赤石村吕家组"}},{"type":"Feature","geometry":{"type":"Point","coordinates":[117.134092,28.371587]},"properties":{"full_address":"江西省鹰潭市贵溪市泗沥镇何家村樊上何家组"}},{"type":"Feature","geometry":{"type":"Point","coordinates":[117.236779,28.294024]},"properties":{"full_address":"江西省鹰潭市贵溪市花园街道白果社区阳光时尚广场A1区"}},{"type":"Feature","geometry":{"type":"Point","coordinates":[117.020574,28.2384]},"properties":{"full_address":"江西省鹰潭市贵溪市花园街道花园社区江二组"}},{"type":"Feature","geometry":{"type":"Point","coordinates":[117.020574,28.2384]},"properties":{"full_address":"江西省鹰潭市贵溪市花园街道武陵社区中央公园"}},{"type":"Feature","geometry":{"type":"Point","coordinates":[117.224225,28.27878]},"properties":{"full_address":"江西省鹰潭市贵溪市花园街道武陵社区信江国际1期"}},{"type":"Feature","geometry":{"type":"Point","coordinates":[117.381661,28.102992]},"properties":{"full_address":"江西省鹰潭市贵溪市文坊镇沙垅村前进组"}},{"type":"Feature","geometry":{"type":"Point","coordinates":[117.221301,28.290043]},"properties":{"full_address":"江西省鹰潭市贵溪市东门街道石林社区嘉裕花苑小区"}},{"type":"Feature","geometry":{"type":"Point","coordinates":[117.240909,28.31549]},"properties":{"full_address":"江西省鹰潭市贵溪市花园街道高石社区、贵化社区"}},{"type":"Feature","geometry":{"type":"Point","coordinates":[117.142054,27.998226]},"properties":{"full_address":"江西省鹰潭市贵溪市耳口乡圳上村"}},{"type":"Feature","geometry":{"type":"Point","coordinates":[117.319013,28.06544]},"properties":{"full_address":"江西省鹰潭市贵溪市文坊镇斗楼村、沙垅村"}},{"type":"Feature","geometry":{"type":"Point","coordinates":[117.141674,28.156775]},"properties":{"full_address":"江西省鹰潭市贵溪市罗河镇太田村、翁源村、罗田村、新区、贵碧村、周家村"}},{"type":"Feature","geometry":{"type":"Point","coordinates":[117.194147,28.233093]},"properties":{"full_address":"江西省鹰潭市贵溪市雷溪镇张桥村、富港村"}},{"type":"Feature","geometry":{"type":"Point","coordinates":[117.134092,28.371587]},"properties":{"full_address":"江西省鹰潭市贵溪市泗沥镇尹家村、中村村、东洪村、赤石村、何家村"}},{"type":"Feature","geometry":{"type":"Point","coordinates":[117.148813,28.303727]},"properties":{"full_address":"江西省鹰潭市贵溪市滨江镇青石桥村、洪塘村、江南村、黄坑村、铜都村（除五里台吴家）、浮桥村、柏里村（除竹山组）、金沙村、江北村"}},{"type":"Feature","geometry":{"type":"Point","coordinates":[117.247166,28.235862]},"properties":{"full_address":"江西省鹰潭市贵溪市流口镇新溪村、横路村、李源村"}},{"type":"Feature","geometry":{"type":"Point","coordinates":[117.274859,28.324829]},"properties":{"full_address":"江西省鹰潭市贵溪市河潭镇集镇、九夏村"}},{"type":"Feature","geometry":{"type":"Point","coordinates":[117.218409,28.289561]},"properties":{"full_address":"江西省鹰潭市贵溪市东门街道城北社区、雄石社区、木丝岭社区、江边社区、筲箕山社区、芗溪社区、贵电社区、石林社区"}},{"type":"Feature","geometry":{"type":"Point","coordinates":[117.205584,28.281802]},"properties":{"full_address":"江西省鹰潭市贵溪市雄石街道北街社区、西街社区、象山村、南街社区、仙桥社区、挂榜山社区、东街社区"}},{"type":"Feature","geometry":{"type":"Point","coordinates":[117.249823,28.290564]},"properties":{"full_address":"江西省鹰潭市贵溪市花园街道建设社区、紫金堂社区、白果社区、武陵社区、铜城社区、晋兴社区、花园社区、四冶社区"}},{"type":"Feature","geometry":{"type":"Point","coordinates":[117.245497,28.292519]},"properties":{"full_address":"江西省鹰潭市贵溪市彭弯乡集镇"}},{"type":"Feature","geometry":{"type":"Point","coordinates":[117.149913,28.199119]},"properties":{"full_address":"江西省鹰潭市贵溪市罗河镇杨桥村"}},{"type":"Feature","geometry":{"type":"Point","coordinates":[117.137978,28.2602]},"properties":{"full_address":"江西省鹰潭市贵溪市罗河镇潜岭村、童源村"}},{"type":"Feature","geometry":{"type":"Point","coordinates":[117.192094,28.258935]},"properties":{"full_address":"江西省鹰潭市贵溪市雄石街道挂榜山社区"}},{"type":"Feature","geometry":{"type":"Point","coordinates":[117.189753,28.28998]},"properties":{"full_address":"江西省鹰潭市贵溪市滨江镇浮桥村潭湾周家"}},{"type":"Feature","geometry":{"type":"Point","coordinates":[117.214696,28.287539]},"properties":{"full_address":"江西省鹰潭市贵溪市东门街道信江社区"}},{"type":"Feature","geometry":{"type":"Point","coordinates":[117.250407,28.274326]},"properties":{"full_address":"江西省鹰潭市贵溪市流口镇龙腾山庄小区"}},{"type":"Feature","geometry":{"type":"Point","coordinates":[117.051893,28.264648]},"properties":{"full_address":"江西省鹰潭市信江新区夏埠乡滨江社区恒大二期26栋"}},{"type":"Feature","geometry":{"type":"Point","coordinates":[117.051893,28.264648]},"properties":{"full_address":"江西省鹰潭市信江新区夏埠乡滨江社区恒大一期（除9栋）所有楼栋"}},{"type":"Feature","geometry":{"type":"Point","coordinates":[117.043479,28.261154]},"properties":{"full_address":"江西省鹰潭市信江新区夏埠乡祝家社区和佳园（除5栋）所有楼栋"}},{"type":"Feature","geometry":{"type":"Point","coordinates":[115.721285,28.192912]},"properties":{"full_address":"江西省宜春市丰城市火炬大道31号"}},{"type":"Feature","geometry":{"type":"Point","coordinates":[117.964897,28.891118]},"properties":{"full_address":"江西省上饶市玉山县怀玉乡玉峰村"}},{"type":"Feature","geometry":{"type":"Point","coordinates":[119.45698,35.414086]},"properties":{"full_address":"山东省日照市东港区正阳路兴安社区迎宾生活区"}},{"type":"Feature","geometry":{"type":"Point","coordinates":[114.478149,35.248225]},"properties":{"full_address":"河南省安阳市滑县牛屯镇冯付村"}},{"type":"Feature","geometry":{"type":"Point","coordinates":[111.18378,34.775704]},"properties":{"full_address":"河南省三门峡市湖滨区涧河街道六西社区域内除高风险区以外其他区域"}},{"type":"Feature","geometry":{"type":"Point","coordinates":[111.216673,34.780489]},"properties":{"full_address":"河南省三门峡市湖滨区湖滨街道桥西社区域内除高风险区以外其他区域"}},{"type":"Feature","geometry":{"type":"Point","coordinates":[111.187042,34.780091]},"properties":{"full_address":"河南省三门峡市湖滨区前进街道大岭路社区域内除高风险区以外其他区域"}},{"type":"Feature","geometry":{"type":"Point","coordinates":[111.202319,34.787201]},"properties":{"full_address":"河南省三门峡市湖滨区前进街道六楼社区域内除高风险区以外其他区域"}},{"type":"Feature","geometry":{"type":"Point","coordinates":[111.222798,34.768526]},"properties":{"full_address":"河南省三门峡市湖滨区车站街道东风社区域内除高风险区以外其他区域"}},{"type":"Feature","geometry":{"type":"Point","coordinates":[111.192849,34.770644]},"properties":{"full_address":"河南省三门峡市湖滨区涧河街道五原路社区域内除高风险区以外其他区域"}},{"type":"Feature","geometry":{"type":"Point","coordinates":[111.211535,34.77508]},"properties":{"full_address":"河南省三门峡市湖滨区崖底街道师家渠村域内除高风险区以外其他区域"}},{"type":"Feature","geometry":{"type":"Point","coordinates":[111.231324,34.75852]},"properties":{"full_address":"河南省三门峡市湖滨区车站街道峡东社区域内除高风险区以外其他区域"}},{"type":"Feature","geometry":{"type":"Point","coordinates":[111.227496,34.765492]},"properties":{"full_address":"河南省三门峡市湖滨区车站街道文峪社区域内除高风险区以外其他区域"}},{"type":"Feature","geometry":{"type":"Point","coordinates":[111.209967,34.754828]},"properties":{"full_address":"河南省三门峡市湖滨区涧河街道德馨苑社区域内除高风险区以外其他区域"}},{"type":"Feature","geometry":{"type":"Point","coordinates":[111.212606,34.766886]},"properties":{"full_address":"河南省三门峡市湖滨区涧河街道文二社区域内除高风险区以外其他区域"}},{"type":"Feature","geometry":{"type":"Point","coordinates":[111.206079,34.786218]},"properties":{"full_address":"河南省三门峡市湖滨区湖滨街道建设社区域内除高风险区以外其他区域"}},{"type":"Feature","geometry":{"type":"Point","coordinates":[111.225738,34.780968]},"properties":{"full_address":"河南省三门峡市湖滨区会兴街道上村域内除高风险区以外其他区域"}},{"type":"Feature","geometry":{"type":"Point","coordinates":[115.342431,34.406641]},"properties":{"full_address":"河南省商丘市宁陵县柳河镇邵庄村委除北郭庄村外其他自然村"}},{"type":"Feature","geometry":{"type":"Point","coordinates":[115.819188,34.394526]},"properties":{"full_address":"河南省商丘市城乡一体化示范区张阁镇集镇区木兰大道以北、商永运河以南区域"}},{"type":"Feature","geometry":{"type":"Point","coordinates":[115.055689,32.136086]},"properties":{"full_address":"河南省信阳市潢川县汽车站全域"}},{"type":"Feature","geometry":{"type":"Point","coordinates":[115.05598,32.138426]},"properties":{"full_address":"河南省信阳市潢川县北起二环路、东至新生路、西起旱湖路、南至沟北南路（县汽车站除外），新生社区办公区，县人民医院"}},{"type":"Feature","geometry":{"type":"Point","coordinates":[114.063195,33.064486]},"properties":{"full_address":"河南省驻马店市遂平县驿城大道以西、仁安路以北、国槐路以南、建仁路以东合围区域"}},{"type":"Feature","geometry":{"type":"Point","coordinates":[113.997109,33.152016]},"properties":{"full_address":"河南省驻马店市遂平县国槐路以北、开源路以东、卫生路以南、建才路以西合围区域"}},{"type":"Feature","geometry":{"type":"Point","coordinates":[110.786229,32.652254]},"properties":{"full_address":"湖北省十堰市张湾区汉江街办阳光栖谷小区19号楼（北京北路57号）"}},{"type":"Feature","geometry":{"type":"Point","coordinates":[111.85735,31.775388]},"properties":{"full_address":"湖北省襄阳市南漳县金漳大道未来城小区"}},{"type":"Feature","geometry":{"type":"Point","coordinates":[112.581694,29.482198]},"properties":{"full_address":"湖南省岳阳市华容县章华镇兴南村"}},{"type":"Feature","geometry":{"type":"Point","coordinates":[112.551863,29.534978]},"properties":{"full_address":"湖南省岳阳市华容县章华镇南门菜市场"}},{"type":"Feature","geometry":{"type":"Point","coordinates":[113.897546,22.559667]},"properties":{"full_address":"广东省深圳市宝安区新安街道海乐社区43区城中村自建房小区（除高风险区域以外区域）"}},{"type":"Feature","geometry":{"type":"Point","coordinates":[113.822777,22.724374]},"properties":{"full_address":"广东省深圳市宝安区新桥街道万丰社区荣泰园（除一区101号以外）"}},{"type":"Feature","geometry":{"type":"Point","coordinates":[114.41473,23.104025]},"properties":{"full_address":"广东省惠州市惠城区江北街道整个华贸天地及华贸商圈所有的小区（高风险区除外）"}},{"type":"Feature","geometry":{"type":"Point","coordinates":[113.124492,23.55908]},"properties":{"full_address":"广东省清远市清城区龙塘镇银盏中心村全区域，银盏社区银一村、银二村、车站村、新村、高桥村以及新都广场，雄兴工业园、盛泰工业园、泰基工业园（含生活配套区）"}},{"type":"Feature","geometry":{"type":"Point","coordinates":[113.900359,22.963916]},"properties":{"full_address":"广东省东莞市松山湖高新技术产业开发区工业北二路6号保利红珊瑚花园13栋"}},{"type":"Feature","geometry":{"type":"Point","coordinates":[110.37419,19.974464]},"properties":{"full_address":"海南省海口市琼山区椰海大道二横南路8号海航城小区"}},{"type":"Feature","geometry":{"type":"Point","coordinates":[109.307254,18.307806]},"properties":{"full_address":"海南省三亚市天涯区布甫村红塘湾安徽三建工地员工宿舍小区"}},{"type":"Feature","geometry":{"type":"Point","coordinates":[109.338815,18.305185]},"properties":{"full_address":"海南省三亚市天涯区马岭社区东三街"}},{"type":"Feature","geometry":{"type":"Point","coordinates":[109.332122,18.335441]},"properties":{"full_address":"海南省三亚市天涯区文门村委会上文门小组、上中下那后小组、西风村小组"}},{"type":"Feature","geometry":{"type":"Point","coordinates":[109.363917,18.349388]},"properties":{"full_address":"海南省三亚市天涯区华丽村委会新华一、二小组，布网一、二小组"}},{"type":"Feature","geometry":{"type":"Point","coordinates":[109.34971,18.33724]},"properties":{"full_address":"海南省三亚市天涯区过岭村委会下加育小组"}},{"type":"Feature","geometry":{"type":"Point","coordinates":[109.368977,18.29168]},"properties":{"full_address":"海南省三亚市天涯区三亚湾社区四至范围:东至92810部队机场跑道，西至西岛码头出海口，北至新城路及桃源河，南至海边"}},{"type":"Feature","geometry":{"type":"Point","coordinates":[109.470386,18.318577]},"properties":{"full_address":"海南省三亚市天涯区新联村"}},{"type":"Feature","geometry":{"type":"Point","coordinates":[109.133673,18.365352]},"properties":{"full_address":"海南省三亚市崖州区保平村"}},{"type":"Feature","geometry":{"type":"Point","coordinates":[109.136615,18.353993]},"properties":{"full_address":"海南省三亚市崖州区东京社区"}},{"type":"Feature","geometry":{"type":"Point","coordinates":[109.117866,18.338107]},"properties":{"full_address":"海南省三亚市崖州区龙港社区"}},{"type":"Feature","geometry":{"type":"Point","coordinates":[109.166359,18.336251]},"properties":{"full_address":"海南省三亚市崖州区保利浅海小区"}},{"type":"Feature","geometry":{"type":"Point","coordinates":[109.130627,18.355191]},"properties":{"full_address":"海南省三亚市崖州区文明社区"}},{"type":"Feature","geometry":{"type":"Point","coordinates":[109.162456,18.363213]},"properties":{"full_address":"海南省三亚市崖州区水南村一村二村"}},{"type":"Feature","geometry":{"type":"Point","coordinates":[109.135205,18.359965]},"properties":{"full_address":"海南省三亚市崖州区港门村"}},{"type":"Feature","geometry":{"type":"Point","coordinates":[109.181197,18.425943]},"properties":{"full_address":"海南省三亚市崖州区北岭村周家村"}},{"type":"Feature","geometry":{"type":"Point","coordinates":[109.218734,19.696407]},"properties":{"full_address":"海南省儋州市市辖区白马井镇全域（除高风险区和低风险区外）"}},{"type":"Feature","geometry":{"type":"Point","coordinates":[109.546409,19.514878]},"properties":{"full_address":"海南省儋州市市辖区那大镇主城区（除高风险区外）"}},{"type":"Feature","geometry":{"type":"Point","coordinates":[109.648471,19.519071]},"properties":{"full_address":"海南省儋州市市辖区和庆镇和庆农场1队"}},{"type":"Feature","geometry":{"type":"Point","coordinates":[109.209294,19.734396]},"properties":{"full_address":"海南省儋州市市辖区洋浦片区普瑞社区"}},{"type":"Feature","geometry":{"type":"Point","coordinates":[109.240259,19.810107]},"properties":{"full_address":"海南省儋州市市辖区洋浦片区三都区颜村"}},{"type":"Feature","geometry":{"type":"Point","coordinates":[109.562507,19.567192]},"properties":{"full_address":"海南省儋州市市辖区那大镇槟榔村委会区域"}},{"type":"Feature","geometry":{"type":"Point","coordinates":[109.449735,19.506717]},"properties":{"full_address":"海南省儋州市市辖区排浦镇南华墟"}},{"type":"Feature","geometry":{"type":"Point","coordinates":[109.519736,18.782129]},"properties":{"full_address":"海南省省直辖县级行政单位五指山市海榆北路公路局宿舍5栋"}},{"type":"Feature","geometry":{"type":"Point","coordinates":[109.515611,18.773378]},"properties":{"full_address":"海南省省直辖县级行政单位五指山市海南省第二人民医院除高风险区外的区域"}},{"type":"Feature","geometry":{"type":"Point","coordinates":[109.526123,18.765134]},"properties":{"full_address":"海南省省直辖县级行政单位五指山市鸿鑫农贸市场"}},{"type":"Feature","geometry":{"type":"Point","coordinates":[109.515449,18.771286]},"properties":{"full_address":"海南省省直辖县级行政单位五指山市省第二卫生学校（除实训宿舍楼外）"}},{"type":"Feature","geometry":{"type":"Point","coordinates":[110.416422,18.775403]},"properties":{"full_address":"海南省省直辖县级行政单位万宁市万城镇宾王村委会"}},{"type":"Feature","geometry":{"type":"Point","coordinates":[110.461639,18.76937]},"properties":{"full_address":"海南省省直辖县级行政单位万宁市万城镇保定村委会"}},{"type":"Feature","geometry":{"type":"Point","coordinates":[110.412533,18.785361]},"properties":{"full_address":"海南省省直辖县级行政单位万宁市万城镇水边村委会"}},{"type":"Feature","geometry":{"type":"Point","coordinates":[110.374542,18.789538]},"properties":{"full_address":"海南省省直辖县级行政单位万宁市万城镇中央坡农场"}},{"type":"Feature","geometry":{"type":"Point","coordinates":[110.382837,18.801051]},"properties":{"full_address":"海南省省直辖县级行政单位万宁市万城镇安置一区"}},{"type":"Feature","geometry":{"type":"Point","coordinates":[110.332976,18.746678]},"properties":{"full_address":"海南省省直辖县级行政单位万宁市礼纪镇群坡村委会"}},{"type":"Feature","geometry":{"type":"Point","coordinates":[110.345694,18.774647]},"properties":{"full_address":"海南省省直辖县级行政单位万宁市礼纪镇太阳村委会"}},{"type":"Feature","geometry":{"type":"Point","coordinates":[110.451622,18.883628]},"properties":{"full_address":"海南省省直辖县级行政单位万宁市后安镇龙田村委会第四队"}},{"type":"Feature","geometry":{"type":"Point","coordinates":[110.401814,18.714928]},"properties":{"full_address":"海南省省直辖县级行政单位万宁市东澳镇（除高风险区外）"}},{"type":"Feature","geometry":{"type":"Point","coordinates":[108.670604,19.092246]},"properties":{"full_address":"海南省省直辖县级行政单位东方市八所镇全域除高风险区以外区域"}},{"type":"Feature","geometry":{"type":"Point","coordinates":[108.682117,19.225616]},"properties":{"full_address":"海南省省直辖县级行政单位东方市四更镇全域除高风险区以外区域"}},{"type":"Feature","geometry":{"type":"Point","coordinates":[108.657791,18.846452]},"properties":{"full_address":"海南省省直辖县级行政单位东方市感城镇全域除高风险区以外区域"}},{"type":"Feature","geometry":{"type":"Point","coordinates":[108.874903,19.16498]},"properties":{"full_address":"海南省省直辖县级行政单位东方市大田镇全域除高风险区以外区域"}},{"type":"Feature","geometry":{"type":"Point","coordinates":[108.684538,18.952023]},"properties":{"full_address":"海南省省直辖县级行政单位东方市新龙镇全域除高风险区以外区域"}},{"type":"Feature","geometry":{"type":"Point","coordinates":[110.165578,19.70981]},"properties":{"full_address":"海南省省直辖县级行政单位澄迈县仙儒村委会"}},{"type":"Feature","geometry":{"type":"Point","coordinates":[110.129969,19.731864]},"properties":{"full_address":"海南省省直辖县级行政单位澄迈县瑞联村委会"}},{"type":"Feature","geometry":{"type":"Point","coordinates":[110.006755,19.738521]},"properties":{"full_address":"海南省省直辖县级行政单位澄迈县第一社区"}},{"type":"Feature","geometry":{"type":"Point","coordinates":[110.006755,19.738521]},"properties":{"full_address":"海南省省直辖县级行政单位澄迈县第二社区"}},{"type":"Feature","geometry":{"type":"Point","coordinates":[110.139416,19.720964]},"properties":{"full_address":"海南省省直辖县级行政单位澄迈县群庄村委会"}},{"type":"Feature","geometry":{"type":"Point","coordinates":[110.152796,19.700337]},"properties":{"full_address":"海南省省直辖县级行政单位澄迈县村内村委会"}},{"type":"Feature","geometry":{"type":"Point","coordinates":[110.149693,19.699944]},"properties":{"full_address":"海南省省直辖县级行政单位澄迈县里加村委会"}},{"type":"Feature","geometry":{"type":"Point","coordinates":[110.12351,19.713711]},"properties":{"full_address":"海南省省直辖县级行政单位澄迈县南尖村委会"}},{"type":"Feature","geometry":{"type":"Point","coordinates":[110.101443,19.728618]},"properties":{"full_address":"海南省省直辖县级行政单位澄迈县番丁村委会"}},{"type":"Feature","geometry":{"type":"Point","coordinates":[110.10263,19.7097]},"properties":{"full_address":"海南省省直辖县级行政单位澄迈县山琼村委会"}},{"type":"Feature","geometry":{"type":"Point","coordinates":[110.150211,19.727112]},"properties":{"full_address":"海南省省直辖县级行政单位澄迈县北桥村委会"}},{"type":"Feature","geometry":{"type":"Point","coordinates":[110.124995,19.685795]},"properties":{"full_address":"海南省省直辖县级行政单位澄迈县加巨村村委会"}},{"type":"Feature","geometry":{"type":"Point","coordinates":[109.556232,19.908677]},"properties":{"full_address":"海南省省直辖县级行政单位临高县南堂村委会南堂村"}},{"type":"Feature","geometry":{"type":"Point","coordinates":[109.655973,19.816602]},"properties":{"full_address":"海南省省直辖县级行政单位临高县龙昆村委会"}},{"type":"Feature","geometry":{"type":"Point","coordinates":[109.53917,19.91023]},"properties":{"full_address":"海南省省直辖县级行政单位临高县昆社村委会"}},{"type":"Feature","geometry":{"type":"Point","coordinates":[109.543577,19.907964]},"properties":{"full_address":"海南省省直辖县级行政单位临高县抱蛟村委会抱蛟村"}},{"type":"Feature","geometry":{"type":"Point","coordinates":[109.546343,19.8889]},"properties":{"full_address":"海南省省直辖县级行政单位临高县仓米村委会仓米村"}},{"type":"Feature","geometry":{"type":"Point","coordinates":[109.560984,19.881868]},"properties":{"full_address":"海南省省直辖县级行政单位临高县仓米村委会营南村"}},{"type":"Feature","geometry":{"type":"Point","coordinates":[109.552726,19.884491]},"properties":{"full_address":"海南省省直辖县级行政单位临高县仓米村委会新市村"}},{"type":"Feature","geometry":{"type":"Point","coordinates":[109.607584,19.872354]},"properties":{"full_address":"海南省省直辖县级行政单位临高县龙兰村委会头泗村"}},{"type":"Feature","geometry":{"type":"Point","coordinates":[109.546341,19.871716]},"properties":{"full_address":"海南省省直辖县级行政单位临高县和贵村委会（除乐春村外）"}},{"type":"Feature","geometry":{"type":"Point","coordinates":[109.172683,18.748477]},"properties":{"full_address":"海南省省直辖县级行政单位乐东黎族自治县抱由镇乐祥西路1号住宅新小区"}},{"type":"Feature","geometry":{"type":"Point","coordinates":[108.897393,18.472259]},"properties":{"full_address":"海南省省直辖县级行政单位乐东黎族自治县利国镇除高风险区域外的村（居）"}},{"type":"Feature","geometry":{"type":"Point","coordinates":[108.697349,18.510154]},"properties":{"full_address":"海南省省直辖县级行政单位乐东黎族自治县莺歌海镇除高风险区域外的村（居）"}},{"type":"Feature","geometry":{"type":"Point","coordinates":[108.794872,18.506684]},"properties":{"full_address":"海南省省直辖县级行政单位乐东黎族自治县黄流镇除高风险区域外的村（居）"}},{"type":"Feature","geometry":{"type":"Point","coordinates":[108.736289,18.578496]},"properties":{"full_address":"海南省省直辖县级行政单位乐东黎族自治县佛罗镇除高风险区域外的村（居）"}},{"type":"Feature","geometry":{"type":"Point","coordinates":[108.792488,18.690415]},"properties":{"full_address":"海南省省直辖县级行政单位乐东黎族自治县尖峰镇除高风险区域外的村（居）"}},{"type":"Feature","geometry":{"type":"Point","coordinates":[108.953913,18.453504]},"properties":{"full_address":"海南省省直辖县级行政单位乐东黎族自治县九所镇除高风险区域外的村（居）"}},{"type":"Feature","geometry":{"type":"Point","coordinates":[110.039491,18.523596]},"properties":{"full_address":"海南省省直辖县级行政单位陵水黎族自治县椰林镇桃万村余某家为中心半径约50米以内"}},{"type":"Feature","geometry":{"type":"Point","coordinates":[109.970728,18.414799]},"properties":{"full_address":"海南省省直辖县级行政单位陵水黎族自治县新村镇域：东至中心海港，南至望海路，西至新港大道，北至城坡村（不含云帆济海小区第6栋、海境新天小区第36栋）"}},{"type":"Feature","geometry":{"type":"Point","coordinates":[109.96969,18.424143]},"properties":{"full_address":"海南省省直辖县级行政单位陵水黎族自治县新村镇城坡村"}},{"type":"Feature","geometry":{"type":"Point","coordinates":[109.950541,18.429363]},"properties":{"full_address":"海南省省直辖县级行政单位陵水黎族自治县新村镇长坡村"}},{"type":"Feature","geometry":{"type":"Point","coordinates":[110.017999,18.431341]},"properties":{"full_address":"海南省省直辖县级行政单位陵水黎族自治县新村镇桐海村"}},{"type":"Feature","geometry":{"type":"Point","coordinates":[109.974093,18.419265]},"properties":{"full_address":"海南省省直辖县级行政单位陵水黎族自治县新村渔排区"}},{"type":"Feature","geometry":{"type":"Point","coordinates":[109.96473,18.607819]},"properties":{"full_address":"海南省省直辖县级行政单位陵水黎族自治县本号镇本号大道良霞海鲜火锅店向东50米，向西50米"}},{"type":"Feature","geometry":{"type":"Point","coordinates":[109.96248,18.608901]},"properties":{"full_address":"海南省省直辖县级行政单位陵水黎族自治县本号镇长埇村委会墓山村一小组和二小组外延50米"}},{"type":"Feature","geometry":{"type":"Point","coordinates":[109.902704,18.503393]},"properties":{"full_address":"海南省省直辖县级行政单位陵水黎族自治县隆广镇石关村委会三马林村一队王某忠家直径100米范围内"}},{"type":"Feature","geometry":{"type":"Point","coordinates":[109.89942,18.50198]},"properties":{"full_address":"海南省省直辖县级行政单位陵水黎族自治县隆广镇新光村委会新村二队"}},{"type":"Feature","geometry":{"type":"Point","coordinates":[109.902704,18.503393]},"properties":{"full_address":"海南省省直辖县级行政单位陵水黎族自治县隆广镇石关村委会孔明村"}},{"type":"Feature","geometry":{"type":"Point","coordinates":[110.069593,18.430847]},"properties":{"full_address":"海南省省直辖县级行政单位陵水黎族自治县黎安镇黎安村"}},{"type":"Feature","geometry":{"type":"Point","coordinates":[110.069671,18.432067]},"properties":{"full_address":"海南省省直辖县级行政单位陵水黎族自治县黎安镇黎丰村"}},{"type":"Feature","geometry":{"type":"Point","coordinates":[110.069671,18.432067]},"properties":{"full_address":"海南省省直辖县级行政单位陵水黎族自治县黎安镇黎明村"}},{"type":"Feature","geometry":{"type":"Point","coordinates":[110.024592,18.404398]},"properties":{"full_address":"海南省省直辖县级行政单位陵水黎族自治县黎安镇大墩村"}},{"type":"Feature","geometry":{"type":"Point","coordinates":[109.882856,18.426085]},"properties":{"full_address":"海南省省直辖县级行政单位陵水黎族自治县英州镇大石村委会大石村"}},{"type":"Feature","geometry":{"type":"Point","coordinates":[109.902398,18.455547]},"properties":{"full_address":"海南省省直辖县级行政单位陵水黎族自治县英州镇红鞋村委会九尾吊村"}},{"type":"Feature","geometry":{"type":"Point","coordinates":[109.902398,18.455547]},"properties":{"full_address":"海南省省直辖县级行政单位陵水黎族自治县英州镇红鞋村委会毛懂村"}},{"type":"Feature","geometry":{"type":"Point","coordinates":[109.853998,18.420305]},"properties":{"full_address":"海南省省直辖县级行政单位陵水黎族自治县英州镇英榆大道295号御指足道"}},{"type":"Feature","geometry":{"type":"Point","coordinates":[109.872703,18.402032]},"properties":{"full_address":"海南省省直辖县级行政单位陵水黎族自治县英州镇雅居乐海边售楼部"}},{"type":"Feature","geometry":{"type":"Point","coordinates":[109.85922,18.427069]},"properties":{"full_address":"海南省省直辖县级行政单位陵水黎族自治县英州镇英海二路12号"}},{"type":"Feature","geometry":{"type":"Point","coordinates":[109.869235,18.399005]},"properties":{"full_address":"海南省省直辖县级行政单位陵水黎族自治县英州镇清水湾瀚海银滩SSA282栋3层"}},{"type":"Feature","geometry":{"type":"Point","coordinates":[109.878572,18.408261]},"properties":{"full_address":"海南省省直辖县级行政单位陵水黎族自治县英州镇雅居乐碧海帆影小区2B和2C区"}},{"type":"Feature","geometry":{"type":"Point","coordinates":[109.826559,18.422488]},"properties":{"full_address":"海南省省直辖县级行政单位陵水黎族自治县英州镇鹅仔村委会深田村"}},{"type":"Feature","geometry":{"type":"Point","coordinates":[109.804917,18.417114]},"properties":{"full_address":"海南省省直辖县级行政单位陵水黎族自治县英州镇古楼村委会石井村"}},{"type":"Feature","geometry":{"type":"Point","coordinates":[109.975111,18.616871]},"properties":{"full_address":"海南省省直辖县级行政单位陵水黎族自治县英州镇英州村委会英州村"}},{"type":"Feature","geometry":{"type":"Point","coordinates":[109.975111,18.616871]},"properties":{"full_address":"海南省省直辖县级行政单位陵水黎族自治县英州镇英州村委会市场村黄某付家周围两户（东至严某军，南至胡某显家）"}},{"type":"Feature","geometry":{"type":"Point","coordinates":[109.826559,18.422488]},"properties":{"full_address":"海南省省直辖县级行政单位陵水黎族自治县英州镇鹅仔村委会吊鹅村黄某花家至东边王某珍家共2户"}},{"type":"Feature","geometry":{"type":"Point","coordinates":[109.846109,18.404039]},"properties":{"full_address":"海南省省直辖县级行政单位陵水黎族自治县英州镇海洋之心酒店第9栋"}},{"type":"Feature","geometry":{"type":"Point","coordinates":[109.849226,18.399974]},"properties":{"full_address":"海南省省直辖县级行政单位陵水黎族自治县英州镇蔚蓝星语三区办公室半径30米以内"}},{"type":"Feature","geometry":{"type":"Point","coordinates":[109.872703,18.402032]},"properties":{"full_address":"海南省省直辖县级行政单位陵水黎族自治县英州镇雅居乐03区物业总仓办公区"}},{"type":"Feature","geometry":{"type":"Point","coordinates":[109.831904,18.448834]},"properties":{"full_address":"海南省省直辖县级行政单位陵水黎族自治县英州镇高土村委会龙马一、二小组"}},{"type":"Feature","geometry":{"type":"Point","coordinates":[106.458294,29.549003]},"properties":{"full_address":"重庆市重庆市沙坪坝区天星桥正街、小龙坎正街、石小路、龙泉路、小龙坎新街、站南路、清溪路、天梨路、天马路、天星桥正街的合围区域中除高风险区外的其他区域"}},{"type":"Feature","geometry":{"type":"Point","coordinates":[106.457,29.545492]},"properties":{"full_address":"重庆市重庆市沙坪坝区天星桥街道制药村51号、52号、53号、87号、88号、89号、90号"}},{"type":"Feature","geometry":{"type":"Point","coordinates":[106.458719,29.548846]},"properties":{"full_address":"重庆市重庆市沙坪坝区天星桥街道小龙坎正街333号风华大厦"}},{"type":"Feature","geometry":{"type":"Point","coordinates":[106.459934,29.548895]},"properties":{"full_address":"重庆市重庆市沙坪坝区天星桥街道小龙坎正街339号港城花园"}},{"type":"Feature","geometry":{"type":"Point","coordinates":[106.447892,29.535363]},"properties":{"full_address":"重庆市重庆市沙坪坝区天星桥街道都市花园中路还建房50号—74号"}},{"type":"Feature","geometry":{"type":"Point","coordinates":[106.450332,29.547274]},"properties":{"full_address":"重庆市重庆市沙坪坝区天星桥街道晒光坪69号福源山庄小区"}},{"type":"Feature","geometry":{"type":"Point","coordinates":[106.452296,29.547513]},"properties":{"full_address":"重庆市重庆市沙坪坝区天星桥街道晒光坪56号篱岛生态小区"}},{"type":"Feature","geometry":{"type":"Point","coordinates":[106.453398,29.548743]},"properties":{"full_address":"重庆市重庆市沙坪坝区天星桥街道晒光坪52号天星苑"}},{"type":"Feature","geometry":{"type":"Point","coordinates":[106.453602,29.547171]},"properties":{"full_address":"重庆市重庆市沙坪坝区天星桥街道晒光坪39号药厂宿舍"}},{"type":"Feature","geometry":{"type":"Point","coordinates":[106.453231,29.546108]},"properties":{"full_address":"重庆市重庆市沙坪坝区天星桥街道晒光坪1号、3号、5号、7号、9号升伟新天地"}},{"type":"Feature","geometry":{"type":"Point","coordinates":[106.458786,29.543054]},"properties":{"full_address":"重庆市重庆市沙坪坝区覃家岗街道天马路186号A1栋"}},{"type":"Feature","geometry":{"type":"Point","coordinates":[106.451016,29.5579]},"properties":{"full_address":"重庆市重庆市沙坪坝区渝碚路街道杨梨路60号金阳牛津街小区除高风险区外的其他区域"}},{"type":"Feature","geometry":{"type":"Point","coordinates":[106.439739,29.523974]},"properties":{"full_address":"重庆市重庆市沙坪坝区新桥街道三陵雅园B区除高风险区外的其他区域"}},{"type":"Feature","geometry":{"type":"Point","coordinates":[106.451462,29.573446]},"properties":{"full_address":"重庆市重庆市沙坪坝区磁器口街道磁建村88号国盛三千城小区"}},{"type":"Feature","geometry":{"type":"Point","coordinates":[104.556114,30.387257]},"properties":{"full_address":"四川省成都市简阳市石笋井街、红建路北段、金水街乔北巷临健康巷路边房屋范围内的区域（其中含滨水怡景小区及南北两侧楼栋、桥北巷城中村部分区域）"}},{"type":"Feature","geometry":{"type":"Point","coordinates":[106.10416,30.7776]},"properties":{"full_address":"四川省南充市南部县盘龙镇龙升社区、龙腾社区、兴盛社区"}},{"type":"Feature","geometry":{"type":"Point","coordinates":[106.090483,31.282635]},"properties":{"full_address":"四川省南充市南部县盘龙镇观音井村"}},{"type":"Feature","geometry":{"type":"Point","coordinates":[102.798598,31.66063]},"properties":{"full_address":"四川省阿坝藏族羌族自治州理县米亚罗镇青城饭店"}},{"type":"Feature","geometry":{"type":"Point","coordinates":[102.979307,31.496693]},"properties":{"full_address":"四川省阿坝藏族羌族自治州理县古尔沟镇枫悦大酒店"}},{"type":"Feature","geometry":{"type":"Point","coordinates":[103.174273,31.441598]},"properties":{"full_address":"四川省阿坝藏族羌族自治州理县杂谷脑镇壹山依舍酒店"}},{"type":"Feature","geometry":{"type":"Point","coordinates":[103.174273,31.441598]},"properties":{"full_address":"四川省阿坝藏族羌族自治州理县杂谷脑镇吉祥岗赞酒店"}},{"type":"Feature","geometry":{"type":"Point","coordinates":[107.47701,27.066064]},"properties":{"full_address":"贵州省黔南布依族苗族自治州瓮安县瓮水街道广场社区华都嘉苑5号楼"}},{"type":"Feature","geometry":{"type":"Point","coordinates":[91.134088,29.654065]},"properties":{"full_address":"西藏自治区拉萨市城关区丹杰林路吖啦嗦饭馆"}},{"type":"Feature","geometry":{"type":"Point","coordinates":[91.144553,29.650329]},"properties":{"full_address":"西藏自治区拉萨市城关区江苏大道嚓荣鲁突茶馆"}},{"type":"Feature","geometry":{"type":"Point","coordinates":[91.135594,29.675344]},"properties":{"full_address":"西藏自治区拉萨市城关区色拉北路圣城花园"}},{"type":"Feature","geometry":{"type":"Point","coordinates":[91.180051,29.642546]},"properties":{"full_address":"西藏自治区拉萨市城关区西藏大学（纳金校区、河坝林校区）"}},{"type":"Feature","geometry":{"type":"Point","coordinates":[91.148307,29.682842]},"properties":{"full_address":"西藏自治区拉萨市城关区夺底路45号"}},{"type":"Feature","geometry":{"type":"Point","coordinates":[91.096285,29.655515]},"properties":{"full_address":"西藏自治区拉萨市城关区拉萨饭店"}},{"type":"Feature","geometry":{"type":"Point","coordinates":[91.129506,29.652469]},"properties":{"full_address":"西藏自治区拉萨市城关区功德林天街三楼贵哥卤肉卷"}},{"type":"Feature","geometry":{"type":"Point","coordinates":[91.145261,29.646277]},"properties":{"full_address":"西藏自治区拉萨市城关区林聚南路西藏大学后门北侧财政局商品房7-8号藏大俄洛桥烧烤店"}},{"type":"Feature","geometry":{"type":"Point","coordinates":[91.069293,29.657767]},"properties":{"full_address":"西藏自治区拉萨市城关区八一北路西苑6栋1单元"}},{"type":"Feature","geometry":{"type":"Point","coordinates":[91.0835,29.658791]},"properties":{"full_address":"西藏自治区拉萨市城关区北京西路26号自治区统计局"}},{"type":"Feature","geometry":{"type":"Point","coordinates":[91.178772,29.652769]},"properties":{"full_address":"西藏自治区拉萨市城关区纳金乡江苏大道73号自治区自然资源厅"}},{"type":"Feature","geometry":{"type":"Point","coordinates":[91.154328,29.67393]},"properties":{"full_address":"西藏自治区拉萨市城关区藏热北路蜀园小区9栋1单元"}},{"type":"Feature","geometry":{"type":"Point","coordinates":[91.125347,29.69418]},"properties":{"full_address":"西藏自治区拉萨市城关区娘热北路派乐汉堡店"}},{"type":"Feature","geometry":{"type":"Point","coordinates":[91.124945,29.683768]},"properties":{"full_address":"西藏自治区拉萨市城关区娘热北路随之康药店"}},{"type":"Feature","geometry":{"type":"Point","coordinates":[91.221058,29.636756]},"properties":{"full_address":"西藏自治区拉萨市城关区娘热北路城北佐恩服装店"}},{"type":"Feature","geometry":{"type":"Point","coordinates":[91.25441,29.640833]},"properties":{"full_address":"西藏自治区拉萨市城关区智昭产业园区羊尚人家"}},{"type":"Feature","geometry":{"type":"Point","coordinates":[91.132592,29.653137]},"properties":{"full_address":"西藏自治区拉萨市城关区亚宾馆"}},{"type":"Feature","geometry":{"type":"Point","coordinates":[91.140998,29.679275]},"properties":{"full_address":"西藏自治区拉萨市城关区慈松塘扎基北路锦绣天下二楼措拉餐吧"}},{"type":"Feature","geometry":{"type":"Point","coordinates":[91.137683,29.657819]},"properties":{"full_address":"西藏自治区拉萨市城关区纳金路63号万科书店"}},{"type":"Feature","geometry":{"type":"Point","coordinates":[91.134509,29.665798]},"properties":{"full_address":"西藏自治区拉萨市城关区江苏大道塔玛西路游乐园幼儿园（东郊园区）"}},{"type":"Feature","geometry":{"type":"Point","coordinates":[91.10743,29.6543]},"properties":{"full_address":"西藏自治区拉萨市城关区德吉中路龙布斯钦酒吧"}},{"type":"Feature","geometry":{"type":"Point","coordinates":[91.148556,29.662871]},"properties":{"full_address":"西藏自治区拉萨市城关区当热东路蜀邑香毛肚火锅"}},{"type":"Feature","geometry":{"type":"Point","coordinates":[91.128348,29.664314]},"properties":{"full_address":"西藏自治区拉萨市城关区团结新村北门当热中路德居宾馆"}},{"type":"Feature","geometry":{"type":"Point","coordinates":[91.131503,29.651767]},"properties":{"full_address":"西藏自治区拉萨市城关区丹杰林路光明港琼甜茶馆"}},{"type":"Feature","geometry":{"type":"Point","coordinates":[91.129855,29.657839]},"properties":{"full_address":"西藏自治区拉萨市城关区林廓北路温州商贸城"}},{"type":"Feature","geometry":{"type":"Point","coordinates":[91.179396,29.645965]},"properties":{"full_address":"西藏自治区拉萨市城关区城北美食城"}},{"type":"Feature","geometry":{"type":"Point","coordinates":[91.121675,29.671719]},"properties":{"full_address":"西藏自治区拉萨市城关区娘热路幸福新村"}},{"type":"Feature","geometry":{"type":"Point","coordinates":[91.131375,29.6562]},"properties":{"full_address":"西藏自治区拉萨市城关区丹杰林路18号（扎西私房）"}},{"type":"Feature","geometry":{"type":"Point","coordinates":[90.992501,29.647322]},"properties":{"full_address":"西藏自治区拉萨市堆龙德庆区南嘎社区钢材市场"}},{"type":"Feature","geometry":{"type":"Point","coordinates":[90.998542,29.645847]},"properties":{"full_address":"西藏自治区拉萨市堆龙德庆区南嘎社区批发市场南门4号自建房"}},{"type":"Feature","geometry":{"type":"Point","coordinates":[90.964963,29.634935]},"properties":{"full_address":"西藏自治区拉萨市堆龙德庆区桑木社区柳东路兴旺超市公寓"}},{"type":"Feature","geometry":{"type":"Point","coordinates":[90.982174,29.647263]},"properties":{"full_address":"西藏自治区拉萨市堆龙德庆区桑木社区柳东路速洁洗车"}},{"type":"Feature","geometry":{"type":"Point","coordinates":[90.997985,29.616743]},"properties":{"full_address":"西藏自治区拉萨市堆龙德庆区岗德林社区4组索朗晋美出租房"}},{"type":"Feature","geometry":{"type":"Point","coordinates":[90.986029,29.630313]},"properties":{"full_address":"西藏自治区拉萨市堆龙德庆区乃琼街道弘顺装卸楼员工宿舍"}},{"type":"Feature","geometry":{"type":"Point","coordinates":[90.976036,29.655375]},"properties":{"full_address":"西藏自治区拉萨市堆龙德庆区乃琼街道乃琼社区3组67号"}},{"type":"Feature","geometry":{"type":"Point","coordinates":[91.089381,29.607424]},"properties":{"full_address":"西藏自治区拉萨市堆龙德庆区柳梧万达南阳大师傅蛋糕店"}},{"type":"Feature","geometry":{"type":"Point","coordinates":[90.997985,29.616743]},"properties":{"full_address":"西藏自治区拉萨市堆龙德庆区经开区旺唐岗德林购物店"}},{"type":"Feature","geometry":{"type":"Point","coordinates":[91.089381,29.607424]},"properties":{"full_address":"西藏自治区拉萨市堆龙德庆区柳梧万达吉源烤肉店"}},{"type":"Feature","geometry":{"type":"Point","coordinates":[91.078954,29.628728]},"properties":{"full_address":"西藏自治区拉萨市堆龙德庆区高度江南岸小区"}},{"type":"Feature","geometry":{"type":"Point","coordinates":[91.078954,29.628728]},"properties":{"full_address":"西藏自治区拉萨市堆龙德庆区天知珑怡小区"}},{"type":"Feature","geometry":{"type":"Point","coordinates":[91.089381,29.607424]},"properties":{"full_address":"西藏自治区拉萨市堆龙德庆区柳梧村火车站集体出租房"}},{"type":"Feature","geometry":{"type":"Point","coordinates":[91.078004,29.613347]},"properties":{"full_address":"西藏自治区拉萨市堆龙德庆区桑旦林一期小区"}},{"type":"Feature","geometry":{"type":"Point","coordinates":[90.972526,29.656817]},"properties":{"full_address":"西藏自治区拉萨市堆龙德庆区东嘎街道祥和苑社区"}},{"type":"Feature","geometry":{"type":"Point","coordinates":[90.972526,29.656817]},"properties":{"full_address":"西藏自治区拉萨市堆龙德庆区东嘎街道祥和苑社区东侧老路入口自建出租房仲多仓公寓"}},{"type":"Feature","geometry":{"type":"Point","coordinates":[90.952631,29.662911]},"properties":{"full_address":"西藏自治区拉萨市堆龙德庆区羊达社区2组沿街门面房"}},{"type":"Feature","geometry":{"type":"Point","coordinates":[91.024716,29.649859]},"properties":{"full_address":"西藏自治区拉萨市堆龙德庆区东嘎社区1组门面房瑞峰商务酒店"}},{"type":"Feature","geometry":{"type":"Point","coordinates":[91.09397,29.644658]},"properties":{"full_address":"西藏自治区拉萨市堆龙德庆区桑木社区3组滨河路入口处自建出租房"}},{"type":"Feature","geometry":{"type":"Point","coordinates":[90.998542,29.645847]},"properties":{"full_address":"西藏自治区拉萨市堆龙德庆区南嘎社区2组扎西出租房"}},{"type":"Feature","geometry":{"type":"Point","coordinates":[90.998157,29.652495]},"properties":{"full_address":"西藏自治区拉萨市堆龙德庆区东嘎水泥厂龙龙公寓"}},{"type":"Feature","geometry":{"type":"Point","coordinates":[90.997985,29.616743]},"properties":{"full_address":"西藏自治区拉萨市堆龙德庆区岗德林社区3组结成出租房"}},{"type":"Feature","geometry":{"type":"Point","coordinates":[90.997985,29.616743]},"properties":{"full_address":"西藏自治区拉萨市堆龙德庆区岗德林社区4组喜明公寓"}},{"type":"Feature","geometry":{"type":"Point","coordinates":[90.992195,29.644175]},"properties":{"full_address":"西藏自治区拉萨市堆龙德庆区东嘎街道加落路4号"}},{"type":"Feature","geometry":{"type":"Point","coordinates":[91.009065,29.635768]},"properties":{"full_address":"西藏自治区拉萨市堆龙德庆区东嘎街道拉贡路1247—5号"}},{"type":"Feature","geometry":{"type":"Point","coordinates":[90.984049,29.630491]},"properties":{"full_address":"西藏自治区拉萨市堆龙德庆区乃琼街道波玛路915号"}},{"type":"Feature","geometry":{"type":"Point","coordinates":[90.99432,29.651824]},"properties":{"full_address":"西藏自治区拉萨市堆龙德庆区东嘎街道青藏路528—3号"}},{"type":"Feature","geometry":{"type":"Point","coordinates":[91.297229,29.658637]},"properties":{"full_address":"西藏自治区拉萨市达孜区德庆镇桑珠林村"}},{"type":"Feature","geometry":{"type":"Point","coordinates":[91.160684,29.903121]},"properties":{"full_address":"西藏自治区拉萨市林周县卡孜乡路2号"}},{"type":"Feature","geometry":{"type":"Point","coordinates":[91.258337,29.896414]},"properties":{"full_address":"西藏自治区拉萨市林周县甘曲镇甘曲路17号附4（醉人音响店）"}},{"type":"Feature","geometry":{"type":"Point","coordinates":[91.265288,29.893545]},"properties":{"full_address":"西藏自治区拉萨市林周县江夏乡江夏路2号"}},{"type":"Feature","geometry":{"type":"Point","coordinates":[91.265288,29.893545]},"properties":{"full_address":"西藏自治区拉萨市林周县江夏乡江夏路江夏组朗白仓商店"}},{"type":"Feature","geometry":{"type":"Point","coordinates":[91.197562,29.921802]},"properties":{"full_address":"西藏自治区拉萨市林周县强嘎乡曲嘎强村搬迁组"}},{"type":"Feature","geometry":{"type":"Point","coordinates":[91.010582,29.942512]},"properties":{"full_address":"西藏自治区拉萨市林周县春堆乡春堆村当巴组"}},{"type":"Feature","geometry":{"type":"Point","coordinates":[91.158801,29.870982]},"properties":{"full_address":"西藏自治区拉萨市林周县卡孜乡托门村恰西组"}},{"type":"Feature","geometry":{"type":"Point","coordinates":[91.403462,30.559743]},"properties":{"full_address":"西藏自治区拉萨市当雄县乌玛塘乡郝如村1、2、3组"}},{"type":"Feature","geometry":{"type":"Point","coordinates":[91.576988,30.607132]},"properties":{"full_address":"西藏自治区拉萨市当雄县乌玛塘乡郭尼村2、3、4、5组"}},{"type":"Feature","geometry":{"type":"Point","coordinates":[91.490608,30.578024]},"properties":{"full_address":"西藏自治区拉萨市当雄县乌玛塘乡纳龙村"}},{"type":"Feature","geometry":{"type":"Point","coordinates":[90.533806,30.087167]},"properties":{"full_address":"西藏自治区拉萨市当雄县羊八井镇桑巴萨社区2组除康桑区域以外的其他区域"}},{"type":"Feature","geometry":{"type":"Point","coordinates":[91.109596,30.475618]},"properties":{"full_address":"西藏自治区拉萨市当雄县当曲卡镇当区社区"}},{"type":"Feature","geometry":{"type":"Point","coordinates":[91.101162,30.473119]},"properties":{"full_address":"西藏自治区拉萨市当雄县城后藏茶馆"}},{"type":"Feature","geometry":{"type":"Point","coordinates":[90.714235,29.409944]},"properties":{"full_address":"西藏自治区拉萨市曲水县曲水镇曲甫路幸福度假村"}},{"type":"Feature","geometry":{"type":"Point","coordinates":[91.730866,29.834132]},"properties":{"full_address":"西藏自治区拉萨市墨竹工卡县城铁链包子店"}},{"type":"Feature","geometry":{"type":"Point","coordinates":[91.730866,29.834132]},"properties":{"full_address":"西藏自治区拉萨市墨竹工卡县德吉林卡"}},{"type":"Feature","geometry":{"type":"Point","coordinates":[91.730866,29.834132]},"properties":{"full_address":"西藏自治区拉萨市墨竹工卡县四海超市旁回族服装店"}},{"type":"Feature","geometry":{"type":"Point","coordinates":[91.730866,29.834132]},"properties":{"full_address":"西藏自治区拉萨市墨竹工卡县墨竹肉汤店"}},{"type":"Feature","geometry":{"type":"Point","coordinates":[91.65893,29.758854]},"properties":{"full_address":"西藏自治区拉萨市墨竹工卡县甲玛批发购物"}},{"type":"Feature","geometry":{"type":"Point","coordinates":[88.878795,29.268422]},"properties":{"full_address":"西藏自治区日喀则市桑珠孜区通源小区"}},{"type":"Feature","geometry":{"type":"Point","coordinates":[88.88727,29.270389]},"properties":{"full_address":"西藏自治区日喀则市桑珠孜区南郊公租房二区13栋"}},{"type":"Feature","geometry":{"type":"Point","coordinates":[88.881405,29.265892]},"properties":{"full_address":"西藏自治区日喀则市桑珠孜区山东北路欧氏诊所"}},{"type":"Feature","geometry":{"type":"Point","coordinates":[88.889414,29.254051]},"properties":{"full_address":"西藏自治区日喀则市桑珠孜区教育安居23栋"}},{"type":"Feature","geometry":{"type":"Point","coordinates":[88.897636,29.241721]},"properties":{"full_address":"西藏自治区日喀则市桑珠孜区黑龙江南路牛爱猪韩式碳烤店"}},{"type":"Feature","geometry":{"type":"Point","coordinates":[88.885624,29.240181]},"properties":{"full_address":"西藏自治区日喀则市桑珠孜区鸿达花园C区7号"}},{"type":"Feature","geometry":{"type":"Point","coordinates":[88.885162,29.264153]},"properties":{"full_address":"西藏自治区日喀则市桑珠孜区藏隆广场生艾堂"}},{"type":"Feature","geometry":{"type":"Point","coordinates":[88.88727,29.270389]},"properties":{"full_address":"西藏自治区日喀则市桑珠孜区矿业小区1栋"}},{"type":"Feature","geometry":{"type":"Point","coordinates":[88.886213,29.256468]},"properties":{"full_address":"西藏自治区日喀则市桑珠孜区交警支队住宿楼三单元"}},{"type":"Feature","geometry":{"type":"Point","coordinates":[88.889578,29.273801]},"properties":{"full_address":"西藏自治区日喀则市桑珠孜区教武场社区金珠林新建教武场东南角正对面10栋自建房"}},{"type":"Feature","geometry":{"type":"Point","coordinates":[88.882225,29.258805]},"properties":{"full_address":"西藏自治区日喀则市桑珠孜区嘎玉林社区第一高级中学西面自建房自北向南第5排"}},{"type":"Feature","geometry":{"type":"Point","coordinates":[88.86618,29.253392]},"properties":{"full_address":"西藏自治区日喀则市桑珠孜区德勒社区办公楼北面10栋自建房"}},{"type":"Feature","geometry":{"type":"Point","coordinates":[88.83453,29.441032]},"properties":{"full_address":"西藏自治区日喀则市桑珠孜区城南街道康萨二区"}},{"type":"Feature","geometry":{"type":"Point","coordinates":[88.879737,29.269282]},"properties":{"full_address":"西藏自治区日喀则市桑珠孜区雪强路扎西曲塔酒店（喜嘎央恰）"}},{"type":"Feature","geometry":{"type":"Point","coordinates":[88.88061,29.269131]},"properties":{"full_address":"西藏自治区日喀则市桑珠孜区桑珠孜饭店雪强路18号"}},{"type":"Feature","geometry":{"type":"Point","coordinates":[88.936052,29.184234]},"properties":{"full_address":"西藏自治区日喀则市桑珠孜区甲措雄乡比杂村"}},{"type":"Feature","geometry":{"type":"Point","coordinates":[88.885162,29.264153]},"properties":{"full_address":"西藏自治区日喀则市桑珠孜区藏隆广场黄记煌餐厅"}},{"type":"Feature","geometry":{"type":"Point","coordinates":[88.901485,29.255269]},"properties":{"full_address":"西藏自治区日喀则市桑珠孜区雄孜热小区A区10号"}},{"type":"Feature","geometry":{"type":"Point","coordinates":[88.88727,29.270389]},"properties":{"full_address":"西藏自治区日喀则市桑珠孜区齐鲁大道旦木念苍餐厅"}},{"type":"Feature","geometry":{"type":"Point","coordinates":[88.898211,29.254972]},"properties":{"full_address":"西藏自治区日喀则市桑珠孜区龙江路茗珠缘茶会所"}},{"type":"Feature","geometry":{"type":"Point","coordinates":[88.89335,29.252779]},"properties":{"full_address":"西藏自治区日喀则市桑珠孜区黑龙江路白雪藏餐"}},{"type":"Feature","geometry":{"type":"Point","coordinates":[88.88023,29.263263]},"properties":{"full_address":"西藏自治区日喀则市桑珠孜区珠峰路电信公司职工周转房5栋"}},{"type":"Feature","geometry":{"type":"Point","coordinates":[88.893402,29.270536]},"properties":{"full_address":"西藏自治区日喀则市桑珠孜区神湖1区1栋"}},{"type":"Feature","geometry":{"type":"Point","coordinates":[88.898494,29.263593]},"properties":{"full_address":"西藏自治区日喀则市桑珠孜区雅喜花园"}},{"type":"Feature","geometry":{"type":"Point","coordinates":[88.886634,29.263474]},"properties":{"full_address":"西藏自治区日喀则市桑珠孜区珠峰路农行公寓16栋"}},{"type":"Feature","geometry":{"type":"Point","coordinates":[88.896135,29.259659]},"properties":{"full_address":"西藏自治区日喀则市桑珠孜区达热瓦安居B区9栋"}},{"type":"Feature","geometry":{"type":"Point","coordinates":[88.882191,29.268904]},"properties":{"full_address":"西藏自治区日喀则市桑珠孜区金龙菜市场"}},{"type":"Feature","geometry":{"type":"Point","coordinates":[88.89036,29.257209]},"properties":{"full_address":"西藏自治区日喀则市桑珠孜区人行退休基地"}},{"type":"Feature","geometry":{"type":"Point","coordinates":[88.879162,29.273336]},"properties":{"full_address":"西藏自治区日喀则市桑珠孜区雪强路远大诊所"}},{"type":"Feature","geometry":{"type":"Point","coordinates":[88.88727,29.270389]},"properties":{"full_address":"西藏自治区日喀则市桑珠孜区五居委5号"}},{"type":"Feature","geometry":{"type":"Point","coordinates":[88.881501,29.268986]},"properties":{"full_address":"西藏自治区日喀则市桑珠孜区青岛西路建司内科诊所"}},{"type":"Feature","geometry":{"type":"Point","coordinates":[88.882339,29.261923]},"properties":{"full_address":"西藏自治区日喀则市桑珠孜区哥比伦咖啡店"}},{"type":"Feature","geometry":{"type":"Point","coordinates":[88.896135,29.259659]},"properties":{"full_address":"西藏自治区日喀则市桑珠孜区达热瓦小区拉萨贡吉茶馆第三分店"}},{"type":"Feature","geometry":{"type":"Point","coordinates":[88.86618,29.253392]},"properties":{"full_address":"西藏自治区日喀则市桑珠孜区德勒社区英悦旱冰场"}},{"type":"Feature","geometry":{"type":"Point","coordinates":[88.873496,29.261219]},"properties":{"full_address":"西藏自治区日喀则市桑珠孜区珠峰西路扎寺广场西侧丰盛餐馆"}},{"type":"Feature","geometry":{"type":"Point","coordinates":[88.87725,29.265909]},"properties":{"full_address":"西藏自治区日喀则市桑珠孜区步行街平措丰盛餐馆"}},{"type":"Feature","geometry":{"type":"Point","coordinates":[89.101213,29.684993]},"properties":{"full_address":"西藏自治区日喀则市南木林县南木林镇甲岗宗巴（往东、南、西）（门牌：002号至036号）共35户"}},{"type":"Feature","geometry":{"type":"Point","coordinates":[89.082383,29.683758]},"properties":{"full_address":"西藏自治区日喀则市南木林县南木林镇岗巴村（森康自然村）"}},{"type":"Feature","geometry":{"type":"Point","coordinates":[87.122625,28.659554]},"properties":{"full_address":"西藏自治区日喀则市定日县协格尔镇德吉小区（德吉小区1栋1单元除外）"}},{"type":"Feature","geometry":{"type":"Point","coordinates":[87.122625,28.659554]},"properties":{"full_address":"西藏自治区日喀则市定日县协格尔镇政法小区"}},{"type":"Feature","geometry":{"type":"Point","coordinates":[87.128161,28.656636]},"properties":{"full_address":"西藏自治区日喀则市定日县协格尔镇阳光小区（定日县协格尔镇阳光小区1栋2单元和3栋2单元除外）"}},{"type":"Feature","geometry":{"type":"Point","coordinates":[87.123251,28.657505]},"properties":{"full_address":"西藏自治区日喀则市定日县协格尔镇珠峰南路2号"}},{"type":"Feature","geometry":{"type":"Point","coordinates":[87.12612,28.658743]},"properties":{"full_address":"西藏自治区日喀则市定日县城易地搬迁点"}},{"type":"Feature","geometry":{"type":"Point","coordinates":[87.122625,28.659554]},"properties":{"full_address":"西藏自治区日喀则市定日县协格尔镇格桑花小区（格桑花小区28栋二单元除外）"}},{"type":"Feature","geometry":{"type":"Point","coordinates":[87.122625,28.659554]},"properties":{"full_address":"西藏自治区日喀则市定日县协格尔镇扎西小区（扎西小区一栋一单元除外）"}},{"type":"Feature","geometry":{"type":"Point","coordinates":[88.497964,29.161721]},"properties":{"full_address":"西藏自治区日喀则市萨迦县扯休乡朗巴吉村"}},{"type":"Feature","geometry":{"type":"Point","coordinates":[87.984043,28.915861]},"properties":{"full_address":"西藏自治区日喀则市萨迦县扎西岗乡查玛村"}},{"type":"Feature","geometry":{"type":"Point","coordinates":[87.982882,28.881727]},"properties":{"full_address":"西藏自治区日喀则市萨迦县扎西岗乡玉萨村"}},{"type":"Feature","geometry":{"type":"Point","coordinates":[88.021964,28.903121]},"properties":{"full_address":"西藏自治区日喀则市萨迦县萨迦镇团结村"}},{"type":"Feature","geometry":{"type":"Point","coordinates":[88.021674,28.899664]},"properties":{"full_address":"西藏自治区日喀则市萨迦县班智达西路2号"}},{"type":"Feature","geometry":{"type":"Point","coordinates":[88.021674,28.899664]},"properties":{"full_address":"西藏自治区日喀则市萨迦县拉章北路5号"}},{"type":"Feature","geometry":{"type":"Point","coordinates":[88.093522,28.919861]},"properties":{"full_address":"西藏自治区日喀则市萨迦县萨迦镇多夏村"}},{"type":"Feature","geometry":{"type":"Point","coordinates":[88.181877,28.821985]},"properties":{"full_address":"西藏自治区日喀则市萨迦县萨迦镇卡吾村"}},{"type":"Feature","geometry":{"type":"Point","coordinates":[88.031905,28.93403]},"properties":{"full_address":"西藏自治区日喀则市萨迦县萨迦镇索西村"}},{"type":"Feature","geometry":{"type":"Point","coordinates":[88.021674,28.899664]},"properties":{"full_address":"西藏自治区日喀则市萨迦县新城北路2号"}},{"type":"Feature","geometry":{"type":"Point","coordinates":[88.58614,29.155719]},"properties":{"full_address":"西藏自治区日喀则市萨迦县扯休乡生玛村"}},{"type":"Feature","geometry":{"type":"Point","coordinates":[88.454114,29.156447]},"properties":{"full_address":"西藏自治区日喀则市萨迦县扯休乡乃村"}},{"type":"Feature","geometry":{"type":"Point","coordinates":[88.454114,29.156447]},"properties":{"full_address":"西藏自治区日喀则市萨迦县扯休乡乃夏村"}},{"type":"Feature","geometry":{"type":"Point","coordinates":[88.470282,29.176792]},"properties":{"full_address":"西藏自治区日喀则市萨迦县扯休乡吉雄村"}},{"type":"Feature","geometry":{"type":"Point","coordinates":[88.442903,29.176877]},"properties":{"full_address":"西藏自治区日喀则市萨迦县扯休乡嘎吉林村"}},{"type":"Feature","geometry":{"type":"Point","coordinates":[88.55525,28.855034]},"properties":{"full_address":"西藏自治区日喀则市萨迦县拉洛乡觉村"}},{"type":"Feature","geometry":{"type":"Point","coordinates":[88.434076,29.028389]},"properties":{"full_address":"西藏自治区日喀则市萨迦县雄玛乡江嘎村"}},{"type":"Feature","geometry":{"type":"Point","coordinates":[88.360032,29.209495]},"properties":{"full_address":"西藏自治区日喀则市萨迦县吉定镇德吉林村"}},{"type":"Feature","geometry":{"type":"Point","coordinates":[88.360032,29.209495]},"properties":{"full_address":"西藏自治区日喀则市萨迦县吉定镇农业银行"}},{"type":"Feature","geometry":{"type":"Point","coordinates":[87.753142,29.298559]},"properties":{"full_address":"西藏自治区日喀则市拉孜县曲玛乡达布村"}},{"type":"Feature","geometry":{"type":"Point","coordinates":[87.695435,29.156613]},"properties":{"full_address":"西藏自治区日喀则市拉孜县拉孜镇拉孜村"}},{"type":"Feature","geometry":{"type":"Point","coordinates":[87.637797,29.088456]},"properties":{"full_address":"西藏自治区日喀则市拉孜县曲下镇上退休基地东侧第三排"}},{"type":"Feature","geometry":{"type":"Point","coordinates":[86.031446,29.478455]},"properties":{"full_address":"西藏自治区日喀则市昂仁县切热乡龙玛村"}},{"type":"Feature","geometry":{"type":"Point","coordinates":[87.18314,29.26918]},"properties":{"full_address":"西藏自治区日喀则市昂仁县国道349卡嘎镇二级公安检查站往东150米路北"}},{"type":"Feature","geometry":{"type":"Point","coordinates":[86.725946,29.414938]},"properties":{"full_address":"西藏自治区日喀则市昂仁县桑桑镇茂运商务酒店"}},{"type":"Feature","geometry":{"type":"Point","coordinates":[88.70593,30.145357]},"properties":{"full_address":"西藏自治区日喀则市谢通门县娘热乡欧若村"}},{"type":"Feature","geometry":{"type":"Point","coordinates":[88.831219,30.045156]},"properties":{"full_address":"西藏自治区日喀则市谢通门县娘热乡果索村"}},{"type":"Feature","geometry":{"type":"Point","coordinates":[88.169146,30.207384]},"properties":{"full_address":"西藏自治区日喀则市谢通门县娘热乡卡嘎村"}},{"type":"Feature","geometry":{"type":"Point","coordinates":[89.232503,29.233448]},"properties":{"full_address":"西藏自治区日喀则市白朗县嘎东镇亚温村"}},{"type":"Feature","geometry":{"type":"Point","coordinates":[89.156942,29.199503]},"properties":{"full_address":"西藏自治区日喀则市白朗县嘎东镇热旦康萨村"}},{"type":"Feature","geometry":{"type":"Point","coordinates":[89.264908,29.106152]},"properties":{"full_address":"西藏自治区日喀则市白朗县洛江镇颇罗鼐大道以西至伦珠孜东路以北"}},{"type":"Feature","geometry":{"type":"Point","coordinates":[89.143905,29.171938]},"properties":{"full_address":"西藏自治区日喀则市白朗县巴扎乡巴扎村"}},{"type":"Feature","geometry":{"type":"Point","coordinates":[89.208646,29.016563]},"properties":{"full_address":"西藏自治区日喀则市白朗县曲奴乡萨嘎村"}},{"type":"Feature","geometry":{"type":"Point","coordinates":[89.946314,29.182371]},"properties":{"full_address":"西藏自治区日喀则市仁布县查巴乡查巴村查巴自然村"}},{"type":"Feature","geometry":{"type":"Point","coordinates":[89.841984,29.230933]},"properties":{"full_address":"西藏自治区日喀则市仁布县中国邮政集团有限公司西藏自治区仁布县分公司"}},{"type":"Feature","geometry":{"type":"Point","coordinates":[89.841984,29.230933]},"properties":{"full_address":"西藏自治区日喀则市仁布县新城小区"}},{"type":"Feature","geometry":{"type":"Point","coordinates":[89.841984,29.230933]},"properties":{"full_address":"西藏自治区日喀则市仁布县老中学小区"}},{"type":"Feature","geometry":{"type":"Point","coordinates":[89.664715,28.843074]},"properties":{"full_address":"西藏自治区日喀则市康马县南尼乡曲热村"}},{"type":"Feature","geometry":{"type":"Point","coordinates":[89.64944,28.711741]},"properties":{"full_address":"西藏自治区日喀则市康马县少岗乡少岗村夺底小组"}},{"type":"Feature","geometry":{"type":"Point","coordinates":[87.863403,28.174214]},"properties":{"full_address":"西藏自治区日喀则市定结县琼孜乡哲圭村第2栋居民房"}},{"type":"Feature","geometry":{"type":"Point","coordinates":[87.863403,28.174214]},"properties":{"full_address":"西藏自治区日喀则市定结县琼孜乡哲圭村第4栋居民房"}},{"type":"Feature","geometry":{"type":"Point","coordinates":[89.677654,28.555734]},"properties":{"full_address":"西藏自治区日喀则市仲巴县拉让乡:东至柴曲河桥，西至环城路与219国道交叉口，南至中石油加油站，北至柴曲河电站"}},{"type":"Feature","geometry":{"type":"Point","coordinates":[83.673416,29.993312]},"properties":{"full_address":"西藏自治区日喀则市仲巴县帕羊镇神山驿站:东至岗久村村委会，西至藏白玉加工厂，南至马泉河幸福桥，北至帕羊镇变电站"}},{"type":"Feature","geometry":{"type":"Point","coordinates":[83.345518,30.174228]},"properties":{"full_address":"西藏自治区日喀则市仲巴县霍尔巴检查站:东至纽河，西至贡桑村冬季草场，南至贡桑老村委会，北至贡桑新村"}},{"type":"Feature","geometry":{"type":"Point","coordinates":[88.90618,27.482019]},"properties":{"full_address":"西藏自治区日喀则市亚东县隆鑫宾馆"}},{"type":"Feature","geometry":{"type":"Point","coordinates":[88.907094,27.484806]},"properties":{"full_address":"西藏自治区日喀则市亚东县仓琼家庭旅馆"}},{"type":"Feature","geometry":{"type":"Point","coordinates":[88.850618,27.554367]},"properties":{"full_address":"西藏自治区日喀则市亚东县下司马镇下司马社区居委会"}},{"type":"Feature","geometry":{"type":"Point","coordinates":[88.929673,27.690571]},"properties":{"full_address":"西藏自治区日喀则市亚东县康布乡下康布村"}},{"type":"Feature","geometry":{"type":"Point","coordinates":[85.98042,28.156052]},"properties":{"full_address":"西藏自治区日喀则市聂拉木县充堆路53-2"}},{"type":"Feature","geometry":{"type":"Point","coordinates":[85.983172,27.989329]},"properties":{"full_address":"西藏自治区日喀则市聂拉木县农业银行"}},{"type":"Feature","geometry":{"type":"Point","coordinates":[85.980906,28.158169]},"properties":{"full_address":"西藏自治区日喀则市聂拉木县人民法院"}},{"type":"Feature","geometry":{"type":"Point","coordinates":[89.265319,29.104682]},"properties":{"full_address":"西藏自治区日喀则市聂拉木县粮食局"}},{"type":"Feature","geometry":{"type":"Point","coordinates":[85.982237,28.155186]},"properties":{"full_address":"西藏自治区日喀则市聂拉木县聂拉木县互惠互利超市"}},{"type":"Feature","geometry":{"type":"Point","coordinates":[86.140129,28.4172]},"properties":{"full_address":"西藏自治区日喀则市聂拉木县亚来乡来新村"}},{"type":"Feature","geometry":{"type":"Point","coordinates":[86.007601,28.23663]},"properties":{"full_address":"西藏自治区日喀则市聂拉木县聂拉木镇江岗村"}},{"type":"Feature","geometry":{"type":"Point","coordinates":[86.166991,28.451186]},"properties":{"full_address":"西藏自治区日喀则市聂拉木县亚来乡土龙村"}},{"type":"Feature","geometry":{"type":"Point","coordinates":[85.98042,28.156052]},"properties":{"full_address":"西藏自治区日喀则市聂拉木县充堆路"}},{"type":"Feature","geometry":{"type":"Point","coordinates":[85.982707,28.153716]},"properties":{"full_address":"西藏自治区日喀则市聂拉木县烟台路51号邮政局"}},{"type":"Feature","geometry":{"type":"Point","coordinates":[85.978659,28.154206]},"properties":{"full_address":"西藏自治区日喀则市聂拉木县老阳光小区1栋1单元"}},{"type":"Feature","geometry":{"type":"Point","coordinates":[85.979298,28.157194]},"properties":{"full_address":"西藏自治区日喀则市聂拉木县聂拉木镇16-2"}},{"type":"Feature","geometry":{"type":"Point","coordinates":[84.877684,29.353044]},"properties":{"full_address":"西藏自治区日喀则市萨嘎县雄如乡布扎村"}},{"type":"Feature","geometry":{"type":"Point","coordinates":[84.850899,29.417317]},"properties":{"full_address":"西藏自治区日喀则市萨嘎县雄如乡嘎康村"}},{"type":"Feature","geometry":{"type":"Point","coordinates":[85.234315,29.328032]},"properties":{"full_address":"西藏自治区日喀则市萨嘎县加布村自建房18号"}},{"type":"Feature","geometry":{"type":"Point","coordinates":[88.463197,28.232566]},"properties":{"full_address":"西藏自治区日喀则市岗巴县岗巴镇加达村17号"}},{"type":"Feature","geometry":{"type":"Point","coordinates":[97.182261,31.136554]},"properties":{"full_address":"西藏自治区昌都市卡若区聚盛路156号二娃劳保店"}},{"type":"Feature","geometry":{"type":"Point","coordinates":[97.181359,31.135151]},"properties":{"full_address":"西藏自治区昌都市卡若区聚盛路昌庆街社区10号"}},{"type":"Feature","geometry":{"type":"Point","coordinates":[97.177256,31.129798]},"properties":{"full_address":"西藏自治区昌都市卡若区邦达街社区邦达路38号以及与之紧邻的建筑（含邦达路128号、邦达街266号及无门牌号建筑）"}},{"type":"Feature","geometry":{"type":"Point","coordinates":[97.174552,31.137467]},"properties":{"full_address":"西藏自治区昌都市卡若区聚盛路176号"}},{"type":"Feature","geometry":{"type":"Point","coordinates":[97.179312,31.138259]},"properties":{"full_address":"西藏自治区昌都市卡若区茶马广场书亦烧仙草2号店"}},{"type":"Feature","geometry":{"type":"Point","coordinates":[97.182384,31.137493]},"properties":{"full_address":"西藏自治区昌都市卡若区第一综合农贸市场负2层"}},{"type":"Feature","geometry":{"type":"Point","coordinates":[97.180437,31.138507]},"properties":{"full_address":"西藏自治区昌都市卡若区达因卡华子蔬菜水果店"}},{"type":"Feature","geometry":{"type":"Point","coordinates":[97.179312,31.138259]},"properties":{"full_address":"西藏自治区昌都市卡若区茶马广场老友面馆（瑞庭酒店旁）"}},{"type":"Feature","geometry":{"type":"Point","coordinates":[97.180437,31.138507]},"properties":{"full_address":"西藏自治区昌都市卡若区达因卡廉租房小区除8号楼以外其他楼"}},{"type":"Feature","geometry":{"type":"Point","coordinates":[97.180437,31.138507]},"properties":{"full_address":"西藏自治区昌都市卡若区东路19号AAA爱车房美容店"}},{"type":"Feature","geometry":{"type":"Point","coordinates":[97.179312,31.138259]},"properties":{"full_address":"西藏自治区昌都市卡若区茶马广场济世堂大药房"}},{"type":"Feature","geometry":{"type":"Point","coordinates":[97.178604,31.135406]},"properties":{"full_address":"西藏自治区昌都市卡若区新丝路理发店"}},{"type":"Feature","geometry":{"type":"Point","coordinates":[97.180437,31.138507]},"properties":{"full_address":"西藏自治区昌都市卡若区李家炒货"}},{"type":"Feature","geometry":{"type":"Point","coordinates":[94.360144,29.663603]},"properties":{"full_address":"西藏自治区林芝市巴宜区水之缘桑拿浴足中心"}},{"type":"Feature","geometry":{"type":"Point","coordinates":[94.356352,29.674976]},"properties":{"full_address":"西藏自治区林芝市巴宜区双拥北路9号八一电厂小区7栋"}},{"type":"Feature","geometry":{"type":"Point","coordinates":[94.477744,29.449557]},"properties":{"full_address":"西藏自治区林芝市巴宜区林芝镇立定村"}},{"type":"Feature","geometry":{"type":"Point","coordinates":[94.377417,29.633605]},"properties":{"full_address":"西藏自治区林芝市巴宜区德吉小区"}},{"type":"Feature","geometry":{"type":"Point","coordinates":[94.361929,29.663075]},"properties":{"full_address":"西藏自治区林芝市巴宜区工布老街B2号林芝柏栎荟舍酒店"}},{"type":"Feature","geometry":{"type":"Point","coordinates":[94.381785,29.62272]},"properties":{"full_address":"西藏自治区林芝市巴宜区幸福小区B3-16-S114号啦咧思藏餐厅"}},{"type":"Feature","geometry":{"type":"Point","coordinates":[94.363765,29.656113]},"properties":{"full_address":"西藏自治区林芝市巴宜区平安路与广东路交叉口西南40米处阿牛茶馆"}},{"type":"Feature","geometry":{"type":"Point","coordinates":[94.356022,29.660244]},"properties":{"full_address":"西藏自治区林芝市巴宜区福建路风情大酒店"}},{"type":"Feature","geometry":{"type":"Point","coordinates":[94.380378,29.625687]},"properties":{"full_address":"西藏自治区林芝市巴宜区幸福小区皇家包子"}},{"type":"Feature","geometry":{"type":"Point","coordinates":[94.380378,29.625687]},"properties":{"full_address":"西藏自治区林芝市巴宜区幸福小区C4区8栋"}},{"type":"Feature","geometry":{"type":"Point","coordinates":[94.360805,29.662455]},"properties":{"full_address":"西藏自治区林芝市巴宜区工布老街B5栋林芝民生村镇银行"}},{"type":"Feature","geometry":{"type":"Point","coordinates":[95.775987,29.848688]},"properties":{"full_address":"西藏自治区林芝市波密县中学校内职工周转房5栋后平房"}},{"type":"Feature","geometry":{"type":"Point","coordinates":[93.071592,29.04421]},"properties":{"full_address":"西藏自治区林芝市朗县福州路福园藏餐厅"}},{"type":"Feature","geometry":{"type":"Point","coordinates":[91.774858,29.245078]},"properties":{"full_address":"西藏自治区山南市乃东区泽当新村小区"}},{"type":"Feature","geometry":{"type":"Point","coordinates":[91.761539,29.224904]},"properties":{"full_address":"西藏自治区山南市乃东区下洞嘎村自建房区域"}},{"type":"Feature","geometry":{"type":"Point","coordinates":[91.778025,29.239046]},"properties":{"full_address":"西藏自治区山南市乃东区藏源小区南区1、4、7栋"}},{"type":"Feature","geometry":{"type":"Point","coordinates":[91.771649,29.241067]},"properties":{"full_address":"西藏自治区山南市乃东区市人民医院专家楼"}},{"type":"Feature","geometry":{"type":"Point","coordinates":[91.761539,29.224904]},"properties":{"full_address":"西藏自治区山南市乃东区格桑桥乃东警务站旁菜店"}},{"type":"Feature","geometry":{"type":"Point","coordinates":[91.771652,29.230819]},"properties":{"full_address":"西藏自治区山南市乃东区维也纳酒店门口好又多超市"}},{"type":"Feature","geometry":{"type":"Point","coordinates":[91.771927,29.228281]},"properties":{"full_address":"西藏自治区山南市乃东区乃东桥警务站旁赵林商行"}},{"type":"Feature","geometry":{"type":"Point","coordinates":[91.772946,29.192487]},"properties":{"full_address":"西藏自治区山南市乃东区乃东路胡氏男装"}},{"type":"Feature","geometry":{"type":"Point","coordinates":[91.767832,29.211503]},"properties":{"full_address":"西藏自治区山南市乃东区雅砻家园（万人小区）"}},{"type":"Feature","geometry":{"type":"Point","coordinates":[91.761539,29.224904]},"properties":{"full_address":"西藏自治区山南市乃东区捏雄花园1栋"}},{"type":"Feature","geometry":{"type":"Point","coordinates":[91.768414,29.210825]},"properties":{"full_address":"西藏自治区山南市乃东区援藏家园"}},{"type":"Feature","geometry":{"type":"Point","coordinates":[91.768218,29.237809]},"properties":{"full_address":"西藏自治区山南市乃东区泽当镇格桑苑小区"}},{"type":"Feature","geometry":{"type":"Point","coordinates":[91.761539,29.224904]},"properties":{"full_address":"西藏自治区山南市乃东区国道G349以南结莎居委会1组自建房区域"}},{"type":"Feature","geometry":{"type":"Point","coordinates":[91.760027,29.233949]},"properties":{"full_address":"西藏自治区山南市乃东区邮政局住宿区"}},{"type":"Feature","geometry":{"type":"Point","coordinates":[91.762425,29.235983]},"properties":{"full_address":"西藏自治区山南市乃东区德吉小区及门口小卖部"}},{"type":"Feature","geometry":{"type":"Point","coordinates":[91.762903,29.225254]},"properties":{"full_address":"西藏自治区山南市乃东区泽当镇萨热村浩祥超市斜对面出租房区域"}},{"type":"Feature","geometry":{"type":"Point","coordinates":[91.776012,29.223343]},"properties":{"full_address":"西藏自治区山南市乃东区乃东居委会9组"}},{"type":"Feature","geometry":{"type":"Point","coordinates":[91.761539,29.224904]},"properties":{"full_address":"西藏自治区山南市乃东区鲁古仓藏餐馆"}},{"type":"Feature","geometry":{"type":"Point","coordinates":[91.761539,29.224904]},"properties":{"full_address":"西藏自治区山南市乃东区邮政职工宿舍隔壁欢聚缘藏餐馆"}},{"type":"Feature","geometry":{"type":"Point","coordinates":[91.762111,29.240183]},"properties":{"full_address":"西藏自治区山南市乃东区新客运站北大门斜对面路边茶馆"}},{"type":"Feature","geometry":{"type":"Point","coordinates":[91.77031,29.240025]},"properties":{"full_address":"西藏自治区山南市乃东区民心小区"}},{"type":"Feature","geometry":{"type":"Point","coordinates":[91.75975,29.238445]},"properties":{"full_address":"西藏自治区山南市乃东区市公安局对面扎囊姐妹藏餐馆"}},{"type":"Feature","geometry":{"type":"Point","coordinates":[91.77375,29.2422]},"properties":{"full_address":"西藏自治区山南市乃东区龙马市场冲赛康二楼台球馆"}},{"type":"Feature","geometry":{"type":"Point","coordinates":[91.771281,29.232189]},"properties":{"full_address":"西藏自治区山南市乃东区泽当饭店院内茶楼"}},{"type":"Feature","geometry":{"type":"Point","coordinates":[91.769076,29.235692]},"properties":{"full_address":"西藏自治区山南市乃东区泽当老城区"}},{"type":"Feature","geometry":{"type":"Point","coordinates":[91.792316,29.249071]},"properties":{"full_address":"西藏自治区山南市乃东区雍布拉康藏药厂"}},{"type":"Feature","geometry":{"type":"Point","coordinates":[91.77114,29.22763]},"properties":{"full_address":"西藏自治区山南市乃东区建工快乐茶人"}},{"type":"Feature","geometry":{"type":"Point","coordinates":[91.7601,29.23407]},"properties":{"full_address":"西藏自治区山南市乃东区市教育局旁雅砻康桑鲁古茶馆"}},{"type":"Feature","geometry":{"type":"Point","coordinates":[91.76852,29.23429]},"properties":{"full_address":"西藏自治区山南市乃东区俏夫人楼下香辣牛肉面"}},{"type":"Feature","geometry":{"type":"Point","coordinates":[91.768388,29.2395]},"properties":{"full_address":"西藏自治区山南市乃东区贡布路母婴坊"}},{"type":"Feature","geometry":{"type":"Point","coordinates":[91.762819,29.239259]},"properties":{"full_address":"西藏自治区山南市乃东区乃东桥附近警务站斜对面（扎西场地）"}},{"type":"Feature","geometry":{"type":"Point","coordinates":[91.761539,29.224904]},"properties":{"full_address":"西藏自治区山南市乃东区陈鲁突藏餐馆（乃东居委会附近）"}},{"type":"Feature","geometry":{"type":"Point","coordinates":[91.763978,29.228738]},"properties":{"full_address":"西藏自治区山南市乃东区香曲花园酒店核酸查验登记点"}},{"type":"Feature","geometry":{"type":"Point","coordinates":[91.768856,29.234798]},"properties":{"full_address":"西藏自治区山南市乃东区市住建局"}},{"type":"Feature","geometry":{"type":"Point","coordinates":[91.761335,29.229659]},"properties":{"full_address":"西藏自治区山南市乃东区民族路金指印象"}},{"type":"Feature","geometry":{"type":"Point","coordinates":[91.761539,29.224904]},"properties":{"full_address":"西藏自治区山南市乃东区浩川汽修厂"}},{"type":"Feature","geometry":{"type":"Point","coordinates":[91.752477,29.240685]},"properties":{"full_address":"西藏自治区山南市乃东区杜鹃苑商品房49号豫味卤面"}},{"type":"Feature","geometry":{"type":"Point","coordinates":[91.761677,29.229542]},"properties":{"full_address":"西藏自治区山南市乃东区斯迈时尚酒店"}},{"type":"Feature","geometry":{"type":"Point","coordinates":[90.98414,29.289455]},"properties":{"full_address":"西藏自治区山南市贡嘎县西藏幸福家园投资建设集团大院"}},{"type":"Feature","geometry":{"type":"Point","coordinates":[90.907504,29.292299]},"properties":{"full_address":"西藏自治区山南市贡嘎县贡嘎机场T3航站楼六号门汉堡王店"}},{"type":"Feature","geometry":{"type":"Point","coordinates":[90.98414,29.289455]},"properties":{"full_address":"西藏自治区山南市贡嘎县天天超市"}},{"type":"Feature","geometry":{"type":"Point","coordinates":[91.92339,29.263092]},"properties":{"full_address":"西藏自治区山南市桑日县华新水泥厂"}},{"type":"Feature","geometry":{"type":"Point","coordinates":[91.68275,29.024435]},"properties":{"full_address":"西藏自治区山南市琼结县民政局"}},{"type":"Feature","geometry":{"type":"Point","coordinates":[91.683881,29.024625]},"properties":{"full_address":"西藏自治区山南市琼结县文成小区"}},{"type":"Feature","geometry":{"type":"Point","coordinates":[92.593993,29.14029]},"properties":{"full_address":"西藏自治区山南市加查县冲赛康二楼"}},{"type":"Feature","geometry":{"type":"Point","coordinates":[92.593993,29.14029]},"properties":{"full_address":"西藏自治区山南市加查县吉康庄园右侧台球厅"}},{"type":"Feature","geometry":{"type":"Point","coordinates":[92.593993,29.14029]},"properties":{"full_address":"西藏自治区山南市加查县E家网吧"}},{"type":"Feature","geometry":{"type":"Point","coordinates":[91.058885,28.906375]},"properties":{"full_address":"西藏自治区山南市浪卡子县张达乡下西村"}},{"type":"Feature","geometry":{"type":"Point","coordinates":[90.702612,28.789577]},"properties":{"full_address":"西藏自治区山南市浪卡子县多却乡多却村村委会"}},{"type":"Feature","geometry":{"type":"Point","coordinates":[92.053498,31.469645]},"properties":{"full_address":"西藏自治区那曲市色尼区色尼居委会"}},{"type":"Feature","geometry":{"type":"Point","coordinates":[92.053498,31.469645]},"properties":{"full_address":"西藏自治区那曲市色尼区浙江A区"}},{"type":"Feature","geometry":{"type":"Point","coordinates":[92.053498,31.469645]},"properties":{"full_address":"西藏自治区那曲市色尼区罗布热地居委会"}},{"type":"Feature","geometry":{"type":"Point","coordinates":[91.874367,31.316498]},"properties":{"full_address":"西藏自治区那曲市色尼区那曲镇15村"}},{"type":"Feature","geometry":{"type":"Point","coordinates":[92.053498,31.469645]},"properties":{"full_address":"西藏自治区那曲市色尼区仁毛居委会"}},{"type":"Feature","geometry":{"type":"Point","coordinates":[92.064487,31.473926]},"properties":{"full_address":"西藏自治区那曲市色尼区那曲市第一小学职工住宅区（3栋）"}},{"type":"Feature","geometry":{"type":"Point","coordinates":[92.058394,31.478943]},"properties":{"full_address":"西藏自治区那曲市色尼区浙江中路“酸茶馆”"}},{"type":"Feature","geometry":{"type":"Point","coordinates":[92.058394,31.478943]},"properties":{"full_address":"西藏自治区那曲市色尼区罗布热地中路与文化中路交叉口北“拉萨佳布日茶馆”"}},{"type":"Feature","geometry":{"type":"Point","coordinates":[92.053498,31.469645]},"properties":{"full_address":"西藏自治区那曲市色尼区浙江中路“达珍凉粉店”"}},{"type":"Feature","geometry":{"type":"Point","coordinates":[92.065242,31.473347]},"properties":{"full_address":"西藏自治区那曲市色尼区仲青塘拉大酒店"}},{"type":"Feature","geometry":{"type":"Point","coordinates":[92.306048,32.111289]},"properties":{"full_address":"西藏自治区那曲市聂荣县查曲路那美酒店与铭豪酒店段"}},{"type":"Feature","geometry":{"type":"Point","coordinates":[92.299912,32.107015]},"properties":{"full_address":"西藏自治区那曲市聂荣县喜孜茶馆"}},{"type":"Feature","geometry":{"type":"Point","coordinates":[92.303377,32.10775]},"properties":{"full_address":"西藏自治区那曲市聂荣县裕康小吃店"}},{"type":"Feature","geometry":{"type":"Point","coordinates":[92.303377,32.10775]},"properties":{"full_address":"西藏自治区那曲市聂荣县好又多超市"}},{"type":"Feature","geometry":{"type":"Point","coordinates":[91.68195,32.265016]},"properties":{"full_address":"西藏自治区那曲市安多县领头羊羊肉汤店"}},{"type":"Feature","geometry":{"type":"Point","coordinates":[91.68195,32.265016]},"properties":{"full_address":"西藏自治区那曲市安多县县城扶贫门面房1号楼"}},{"type":"Feature","geometry":{"type":"Point","coordinates":[93.787029,31.888093]},"properties":{"full_address":"西藏自治区那曲市索县亚拉镇亚拉北路亚拉巷"}},{"type":"Feature","geometry":{"type":"Point","coordinates":[93.787029,31.888093]},"properties":{"full_address":"西藏自治区那曲市索县亚拉镇亚拉北路豪克少儿健康成长生活馆"}},{"type":"Feature","geometry":{"type":"Point","coordinates":[93.787029,31.888093]},"properties":{"full_address":"西藏自治区那曲市索县亚拉镇亚拉北路衣尚名流"}},{"type":"Feature","geometry":{"type":"Point","coordinates":[93.78584,31.886299]},"properties":{"full_address":"西藏自治区那曲市索县亚拉镇亚拉北路为民医药超市、为民诊所"}},{"type":"Feature","geometry":{"type":"Point","coordinates":[93.785982,31.886411]},"properties":{"full_address":"西藏自治区那曲市索县亚拉镇亚拉北路天桥百货商店"}},{"type":"Feature","geometry":{"type":"Point","coordinates":[93.787029,31.888093]},"properties":{"full_address":"西藏自治区那曲市索县亚拉镇亚拉北路顺康超市"}},{"type":"Feature","geometry":{"type":"Point","coordinates":[90.009822,31.392157]},"properties":{"full_address":"西藏自治区那曲市班戈县联亿酒店"}},{"type":"Feature","geometry":{"type":"Point","coordinates":[94.042485,31.921465]},"properties":{"full_address":"西藏自治区那曲市巴青县巴青大酒店"}},{"type":"Feature","geometry":{"type":"Point","coordinates":[94.055764,31.918036]},"properties":{"full_address":"西藏自治区那曲市巴青县巴青电力酒店"}},{"type":"Feature","geometry":{"type":"Point","coordinates":[94.036059,31.924387]},"properties":{"full_address":"西藏自治区那曲市巴青县川邑大酒店"}},{"type":"Feature","geometry":{"type":"Point","coordinates":[81.176237,30.294402]},"properties":{"full_address":"西藏自治区阿里地区普兰县电梯公寓"}},{"type":"Feature","geometry":{"type":"Point","coordinates":[81.18109,30.281089]},"properties":{"full_address":"西藏自治区阿里地区普兰县银城生态大酒店"}},{"type":"Feature","geometry":{"type":"Point","coordinates":[81.16691,30.330964]},"properties":{"full_address":"西藏自治区阿里地区普兰县普兰镇多油村"}},{"type":"Feature","geometry":{"type":"Point","coordinates":[81.176237,30.294402]},"properties":{"full_address":"西藏自治区阿里地区普兰县文广小区"}},{"type":"Feature","geometry":{"type":"Point","coordinates":[81.176237,30.294402]},"properties":{"full_address":"西藏自治区阿里地区普兰县保障小区二区"}},{"type":"Feature","geometry":{"type":"Point","coordinates":[81.181378,30.285056]},"properties":{"full_address":"西藏自治区阿里地区普兰县普兰唐嘎国际边贸市场"}},{"type":"Feature","geometry":{"type":"Point","coordinates":[80.104074,32.50492]},"properties":{"full_address":"西藏自治区阿里地区噶尔县狮泉河镇中国人民银行阿里中支住宅小区（除19栋）"}},{"type":"Feature","geometry":{"type":"Point","coordinates":[108.989037,34.289069]},"properties":{"full_address":"陕西省西安市新城区太华路街道含元东路社区万国金色家园（除9号楼4单元）"}},{"type":"Feature","geometry":{"type":"Point","coordinates":[108.993894,34.269873]},"properties":{"full_address":"陕西省西安市新城区长乐西路街道长乐社区长乐大厦"}},{"type":"Feature","geometry":{"type":"Point","coordinates":[108.987966,34.268378]},"properties":{"full_address":"陕西省西安市新城区长乐西路街道长乐社区长乐西路118号家属院"}},{"type":"Feature","geometry":{"type":"Point","coordinates":[108.950152,34.282225]},"properties":{"full_address":"陕西省西安市新城区自强路街道向荣社区宏府小区（除4号楼）"}},{"type":"Feature","geometry":{"type":"Point","coordinates":[108.939431,34.257852]},"properties":{"full_address":"陕西省西安市碑林区南院门街道南广济街社区广济小区（除4号楼）"}},{"type":"Feature","geometry":{"type":"Point","coordinates":[108.942025,34.291051]},"properties":{"full_address":"陕西省西安市莲湖区北关街道龙首原社区永祥路南段7号院（除南楼中单元）"}},{"type":"Feature","geometry":{"type":"Point","coordinates":[108.91371,34.254547]},"properties":{"full_address":"陕西省西安市莲湖区西关街道旭景名园社区萃园小区（除2号楼）"}},{"type":"Feature","geometry":{"type":"Point","coordinates":[108.918084,34.267989]},"properties":{"full_address":"陕西省西安市莲湖区环西街道玉祥门社区恒天国际城6-9号楼（除7号楼2单元）"}},{"type":"Feature","geometry":{"type":"Point","coordinates":[109.066918,34.294285]},"properties":{"full_address":"陕西省西安市灞桥区席王街道高科绿水东城小区4期（除6号楼）"}},{"type":"Feature","geometry":{"type":"Point","coordinates":[109.031023,34.266809]},"properties":{"full_address":"陕西省西安市灞桥区十里铺街道天悦东都小区2期（除3号楼2单元）"}},{"type":"Feature","geometry":{"type":"Point","coordinates":[109.066991,34.197457]},"properties":{"full_address":"陕西省西安市灞桥区红旗街道高桥广场"}},{"type":"Feature","geometry":{"type":"Point","coordinates":[109.055163,34.294751]},"properties":{"full_address":"陕西省西安市灞桥区席王街道官二小区（除8号楼5单元)"}},{"type":"Feature","geometry":{"type":"Point","coordinates":[109.068969,34.269448]},"properties":{"full_address":"陕西省西安市灞桥区席王街道柴马新雅居小区（除2号楼3单元）"}},{"type":"Feature","geometry":{"type":"Point","coordinates":[108.840177,34.239655]},"properties":{"full_address":"陕西省西安市雁塔区漳浒寨街道绿地花都社区绿地国际花都南区（除2号楼1单元）"}},{"type":"Feature","geometry":{"type":"Point","coordinates":[108.933186,34.201526]},"properties":{"full_address":"陕西省西安市雁塔区长延堡街道明德门南社区明德新天地小区2期（除4号楼1单元）"}},{"type":"Feature","geometry":{"type":"Point","coordinates":[108.969964,34.224622]},"properties":{"full_address":"陕西省西安市雁塔区大雁塔街道雁园社区金裕花园小区（除5号楼2单元）"}},{"type":"Feature","geometry":{"type":"Point","coordinates":[108.895519,34.16053]},"properties":{"full_address":"陕西省西安市长安区郭杜街道樱花一路书香路社区万科城一期（除16号楼、17号楼3单元、32号楼2单元）"}},{"type":"Feature","geometry":{"type":"Point","coordinates":[108.900478,34.160224]},"properties":{"full_address":"陕西省西安市长安区郭杜街道樱花一路书香路社区万科城三期燕园（除2号楼）"}},{"type":"Feature","geometry":{"type":"Point","coordinates":[108.880218,34.163573]},"properties":{"full_address":"陕西省西安市长安区郭杜街道居二社区雅居乐花园小区（除11号楼）"}},{"type":"Feature","geometry":{"type":"Point","coordinates":[108.906929,34.160134]},"properties":{"full_address":"陕西省西安市长安区韦曲街道春天花园社区春天花园小区（除13号楼）"}},{"type":"Feature","geometry":{"type":"Point","coordinates":[108.90938,34.164507]},"properties":{"full_address":"陕西省西安市长安区韦曲街道智慧城社区京科花园小区（除8号楼）"}},{"type":"Feature","geometry":{"type":"Point","coordinates":[108.891064,34.161607]},"properties":{"full_address":"陕西省西安市长安区郭杜街道居一社区国色天香小区二期（除1号楼）"}},{"type":"Feature","geometry":{"type":"Point","coordinates":[108.939196,34.137703]},"properties":{"full_address":"陕西省西安市长安区韦曲街道长安家园社区广天苑小区（除12号楼）"}},{"type":"Feature","geometry":{"type":"Point","coordinates":[108.90489,34.158595]},"properties":{"full_address":"陕西省西安市长安区韦曲街道智慧城社区智慧城五期小区（除4号楼）"}},{"type":"Feature","geometry":{"type":"Point","coordinates":[108.930765,34.151669]},"properties":{"full_address":"陕西省西安市长安区韦曲街道广场南路社区吉瑞花园小区（除2号楼）"}},{"type":"Feature","geometry":{"type":"Point","coordinates":[108.944437,34.17348]},"properties":{"full_address":"陕西省西安市长安区韦曲街道凤栖路社区朝华美域小区"}},{"type":"Feature","geometry":{"type":"Point","coordinates":[108.911893,34.158185]},"properties":{"full_address":"陕西省西安市长安区韦曲街道西长安街579号GOGO街区2号公寓楼"}},{"type":"Feature","geometry":{"type":"Point","coordinates":[109.018501,34.209808]},"properties":{"full_address":"陕西省西安市曲江新区登高路社区海德堡小区4号楼1单元"}},{"type":"Feature","geometry":{"type":"Point","coordinates":[108.976573,34.179335]},"properties":{"full_address":"陕西省西安市曲江新区万科城市之光社区万科城市之光小区北区10号楼2单元"}},{"type":"Feature","geometry":{"type":"Point","coordinates":[108.999627,34.201349]},"properties":{"full_address":"陕西省西安市曲江新区曲江中心社区紫薇•曲江意境小区14号楼2单元"}},{"type":"Feature","geometry":{"type":"Point","coordinates":[108.97624,34.167978]},"properties":{"full_address":"陕西省西安市航天基地上元郡社区融创揽月府3期"}},{"type":"Feature","geometry":{"type":"Point","coordinates":[108.878531,34.210464]},"properties":{"full_address":"陕西省西安市高新区丈八街道枫叶惠仁社区天地源枫林意树小区"}},{"type":"Feature","geometry":{"type":"Point","coordinates":[108.892575,34.235316]},"properties":{"full_address":"陕西省西安市高新区丈八街道高科花园社区金桥国际广场C座(包含金桥国际广场商铺)"}},{"type":"Feature","geometry":{"type":"Point","coordinates":[108.875151,34.226533]},"properties":{"full_address":"陕西省西安市高新区丈八街道唐沣社区科技二路77号院（除B座）"}},{"type":"Feature","geometry":{"type":"Point","coordinates":[108.849104,34.232035]},"properties":{"full_address":"陕西省西安市高新区鱼化寨街道东方米兰国际城小区（除13号楼，包含外围商铺）"}},{"type":"Feature","geometry":{"type":"Point","coordinates":[108.898716,34.216575]},"properties":{"full_address":"陕西省西安市高新区细柳街道毕原二路176号院（除B4栋）"}},{"type":"Feature","geometry":{"type":"Point","coordinates":[109.102142,35.107291]},"properties":{"full_address":"陕西省铜川市印台区城关街道办事处北关美食街"}},{"type":"Feature","geometry":{"type":"Point","coordinates":[109.508055,34.498329]},"properties":{"full_address":"陕西省渭南市临渭区人民街道一青里29号（兽医站家属院）"}},{"type":"Feature","geometry":{"type":"Point","coordinates":[109.495576,34.493879]},"properties":{"full_address":"陕西省渭南市临渭区解放街道光明小区"}},{"type":"Feature","geometry":{"type":"Point","coordinates":[109.465399,34.513348]},"properties":{"full_address":"陕西省渭南市临渭区杜桥街道渭南市中心医院健康体检中心大楼"}},{"type":"Feature","geometry":{"type":"Point","coordinates":[109.479028,34.51534]},"properties":{"full_address":"陕西省渭南市临渭区杜桥街道信达现代城（除10号楼2单元）"}},{"type":"Feature","geometry":{"type":"Point","coordinates":[109.500502,34.492277]},"properties":{"full_address":"陕西省渭南市临渭区恒天首府小区"}},{"type":"Feature","geometry":{"type":"Point","coordinates":[109.494767,34.496112]},"properties":{"full_address":"陕西省渭南市临渭区西五路豆花牛肉火锅店"}},{"type":"Feature","geometry":{"type":"Point","coordinates":[109.502,34.492541]},"properties":{"full_address":"陕西省渭南市临渭区神火宾馆"}},{"type":"Feature","geometry":{"type":"Point","coordinates":[109.483303,34.494578]},"properties":{"full_address":"陕西省渭南市临渭区西二路与朝阳路西北角家具店"}},{"type":"Feature","geometry":{"type":"Point","coordinates":[109.481856,34.500162]},"properties":{"full_address":"陕西省渭南市临渭区西二路居然之家"}},{"type":"Feature","geometry":{"type":"Point","coordinates":[109.51298,34.488136]},"properties":{"full_address":"陕西省渭南市临渭区站南街道李家堡村2组"}},{"type":"Feature","geometry":{"type":"Point","coordinates":[109.477714,34.509751]},"properties":{"full_address":"陕西省渭南市临渭区杜桥街道三马路十字张扬烤菜店"}},{"type":"Feature","geometry":{"type":"Point","coordinates":[109.477738,34.498771]},"properties":{"full_address":"陕西省渭南市临渭区杜桥街道小杨飞古镇米皮西三路店"}},{"type":"Feature","geometry":{"type":"Point","coordinates":[109.472598,34.498242]},"properties":{"full_address":"陕西省渭南市临渭区杜桥街道西四路华盛城小区"}},{"type":"Feature","geometry":{"type":"Point","coordinates":[109.471048,34.510433]},"properties":{"full_address":"陕西省渭南市临渭区杜桥街道西五路张家牛肉面馆"}},{"type":"Feature","geometry":{"type":"Point","coordinates":[109.576082,34.594935]},"properties":{"full_address":"陕西省渭南市临渭区信义街道安刘村馨香斋饭店"}},{"type":"Feature","geometry":{"type":"Point","coordinates":[109.503232,34.508574]},"properties":{"full_address":"陕西省渭南市临渭区人民街道北塘胖子擀面皮店"}},{"type":"Feature","geometry":{"type":"Point","coordinates":[109.50575,34.497732]},"properties":{"full_address":"陕西省渭南市临渭区解放街道红管家超市（市委家属院旁）"}},{"type":"Feature","geometry":{"type":"Point","coordinates":[109.501446,34.496633]},"properties":{"full_address":"陕西省渭南市临渭区解放街道小米之家渭南信达步行街专卖店"}},{"type":"Feature","geometry":{"type":"Point","coordinates":[109.496099,34.495898]},"properties":{"full_address":"陕西省渭南市临渭区解放街道心岸蛋糕店（信达广场店）"}},{"type":"Feature","geometry":{"type":"Point","coordinates":[109.496039,34.495864]},"properties":{"full_address":"陕西省渭南市临渭区解放街道信达蓝蜻蜓饰品店"}},{"type":"Feature","geometry":{"type":"Point","coordinates":[109.46485,34.4891]},"properties":{"full_address":"陕西省渭南市临渭区站南街道菜鸟驿站（渭南西电一公司店）"}},{"type":"Feature","geometry":{"type":"Point","coordinates":[109.601871,35.115247]},"properties":{"full_address":"陕西省渭南市蒲城县罕井镇东方小区"}},{"type":"Feature","geometry":{"type":"Point","coordinates":[109.592672,34.956429]},"properties":{"full_address":"陕西省渭南市蒲城县联手商城后门香飘飘饭店"}},{"type":"Feature","geometry":{"type":"Point","coordinates":[109.573485,34.917939]},"properties":{"full_address":"陕西省渭南市蒲城县桥陵镇大孔小锋羊肉馆"}},{"type":"Feature","geometry":{"type":"Point","coordinates":[109.951998,34.615389]},"properties":{"full_address":"陕西省渭南市华阴市华西好运来饭店"}},{"type":"Feature","geometry":{"type":"Point","coordinates":[109.953893,34.611699]},"properties":{"full_address":"陕西省渭南市华阴市华西关中一绝裤带面馆"}},{"type":"Feature","geometry":{"type":"Point","coordinates":[109.994124,34.621986]},"properties":{"full_address":"陕西省渭南市华阴市华西镇北洛村三组"}},{"type":"Feature","geometry":{"type":"Point","coordinates":[109.44673,34.495015]},"properties":{"full_address":"陕西省渭南市高新区金牛市场"}},{"type":"Feature","geometry":{"type":"Point","coordinates":[109.445373,34.486345]},"properties":{"full_address":"陕西省渭南市高新区良田街道荣盛汽车维修厂"}},{"type":"Feature","geometry":{"type":"Point","coordinates":[109.445373,34.486345]},"properties":{"full_address":"陕西省渭南市高新区良田街道蓝途羽毛球馆"}},{"type":"Feature","geometry":{"type":"Point","coordinates":[109.537771,34.54689]},"properties":{"full_address":"陕西省渭南市经开区辛市街道东四村菜市场"}},{"type":"Feature","geometry":{"type":"Point","coordinates":[109.531951,34.573793]},"properties":{"full_address":"陕西省渭南市经开区辛市街道银河快捷酒店"}},{"type":"Feature","geometry":{"type":"Point","coordinates":[109.526814,34.571387]},"properties":{"full_address":"陕西省渭南市经开区辛市街道白杨院内油脂化工厂"}},{"type":"Feature","geometry":{"type":"Point","coordinates":[109.494293,34.504935]},"properties":{"full_address":"陕西省渭南市经开区辛市街道烈火烧饼店"}},{"type":"Feature","geometry":{"type":"Point","coordinates":[109.533096,34.568971]},"properties":{"full_address":"陕西省渭南市经开区辛市街道天天道小笼包店"}},{"type":"Feature","geometry":{"type":"Point","coordinates":[109.516624,34.557683]},"properties":{"full_address":"陕西省渭南市经开区东方训练场"}},{"type":"Feature","geometry":{"type":"Point","coordinates":[109.536387,34.545231]},"properties":{"full_address":"陕西省渭南市经开区辛市街道东四村村委会"}},{"type":"Feature","geometry":{"type":"Point","coordinates":[110.439155,35.476724]},"properties":{"full_address":"陕西省渭南市经开区信义街道办事处"}},{"type":"Feature","geometry":{"type":"Point","coordinates":[109.483309,34.503497]},"properties":{"full_address":"陕西省渭南市经开区信义街道杨凌蘸水面馆"}},{"type":"Feature","geometry":{"type":"Point","coordinates":[109.07426,34.817938]},"properties":{"full_address":"陕西省渭南市经开区辛市街道重庆冒菜馆"}},{"type":"Feature","geometry":{"type":"Point","coordinates":[109.481879,34.512504]},"properties":{"full_address":"陕西省渭南市经开区辛市街道四川砂锅冒菜店"}},{"type":"Feature","geometry":{"type":"Point","coordinates":[109.541585,34.54896]},"properties":{"full_address":"陕西省渭南市经开区信义街道办紫兰村东耿组"}},{"type":"Feature","geometry":{"type":"Point","coordinates":[109.5368,34.552347]},"properties":{"full_address":"陕西省渭南市经开区108省道以南渭南医院南门道路以北，创业东路以东凯泰建材城西侧道路以西区域（除高风险地区外）"}},{"type":"Feature","geometry":{"type":"Point","coordinates":[109.531345,34.572498]},"properties":{"full_address":"陕西省渭南市经开区乐趣超市"}},{"type":"Feature","geometry":{"type":"Point","coordinates":[109.531014,34.558025]},"properties":{"full_address":"陕西省渭南市经开区辛市街道亦乐小吃店（经开区管委会东侧）"}},{"type":"Feature","geometry":{"type":"Point","coordinates":[109.616678,34.556216]},"properties":{"full_address":"陕西省渭南市经开区信义街道陈南村"}},{"type":"Feature","geometry":{"type":"Point","coordinates":[109.461305,34.591238]},"properties":{"full_address":"陕西省渭南市经开区辛市街道中段辛市纸包鱼饭店"}},{"type":"Feature","geometry":{"type":"Point","coordinates":[109.517671,34.562219]},"properties":{"full_address":"陕西省渭南市经开区阳曲街道经开区酵素城博览会会馆"}},{"type":"Feature","geometry":{"type":"Point","coordinates":[109.734921,38.297838]},"properties":{"full_address":"陕西省榆林市榆阳区崇文路街道榆溪河西岸以西、人民西路以北、芹涧路以东、德昌路北段东沿至榆溪河区域（高风险区除外）"}},{"type":"Feature","geometry":{"type":"Point","coordinates":[109.924609,33.864255]},"properties":{"full_address":"陕西省商洛市商州区桂圆新村除12A楼外小区其他区域"}},{"type":"Feature","geometry":{"type":"Point","coordinates":[109.945041,33.868936]},"properties":{"full_address":"陕西省商洛市商州区东关7组56号"}},{"type":"Feature","geometry":{"type":"Point","coordinates":[109.937586,33.877973]},"properties":{"full_address":"陕西省商洛市商州区香菊路建司1队北楼宿舍楼"}},{"type":"Feature","geometry":{"type":"Point","coordinates":[109.960756,33.968086]},"properties":{"full_address":"陕西省商洛市商州区板桥镇板桥村街口艳芳小吃店"}},{"type":"Feature","geometry":{"type":"Point","coordinates":[109.959313,33.969133]},"properties":{"full_address":"陕西省商洛市商州区板桥镇板桥村河南牛肉胡辣汤店"}},{"type":"Feature","geometry":{"type":"Point","coordinates":[109.927116,33.865608]},"properties":{"full_address":"陕西省商洛市商州区金源一路全段北至名人街、南至富丽华外墙民居楼"}},{"type":"Feature","geometry":{"type":"Point","coordinates":[109.928322,33.865157]},"properties":{"full_address":"陕西省商洛市商州区金源二路全段北至名人街、南至富丽华外墙民居楼"}},{"type":"Feature","geometry":{"type":"Point","coordinates":[109.943313,33.865699]},"properties":{"full_address":"陕西省商洛市商州区东背街42号"}},{"type":"Feature","geometry":{"type":"Point","coordinates":[109.925817,33.867615]},"properties":{"full_address":"陕西省商洛市商州区市交通局办公区"}},{"type":"Feature","geometry":{"type":"Point","coordinates":[109.927784,33.868702]},"properties":{"full_address":"陕西省商洛市商州区州城路农贸市场"}},{"type":"Feature","geometry":{"type":"Point","coordinates":[109.925797,33.868729]},"properties":{"full_address":"陕西省商洛市商州区市移动公司家属院"}},{"type":"Feature","geometry":{"type":"Point","coordinates":[109.939068,33.861753]},"properties":{"full_address":"陕西省商洛市商州区曼城KTV民生路店"}},{"type":"Feature","geometry":{"type":"Point","coordinates":[109.941641,33.868193]},"properties":{"full_address":"陕西省商洛市商州区华莱士大都汇店"}},{"type":"Feature","geometry":{"type":"Point","coordinates":[109.941241,33.862703]},"properties":{"full_address":"陕西省商洛市商州区两河口新渔道店"}},{"type":"Feature","geometry":{"type":"Point","coordinates":[109.929706,33.859324]},"properties":{"full_address":"陕西省商洛市商州区岐山擀面皮商鞅大道水城店"}},{"type":"Feature","geometry":{"type":"Point","coordinates":[109.939312,33.857754]},"properties":{"full_address":"陕西省商洛市商州区江南小区啵儿理发店"}},{"type":"Feature","geometry":{"type":"Point","coordinates":[109.9505,33.8641]},"properties":{"full_address":"陕西省商洛市商州区江南小区怡康医药超市"}},{"type":"Feature","geometry":{"type":"Point","coordinates":[109.929172,33.870284]},"properties":{"full_address":"陕西省商洛市商州区长平路飞鸿诊所"}},{"type":"Feature","geometry":{"type":"Point","coordinates":[109.910459,33.872374]},"properties":{"full_address":"陕西省商洛市商州区泰宇时代小区普仁大药房"}},{"type":"Feature","geometry":{"type":"Point","coordinates":[109.958068,33.857206]},"properties":{"full_address":"陕西省商洛市商州区牧护关镇（秦关）丰盛羊肉泡馍馆及周边建筑"}},{"type":"Feature","geometry":{"type":"Point","coordinates":[109.86795,34.056089]},"properties":{"full_address":"陕西省商洛市商州区客都购物广场"}},{"type":"Feature","geometry":{"type":"Point","coordinates":[109.923347,33.867043]},"properties":{"full_address":"陕西省商洛市商州区华润万家超市名人街店"}},{"type":"Feature","geometry":{"type":"Point","coordinates":[109.941476,33.86822]},"properties":{"full_address":"陕西省商洛市商州区天天乐超市名人街店"}},{"type":"Feature","geometry":{"type":"Point","coordinates":[109.92757,33.862349]},"properties":{"full_address":"陕西省商洛市商州区文卫路南段吴嫂丹凤牛筋面"}},{"type":"Feature","geometry":{"type":"Point","coordinates":[109.919317,33.871173]},"properties":{"full_address":"陕西省商洛市商州区城市文化艺术中心"}},{"type":"Feature","geometry":{"type":"Point","coordinates":[109.938977,33.86157]},"properties":{"full_address":"陕西省商洛市商州区江南小区润众便利店（垃圾中转站对面）"}},{"type":"Feature","geometry":{"type":"Point","coordinates":[109.928589,33.874496]},"properties":{"full_address":"陕西省商洛市商州区黄沙桥商业综合楼5楼"}},{"type":"Feature","geometry":{"type":"Point","coordinates":[110.085409,33.758735]},"properties":{"full_address":"陕西省商洛市商州区夜村镇洞底村"}},{"type":"Feature","geometry":{"type":"Point","coordinates":[110.88842,33.526041]},"properties":{"full_address":"陕西省商洛市商南县学府花园2栋"}},{"type":"Feature","geometry":{"type":"Point","coordinates":[110.838426,33.526529]},"properties":{"full_address":"陕西省商洛市商南县郭家村建厂组"}},{"type":"Feature","geometry":{"type":"Point","coordinates":[110.884104,33.532729]},"properties":{"full_address":"陕西省商洛市商南县西安饭庄（文明北路）"}},{"type":"Feature","geometry":{"type":"Point","coordinates":[110.523489,33.458811]},