{"type":"FeatureCollection","features":[{"type":"Feature","geometry":{"type":"Point","coordinates":[116.538804,39.90593]},"properties":{"province":"北京市","city":"朝阳区","county":"高碑店（地区）乡","community":"高碑店东区 B15 栋","full_address":"北京市朝阳区高碑店（地区）乡高碑店东区 B15 栋","info":""}},{"type":"Feature","geometry":{"type":"Point","coordinates":[116.593771,39.924044]},"properties":{"province":"北京市","city":"朝阳区","county":"常营乡","community":"燕保常营家园 11 号楼","full_address":"北京市朝阳区常营乡燕保常营家园 11 号楼","info":""}},{"type":"Feature","geometry":{"type":"Point","coordinates":[116.299613,39.863219]},"properties":{"province":"北京市","city":"丰台区","county":"丰台街道","community":"东大街6号院12号楼7、8单元","full_address":"北京市丰台区丰台街道东大街6号院12号楼7、8单元","info":""}},{"type":"Feature","geometry":{"type":"Point","coordinates":[116.286662,40.011541]},"properties":{"province":"北京市","city":"海淀区","county":"青龙桥街道","community":"骚子营社区圆明园西路51号院1、2号楼","full_address":"北京市海淀区青龙桥街道骚子营社区圆明园西路51号院1、2号楼","info":""}},{"type":"Feature","geometry":{"type":"Point","coordinates":[116.273117,40.0463]},"properties":{"province":"北京市","city":"海淀区","county":"马连洼街道","community":"东北旺西路 10 号院中关村软件园二期东区 13 号楼","full_address":"北京市海淀区马连洼街道东北旺西路 10 号院中关村软件园二期东区 13 号楼","info":""}},{"type":"Feature","geometry":{"type":"Point","coordinates":[116.31799,40.033772]},"properties":{"province":"北京市","city":"海淀区","county":"马连洼街道","community":"派掌柜驴肉火烧（软件园店）","full_address":"北京市海淀区马连洼街道派掌柜驴肉火烧（软件园店）","info":""}},{"type":"Feature","geometry":{"type":"Point","coordinates":[116.294674,40.020936]},"properties":{"province":"北京市","city":"海淀区","county":"马连洼街道","community":"卡姆游泳健身（七彩店）","full_address":"北京市海淀区马连洼街道卡姆游泳健身（七彩店）","info":""}},{"type":"Feature","geometry":{"type":"Point","coordinates":[116.367665,40.03222]},"properties":{"province":"北京市","city":"海淀区","county":"上地街道","community":"乐乎青年社区（上地店）","full_address":"北京市海淀区上地街道乐乎青年社区（上地店）","info":""}},{"type":"Feature","geometry":{"type":"Point","coordinates":[116.149712,40.253854]},"properties":{"province":"北京市","city":"昌平区","county":"南口（地区）镇","community":"北京化工大学昌平校区4号楼","full_address":"北京市昌平区南口（地区）镇北京化工大学昌平校区4号楼","info":""}},{"type":"Feature","geometry":{"type":"Point","coordinates":[117.22264,39.061546]},"properties":{"province":"天津市","city":"天津市","county":"河西区","community":"梅江街梧桐公寓小区","full_address":"天津市天津市河西区梅江街梧桐公寓小区","info":""}},{"type":"Feature","geometry":{"type":"Point","coordinates":[117.227206,39.034877]},"properties":{"province":"天津市","city":"天津市","county":"河西区","community":"梅江街天湖园37号楼","full_address":"天津市天津市河西区梅江街天湖园37号楼","info":""}},{"type":"Feature","geometry":{"type":"Point","coordinates":[117.240075,39.038403]},"properties":{"province":"天津市","city":"天津市","county":"河西区","community":"太湖路街秀江园一期（柏翠园）11号楼","full_address":"天津市天津市河西区太湖路街秀江园一期（柏翠园）11号楼","info":""}},{"type":"Feature","geometry":{"type":"Point","coordinates":[117.223701,39.034088]},"properties":{"province":"天津市","city":"天津市","county":"河西区","community":"梅江街天湾园1、5、7号楼","full_address":"天津市天津市河西区梅江街天湾园1、5、7号楼","info":""}},{"type":"Feature","geometry":{"type":"Point","coordinates":[117.237273,39.039843]},"properties":{"province":"天津市","city":"天津市","county":"河西区","community":"太湖路街爱湖里10号楼","full_address":"天津市天津市河西区太湖路街爱湖里10号楼","info":""}},{"type":"Feature","geometry":{"type":"Point","coordinates":[117.176026,39.083033]},"properties":{"province":"天津市","city":"天津市","county":"南开区","community":"体育中心街晨熙公寓3号楼3门","full_address":"天津市天津市南开区体育中心街晨熙公寓3号楼3门","info":""}},{"type":"Feature","geometry":{"type":"Point","coordinates":[117.17806,39.128982]},"properties":{"province":"天津市","city":"天津市","county":"南开区","community":"兴南街紫光苑6号楼6门","full_address":"天津市天津市南开区兴南街紫光苑6号楼6门","info":""}},{"type":"Feature","geometry":{"type":"Point","coordinates":[117.151387,39.138814]},"properties":{"province":"天津市","city":"天津市","county":"南开区","community":"长虹街宜川北里6号楼2门","full_address":"天津市天津市南开区长虹街宜川北里6号楼2门","info":""}},{"type":"Feature","geometry":{"type":"Point","coordinates":[117.130817,39.1458]},"properties":{"province":"天津市","city":"天津市","county":"南开区","community":"向阳路街留园里8号楼6门","full_address":"天津市天津市南开区向阳路街留园里8号楼6门","info":""}},{"type":"Feature","geometry":{"type":"Point","coordinates":[117.1613,39.144505]},"properties":{"province":"天津市","city":"天津市","county":"红桥区","community":"铃铛阁街南头窑大楼42-45门","full_address":"天津市天津市红桥区铃铛阁街南头窑大楼42-45门","info":""}},{"type":"Feature","geometry":{"type":"Point","coordinates":[117.046217,39.057461]},"properties":{"province":"天津市","city":"天津市","county":"西青区","community":"张家窝镇社会山南苑小区55号楼","full_address":"天津市天津市西青区张家窝镇社会山南苑小区55号楼","info":""}},{"type":"Feature","geometry":{"type":"Point","coordinates":[117.026091,39.068493]},"properties":{"province":"天津市","city":"天津市","county":"西青区","community":"张家窝镇悦盛里小区13号楼","full_address":"天津市天津市西青区张家窝镇悦盛里小区13号楼","info":""}},{"type":"Feature","geometry":{"type":"Point","coordinates":[117.2025,39.06375]},"properties":{"province":"天津市","city":"天津市","county":"西青区","community":"津门湖街江湾广场小区6号楼","full_address":"天津市天津市西青区津门湖街江湾广场小区6号楼","info":""}},{"type":"Feature","geometry":{"type":"Point","coordinates":[117.239982,39.020208]},"properties":{"province":"天津市","city":"天津市","county":"西青区","community":"大寺镇仁居佳园小区6号楼","full_address":"天津市天津市西青区大寺镇仁居佳园小区6号楼","info":""}},{"type":"Feature","geometry":{"type":"Point","coordinates":[117.394891,39.00073]},"properties":{"province":"天津市","city":"天津市","county":"津南区","community":"咸水沽镇合安园15号楼","full_address":"天津市天津市津南区咸水沽镇合安园15号楼","info":""}},{"type":"Feature","geometry":{"type":"Point","coordinates":[117.343757,38.946914]},"properties":{"province":"天津市","city":"天津市","county":"津南区","community":"八里台镇海天社区观雅庭院1号楼1门","full_address":"天津市天津市津南区八里台镇海天社区观雅庭院1号楼1门","info":""}},{"type":"Feature","geometry":{"type":"Point","coordinates":[117.359093,38.909558]},"properties":{"province":"天津市","city":"天津市","county":"津南区","community":"八里台镇望湖苑6号楼","full_address":"天津市天津市津南区八里台镇望湖苑6号楼","info":""}},{"type":"Feature","geometry":{"type":"Point","coordinates":[117.293742,39.015158]},"properties":{"province":"天津市","city":"天津市","county":"津南区","community":"双新街新景园南区20号楼","full_address":"天津市天津市津南区双新街新景园南区20号楼","info":""}},{"type":"Feature","geometry":{"type":"Point","coordinates":[117.290927,39.006737]},"properties":{"province":"天津市","city":"天津市","county":"津南区","community":"双新街欣悦佳园21号楼","full_address":"天津市天津市津南区双新街欣悦佳园21号楼","info":""}},{"type":"Feature","geometry":{"type":"Point","coordinates":[117.271641,39.032427]},"properties":{"province":"天津市","city":"天津市","county":"津南区","community":"双港镇富力桃园天富园12号楼","full_address":"天津市天津市津南区双港镇富力桃园天富园12号楼","info":""}},{"type":"Feature","geometry":{"type":"Point","coordinates":[117.27545,39.020763]},"properties":{"province":"天津市","city":"天津市","county":"津南区","community":"双港镇普泰花园11号楼","full_address":"天津市天津市津南区双港镇普泰花园11号楼","info":""}},{"type":"Feature","geometry":{"type":"Point","coordinates":[117.187071,39.217571]},"properties":{"province":"天津市","city":"天津市","county":"北辰区","community":"普东街秋怡家园小区7号楼","full_address":"天津市天津市北辰区普东街秋怡家园小区7号楼","info":""}},{"type":"Feature","geometry":{"type":"Point","coordinates":[117.350625,39.246105]},"properties":{"province":"天津市","city":"天津市","county":"北辰区","community":"青（广）源街荣翔园小区12号楼","full_address":"天津市天津市北辰区青（广）源街荣翔园小区12号楼","info":""}},{"type":"Feature","geometry":{"type":"Point","coordinates":[114.48954,38.07937]},"properties":{"province":"河北省","city":"石家庄市","county":"新华区","community":"石岗街道柏林怡园6号楼","full_address":"河北省石家庄市新华区石岗街道柏林怡园6号楼","info":""}},{"type":"Feature","geometry":{"type":"Point","coordinates":[114.494527,38.077581]},"properties":{"province":"河北省","city":"石家庄市","county":"新华区","community":"石岗街道石钢宿舍","full_address":"河北省石家庄市新华区石岗街道石钢宿舍","info":""}},{"type":"Feature","geometry":{"type":"Point","coordinates":[119.477596,42.582123]},"properties":{"province":"内蒙古自治区","city":"赤峰市","county":"松山区","community":"哈拉道口学区中学","full_address":"内蒙古自治区赤峰市松山区哈拉道口学区中学","info":""}},{"type":"Feature","geometry":{"type":"Point","coordinates":[119.344696,42.433139]},"properties":{"province":"内蒙古自治区","city":"赤峰市","county":"松山区","community":"安庆镇西域宾馆","full_address":"内蒙古自治区赤峰市松山区安庆镇西域宾馆","info":""}},{"type":"Feature","geometry":{"type":"Point","coordinates":[119.65428,42.733059]},"properties":{"province":"内蒙古自治区","city":"赤峰市","county":"翁牛特旗","community":"乌敦套海镇强盛幼儿园","full_address":"内蒙古自治区赤峰市翁牛特旗乌敦套海镇强盛幼儿园","info":""}},{"type":"Feature","geometry":{"type":"Point","coordinates":[119.653932,42.730888]},"properties":{"province":"内蒙古自治区","city":"赤峰市","county":"翁牛特旗","community":"乌敦套海镇红湖家园","full_address":"内蒙古自治区赤峰市翁牛特旗乌敦套海镇红湖家园","info":""}},{"type":"Feature","geometry":{"type":"Point","coordinates":[119.65202,42.724166]},"properties":{"province":"内蒙古自治区","city":"赤峰市","county":"翁牛特旗","community":"乌敦套海镇中心小学","full_address":"内蒙古自治区赤峰市翁牛特旗乌敦套海镇中心小学","info":""}},{"type":"Feature","geometry":{"type":"Point","coordinates":[119.65789,42.73294]},"properties":{"province":"内蒙古自治区","city":"赤峰市","county":"翁牛特旗","community":"乌敦套海镇龙泉花园","full_address":"内蒙古自治区赤峰市翁牛特旗乌敦套海镇龙泉花园","info":""}},{"type":"Feature","geometry":{"type":"Point","coordinates":[119.657082,42.731061]},"properties":{"province":"内蒙古自治区","city":"赤峰市","county":"翁牛特旗","community":"乌敦套海镇中学","full_address":"内蒙古自治区赤峰市翁牛特旗乌敦套海镇中学","info":""}},{"type":"Feature","geometry":{"type":"Point","coordinates":[119.659349,42.732368]},"properties":{"province":"内蒙古自治区","city":"赤峰市","county":"翁牛特旗","community":"乌敦套海镇瑞海家园","full_address":"内蒙古自治区赤峰市翁牛特旗乌敦套海镇瑞海家园","info":""}},{"type":"Feature","geometry":{"type":"Point","coordinates":[119.654878,42.730804]},"properties":{"province":"内蒙古自治区","city":"赤峰市","county":"翁牛特旗","community":"乌敦套海镇新城大街临街商厅","full_address":"内蒙古自治区赤峰市翁牛特旗乌敦套海镇新城大街临街商厅","info":""}},{"type":"Feature","geometry":{"type":"Point","coordinates":[119.654893,42.747034]},"properties":{"province":"内蒙古自治区","city":"赤峰市","county":"翁牛特旗","community":"乌敦套海镇新北村","full_address":"内蒙古自治区赤峰市翁牛特旗乌敦套海镇新北村","info":""}},{"type":"Feature","geometry":{"type":"Point","coordinates":[119.660583,42.73194]},"properties":{"province":"内蒙古自治区","city":"赤峰市","county":"翁牛特旗","community":"乌敦套海镇湖畔新苑小区","full_address":"内蒙古自治区赤峰市翁牛特旗乌敦套海镇湖畔新苑小区","info":""}},{"type":"Feature","geometry":{"type":"Point","coordinates":[119.655994,42.730547]},"properties":{"province":"内蒙古自治区","city":"赤峰市","county":"翁牛特旗","community":"乌敦套海镇御鑫家园小区","full_address":"内蒙古自治区赤峰市翁牛特旗乌敦套海镇御鑫家园小区","info":""}},{"type":"Feature","geometry":{"type":"Point","coordinates":[119.017597,42.935484]},"properties":{"province":"内蒙古自治区","city":"赤峰市","county":"翁牛特旗","community":"乌敦套海镇滨湖一期小区","full_address":"内蒙古自治区赤峰市翁牛特旗乌敦套海镇滨湖一期小区","info":""}},{"type":"Feature","geometry":{"type":"Point","coordinates":[119.659349,42.732368]},"properties":{"province":"内蒙古自治区","city":"赤峰市","county":"翁牛特旗","community":"乌敦套海镇供销社家属院","full_address":"内蒙古自治区赤峰市翁牛特旗乌敦套海镇供销社家属院","info":""}},{"type":"Feature","geometry":{"type":"Point","coordinates":[119.659349,42.732368]},"properties":{"province":"内蒙古自治区","city":"赤峰市","county":"翁牛特旗","community":"乌敦套海镇林场家属院","full_address":"内蒙古自治区赤峰市翁牛特旗乌敦套海镇林场家属院","info":""}},{"type":"Feature","geometry":{"type":"Point","coordinates":[119.656467,42.730462]},"properties":{"province":"内蒙古自治区","city":"赤峰市","county":"翁牛特旗","community":"乌敦套海镇新城居委会道班家属院平房区","full_address":"内蒙古自治区赤峰市翁牛特旗乌敦套海镇新城居委会道班家属院平房区","info":""}},{"type":"Feature","geometry":{"type":"Point","coordinates":[119.645367,42.611918]},"properties":{"province":"内蒙古自治区","city":"赤峰市","county":"翁牛特旗","community":"乌敦套海镇太湖山村","full_address":"内蒙古自治区赤峰市翁牛特旗乌敦套海镇太湖山村","info":""}},{"type":"Feature","geometry":{"type":"Point","coordinates":[119.648407,42.801648]},"properties":{"province":"内蒙古自治区","city":"赤峰市","county":"翁牛特旗","community":"乌敦套海镇新府村","full_address":"内蒙古自治区赤峰市翁牛特旗乌敦套海镇新府村","info":""}},{"type":"Feature","geometry":{"type":"Point","coordinates":[119.584607,42.74222]},"properties":{"province":"内蒙古自治区","city":"赤峰市","county":"翁牛特旗","community":"乌敦套海镇五牌子村","full_address":"内蒙古自治区赤峰市翁牛特旗乌敦套海镇五牌子村","info":""}},{"type":"Feature","geometry":{"type":"Point","coordinates":[119.679975,42.681907]},"properties":{"province":"内蒙古自治区","city":"赤峰市","county":"翁牛特旗","community":"乌敦套海镇三十家子村","full_address":"内蒙古自治区赤峰市翁牛特旗乌敦套海镇三十家子村","info":""}},{"type":"Feature","geometry":{"type":"Point","coordinates":[119.831752,42.914444]},"properties":{"province":"内蒙古自治区","city":"赤峰市","county":"翁牛特旗","community":"乌敦套海镇那吉来村","full_address":"内蒙古自治区赤峰市翁牛特旗乌敦套海镇那吉来村","info":""}},{"type":"Feature","geometry":{"type":"Point","coordinates":[119.464949,42.68886]},"properties":{"province":"内蒙古自治区","city":"赤峰市","county":"翁牛特旗","community":"乌敦套海镇北井村","full_address":"内蒙古自治区赤峰市翁牛特旗乌敦套海镇北井村","info":""}},{"type":"Feature","geometry":{"type":"Point","coordinates":[119.731239,42.799793]},"properties":{"province":"内蒙古自治区","city":"赤峰市","county":"翁牛特旗","community":"乌敦套海镇下府村","full_address":"内蒙古自治区赤峰市翁牛特旗乌敦套海镇下府村","info":""}},{"type":"Feature","geometry":{"type":"Point","coordinates":[117.383904,49.580908]},"properties":{"province":"内蒙古自治区","city":"呼伦贝尔市","county":"满洲里市","community":"华凯小区","full_address":"内蒙古自治区呼伦贝尔市满洲里市华凯小区","info":""}},{"type":"Feature","geometry":{"type":"Point","coordinates":[117.461287,49.590928]},"properties":{"province":"内蒙古自治区","city":"呼伦贝尔市","county":"满洲里市","community":"政北小区（包括周围建筑群及附属店铺）","full_address":"内蒙古自治区呼伦贝尔市满洲里市政北小区（包括周围建筑群及附属店铺）","info":""}},{"type":"Feature","geometry":{"type":"Point","coordinates":[117.448082,49.583089]},"properties":{"province":"内蒙古自治区","city":"呼伦贝尔市","county":"满洲里市","community":"南区街道站前小区及周边商铺","full_address":"内蒙古自治区呼伦贝尔市满洲里市南区街道站前小区及周边商铺","info":""}},{"type":"Feature","geometry":{"type":"Point","coordinates":[117.439032,49.600389]},"properties":{"province":"内蒙古自治区","city":"呼伦贝尔市","county":"满洲里市","community":"宏业小区","full_address":"内蒙古自治区呼伦贝尔市满洲里市宏业小区","info":""}},{"type":"Feature","geometry":{"type":"Point","coordinates":[111.971663,43.642326]},"properties":{"province":"内蒙古自治区","city":"锡林郭勒盟","county":"二连浩特市","community":"桐桉君泰B区及南门街面商铺、北门街面商铺","full_address":"内蒙古自治区锡林郭勒盟二连浩特市桐桉君泰B区及南门街面商铺、北门街面商铺","info":""}},{"type":"Feature","geometry":{"type":"Point","coordinates":[116.063667,43.944167]},"properties":{"province":"内蒙古自治区","city":"锡林郭勒盟","county":"锡林浩特市","community":"大业金河湾B区5号楼（宝力根街道办事处）","full_address":"内蒙古自治区锡林郭勒盟锡林浩特市大业金河湾B区5号楼（宝力根街道办事处）","info":""}},{"type":"Feature","geometry":{"type":"Point","coordinates":[116.076624,43.951785]},"properties":{"province":"内蒙古自治区","city":"锡林郭勒盟","county":"锡林浩特市","community":"幸福社区小区17号楼（杭盖街道办事处）","full_address":"内蒙古自治区锡林郭勒盟锡林浩特市幸福社区小区17号楼（杭盖街道办事处）","info":""}},{"type":"Feature","geometry":{"type":"Point","coordinates":[116.096257,43.95817]},"properties":{"province":"内蒙古自治区","city":"锡林郭勒盟","county":"锡林浩特市","community":"长安丽景小区5号楼（杭盖街道办事处）","full_address":"内蒙古自治区锡林郭勒盟锡林浩特市长安丽景小区5号楼（杭盖街道办事处）","info":""}},{"type":"Feature","geometry":{"type":"Point","coordinates":[116.100034,43.949346]},"properties":{"province":"内蒙古自治区","city":"锡林郭勒盟","county":"锡林浩特市","community":"玉玺小区2号楼（楚古兰街道办事处）","full_address":"内蒙古自治区锡林郭勒盟锡林浩特市玉玺小区2号楼（楚古兰街道办事处）","info":""}},{"type":"Feature","geometry":{"type":"Point","coordinates":[116.110538,43.961215]},"properties":{"province":"内蒙古自治区","city":"锡林郭勒盟","county":"锡林浩特市","community":"公园首府小区15号楼（楚古兰街道办事处）","full_address":"内蒙古自治区锡林郭勒盟锡林浩特市公园首府小区15号楼（楚古兰街道办事处）","info":""}},{"type":"Feature","geometry":{"type":"Point","coordinates":[116.10221,43.952801]},"properties":{"province":"内蒙古自治区","city":"锡林郭勒盟","county":"锡林浩特市","community":"双拥小区街面房富祥汽车电器电路修理店（楚古兰街道办事处）","full_address":"内蒙古自治区锡林郭勒盟锡林浩特市双拥小区街面房富祥汽车电器电路修理店（楚古兰街道办事处）","info":""}},{"type":"Feature","geometry":{"type":"Point","coordinates":[116.092293,43.93498]},"properties":{"province":"内蒙古自治区","city":"锡林郭勒盟","county":"锡林浩特市","community":"嘉誉大厦（额尔敦街道办事处）","full_address":"内蒙古自治区锡林郭勒盟锡林浩特市嘉誉大厦（额尔敦街道办事处）","info":""}},{"type":"Feature","geometry":{"type":"Point","coordinates":[116.107551,43.957435]},"properties":{"province":"内蒙古自治区","city":"锡林郭勒盟","county":"锡林浩特市","community":"君泰国际小区（额尔敦街道办事处）","full_address":"内蒙古自治区锡林郭勒盟锡林浩特市君泰国际小区（额尔敦街道办事处）","info":""}},{"type":"Feature","geometry":{"type":"Point","coordinates":[116.094807,43.936715]},"properties":{"province":"内蒙古自治区","city":"锡林郭勒盟","county":"锡林浩特市","community":"都市上苑小区9号楼（额尔敦街道办事处）","full_address":"内蒙古自治区锡林郭勒盟锡林浩特市都市上苑小区9号楼（额尔敦街道办事处）","info":""}},{"type":"Feature","geometry":{"type":"Point","coordinates":[116.106308,43.932168]},"properties":{"province":"内蒙古自治区","city":"锡林郭勒盟","county":"锡林浩特市","community":"万泰家园1号楼（额尔敦街道办事处）","full_address":"内蒙古自治区锡林郭勒盟锡林浩特市万泰家园1号楼（额尔敦街道办事处）","info":""}},{"type":"Feature","geometry":{"type":"Point","coordinates":[116.104056,43.934091]},"properties":{"province":"内蒙古自治区","city":"锡林郭勒盟","county":"锡林浩特市","community":"理想家园小区3号楼（额尔敦街道办事处）","full_address":"内蒙古自治区锡林郭勒盟锡林浩特市理想家园小区3号楼（额尔敦街道办事处）","info":""}},{"type":"Feature","geometry":{"type":"Point","coordinates":[116.106498,43.945991]},"properties":{"province":"内蒙古自治区","city":"锡林郭勒盟","county":"锡林浩特市","community":"109干休所对面思宁汽车钣金喷漆店（额尔敦街道办事处）","full_address":"内蒙古自治区锡林郭勒盟锡林浩特市109干休所对面思宁汽车钣金喷漆店（额尔敦街道办事处）","info":""}},{"type":"Feature","geometry":{"type":"Point","coordinates":[116.066542,43.917292]},"properties":{"province":"内蒙古自治区","city":"锡林郭勒盟","county":"锡林浩特市","community":"城上城小区5号楼（巴彦查干街道办事处）","full_address":"内蒙古自治区锡林郭勒盟锡林浩特市城上城小区5号楼（巴彦查干街道办事处）","info":""}},{"type":"Feature","geometry":{"type":"Point","coordinates":[116.053522,43.920278]},"properties":{"province":"内蒙古自治区","city":"锡林郭勒盟","county":"锡林浩特市","community":"方悦名都D区4号楼（巴彦查干街道办事处）","full_address":"内蒙古自治区锡林郭勒盟锡林浩特市方悦名都D区4号楼（巴彦查干街道办事处）","info":""}},{"type":"Feature","geometry":{"type":"Point","coordinates":[121.656459,38.887772]},"properties":{"province":"辽宁省","city":"大连市","county":"中山区","community":"桃源街道山海巷（18、23、35号）","full_address":"辽宁省大连市中山区桃源街道山海巷（18、23、35号）","info":""}},{"type":"Feature","geometry":{"type":"Point","coordinates":[121.665312,38.886757]},"properties":{"province":"辽宁省","city":"大连市","county":"中山区","community":"桃源街道桃源街126号和高尚路34号","full_address":"辽宁省大连市中山区桃源街道桃源街126号和高尚路34号","info":""}},{"type":"Feature","geometry":{"type":"Point","coordinates":[121.651876,38.898134]},"properties":{"province":"辽宁省","city":"大连市","county":"中山区","community":"葵英街道文明巷（39-42号）","full_address":"辽宁省大连市中山区葵英街道文明巷（39-42号）","info":""}},{"type":"Feature","geometry":{"type":"Point","coordinates":[121.650735,38.886199]},"properties":{"province":"辽宁省","city":"大连市","county":"中山区","community":"桃源街道长利巷21号和根深巷8号","full_address":"辽宁省大连市中山区桃源街道长利巷21号和根深巷8号","info":""}},{"type":"Feature","geometry":{"type":"Point","coordinates":[121.642149,38.887025]},"properties":{"province":"辽宁省","city":"大连市","county":"西岗区","community":"八一路街道桃山社区三环街25号","full_address":"辽宁省大连市西岗区八一路街道桃山社区三环街25号","info":""}},{"type":"Feature","geometry":{"type":"Point","coordinates":[123.286507,40.225761]},"properties":{"province":"辽宁省","city":"鞍山市","county":"岫岩满族自治县","community":"雅河街道办事处于岭村","full_address":"辽宁省鞍山市岫岩满族自治县雅河街道办事处于岭村","info":""}},{"type":"Feature","geometry":{"type":"Point","coordinates":[123.284943,40.229902]},"properties":{"province":"辽宁省","city":"鞍山市","county":"岫岩满族自治县","community":"雅河街道办事处洪家堡村","full_address":"辽宁省鞍山市岫岩满族自治县雅河街道办事处洪家堡村","info":""}},{"type":"Feature","geometry":{"type":"Point","coordinates":[123.278177,40.286878]},"properties":{"province":"辽宁省","city":"鞍山市","county":"岫岩满族自治县","community":"阜昌街道办事处福润家园小区","full_address":"辽宁省鞍山市岫岩满族自治县阜昌街道办事处福润家园小区","info":""}},{"type":"Feature","geometry":{"type":"Point","coordinates":[123.283921,40.289689]},"properties":{"province":"辽宁省","city":"鞍山市","county":"岫岩满族自治县","community":"阜昌街道办事处越都华庭小区","full_address":"辽宁省鞍山市岫岩满族自治县阜昌街道办事处越都华庭小区","info":""}},{"type":"Feature","geometry":{"type":"Point","coordinates":[125.351448,43.902435]},"properties":{"province":"吉林省","city":"长春市","county":"南关区","community":"长通街道长通家园A1栋、A3栋","full_address":"吉林省长春市南关区长通街道长通家园A1栋、A3栋","info":""}},{"type":"Feature","geometry":{"type":"Point","coordinates":[125.348634,43.839251]},"properties":{"province":"吉林省","city":"长春市","county":"南关区","community":"鸿城街道卫星花园17栋","full_address":"吉林省长春市南关区鸿城街道卫星花园17栋","info":""}},{"type":"Feature","geometry":{"type":"Point","coordinates":[125.302081,43.793921]},"properties":{"province":"吉林省","city":"长春市","county":"南关区","community":"幸福乡吉森漫桦林二期9栋","full_address":"吉林省长春市南关区幸福乡吉森漫桦林二期9栋","info":""}},{"type":"Feature","geometry":{"type":"Point","coordinates":[125.31385,43.962898]},"properties":{"province":"吉林省","city":"长春市","county":"宽城区","community":"欣园街道公园道1号76栋","full_address":"吉林省长春市宽城区欣园街道公园道1号76栋","info":""}},{"type":"Feature","geometry":{"type":"Point","coordinates":[125.329456,43.926182]},"properties":{"province":"吉林省","city":"长春市","county":"宽城区","community":"兴业街道新星宇和顺3栋","full_address":"吉林省长春市宽城区兴业街道新星宇和顺3栋","info":""}},{"type":"Feature","geometry":{"type":"Point","coordinates":[125.340572,43.92297]},"properties":{"province":"吉林省","city":"长春市","county":"宽城区","community":"兴业街道钻石礼都A11栋","full_address":"吉林省长春市宽城区兴业街道钻石礼都A11栋","info":""}},{"type":"Feature","geometry":{"type":"Point","coordinates":[125.313313,43.912685]},"properties":{"province":"吉林省","city":"长春市","county":"宽城区","community":"新星宇摩登公园4栋","full_address":"吉林省长春市宽城区新星宇摩登公园4栋","info":""}},{"type":"Feature","geometry":{"type":"Point","coordinates":[125.335202,43.933661]},"properties":{"province":"吉林省","city":"长春市","county":"宽城区","community":"兴业街道中正御华庭2栋","full_address":"吉林省长春市宽城区兴业街道中正御华庭2栋","info":""}},{"type":"Feature","geometry":{"type":"Point","coordinates":[125.348282,43.929048]},"properties":{"province":"吉林省","city":"长春市","county":"宽城区","community":"兴业街道东安白金首府洋房11栋","full_address":"吉林省长春市宽城区兴业街道东安白金首府洋房11栋","info":""}},{"type":"Feature","geometry":{"type":"Point","coordinates":[125.299789,43.944239]},"properties":{"province":"吉林省","city":"长春市","county":"宽城区","community":"柳影街道新月市场楼B2栋","full_address":"吉林省长春市宽城区柳影街道新月市场楼B2栋","info":""}},{"type":"Feature","geometry":{"type":"Point","coordinates":[125.320936,43.863199]},"properties":{"province":"吉林省","city":"长春市","county":"朝阳区","community":"桂林街道自由胡同师大二教宿舍12栋","full_address":"吉林省长春市朝阳区桂林街道自由胡同师大二教宿舍12栋","info":""}},{"type":"Feature","geometry":{"type":"Point","coordinates":[125.29904,43.884864]},"properties":{"province":"吉林省","city":"长春市","county":"朝阳区","community":"清和街道安达小区6栋","full_address":"吉林省长春市朝阳区清和街道安达小区6栋","info":""}},{"type":"Feature","geometry":{"type":"Point","coordinates":[125.316976,43.893304]},"properties":{"province":"吉林省","city":"长春市","county":"朝阳区","community":"北安路北安嘉园楼","full_address":"吉林省长春市朝阳区北安路北安嘉园楼","info":""}},{"type":"Feature","geometry":{"type":"Point","coordinates":[125.287402,43.857932]},"properties":{"province":"吉林省","city":"长春市","county":"朝阳区","community":"一品红城9栋","full_address":"吉林省长春市朝阳区一品红城9栋","info":""}},{"type":"Feature","geometry":{"type":"Point","coordinates":[125.271197,43.855239]},"properties":{"province":"吉林省","city":"长春市","county":"朝阳区","community":"湖西街道领秀朝阳上院23栋","full_address":"吉林省长春市朝阳区湖西街道领秀朝阳上院23栋","info":""}},{"type":"Feature","geometry":{"type":"Point","coordinates":[125.487103,43.871647]},"properties":{"province":"吉林省","city":"长春市","county":"二道区","community":"长春市传染病医院B栋","full_address":"吉林省长春市二道区长春市传染病医院B栋","info":""}},{"type":"Feature","geometry":{"type":"Point","coordinates":[125.51437,43.878681]},"properties":{"province":"吉林省","city":"长春市","county":"二道区","community":"英俊镇4委5组","full_address":"吉林省长春市二道区英俊镇4委5组","info":""}},{"type":"Feature","geometry":{"type":"Point","coordinates":[125.378681,43.881804]},"properties":{"province":"吉林省","city":"长春市","county":"二道区","community":"东盛街道亚泰花园桃花苑C栋","full_address":"吉林省长春市二道区东盛街道亚泰花园桃花苑C栋","info":""}},{"type":"Feature","geometry":{"type":"Point","coordinates":[125.291531,43.912359]},"properties":{"province":"吉林省","city":"长春市","county":"绿园区","community":"青年街道青年路1473号26号楼","full_address":"吉林省长春市绿园区青年街道青年路1473号26号楼","info":""}},{"type":"Feature","geometry":{"type":"Point","coordinates":[125.287139,43.88533]},"properties":{"province":"吉林省","city":"长春市","county":"绿园区","community":"普阳街道龙城御苑13栋","full_address":"吉林省长春市绿园区普阳街道龙城御苑13栋","info":""}},{"type":"Feature","geometry":{"type":"Point","coordinates":[125.26867,43.883778]},"properties":{"province":"吉林省","city":"长春市","county":"绿园区","community":"春城街道景阳大路御景名家A区8栋","full_address":"吉林省长春市绿园区春城街道景阳大路御景名家A区8栋","info":""}},{"type":"Feature","geometry":{"type":"Point","coordinates":[125.289797,43.888579]},"properties":{"province":"吉林省","city":"长春市","county":"绿园区","community":"普阳街道朝阳小区5区5栋","full_address":"吉林省长春市绿园区普阳街道朝阳小区5区5栋","info":""}},{"type":"Feature","geometry":{"type":"Point","coordinates":[125.303524,43.918224]},"properties":{"province":"吉林省","city":"长春市","county":"绿园区","community":"青年路街道风华新苑小区3号楼","full_address":"吉林省长春市绿园区青年路街道风华新苑小区3号楼","info":""}},{"type":"Feature","geometry":{"type":"Point","coordinates":[125.655528,43.511944]},"properties":{"province":"吉林省","city":"长春市","county":"双阳区","community":"云山街道阳光安居小区3栋","full_address":"吉林省长春市双阳区云山街道阳光安居小区3栋","info":""}},{"type":"Feature","geometry":{"type":"Point","coordinates":[125.654929,43.512107]},"properties":{"province":"吉林省","city":"长春市","county":"双阳区","community":"云山街道阳光安居小区1、2栋","full_address":"吉林省长春市双阳区云山街道阳光安居小区1、2栋","info":""}},{"type":"Feature","geometry":{"type":"Point","coordinates":[125.208786,43.85444]},"properties":{"province":"吉林省","city":"长春市","county":"汽车经济技术开发区","community":"49街区19栋","full_address":"吉林省长春市汽车经济技术开发区49街区19栋","info":""}},{"type":"Feature","geometry":{"type":"Point","coordinates":[125.407876,43.875386]},"properties":{"province":"吉林省","city":"长春市","county":"经开区","community":"东方广场街道洋浦壹号一期1栋","full_address":"吉林省长春市经开区东方广场街道洋浦壹号一期1栋","info":""}},{"type":"Feature","geometry":{"type":"Point","coordinates":[125.421858,43.879521]},"properties":{"province":"吉林省","city":"长春市","county":"经开区","community":"佳泰缔景城1栋","full_address":"吉林省长春市经开区佳泰缔景城1栋","info":""}},{"type":"Feature","geometry":{"type":"Point","coordinates":[125.394667,43.869198]},"properties":{"province":"吉林省","city":"长春市","county":"经开区","community":"世纪街道化油器宿舍10栋","full_address":"吉林省长春市经开区世纪街道化油器宿舍10栋","info":""}},{"type":"Feature","geometry":{"type":"Point","coordinates":[125.396514,43.949577]},"properties":{"province":"吉林省","city":"长春市","county":"经开区","community":"兴隆山镇中海寰宇天下D区17栋","full_address":"吉林省长春市经开区兴隆山镇中海寰宇天下D区17栋","info":""}},{"type":"Feature","geometry":{"type":"Point","coordinates":[125.419732,43.874935]},"properties":{"province":"吉林省","city":"长春市","county":"经开区","community":"世纪街道嘉惠红树湾5栋","full_address":"吉林省长春市经开区世纪街道嘉惠红树湾5栋","info":""}},{"type":"Feature","geometry":{"type":"Point","coordinates":[125.393737,43.868663]},"properties":{"province":"吉林省","city":"长春市","county":"经开区","community":"世纪街道化油器宿舍3栋","full_address":"吉林省长春市经开区世纪街道化油器宿舍3栋","info":""}},{"type":"Feature","geometry":{"type":"Point","coordinates":[125.431355,43.888335]},"properties":{"province":"吉林省","city":"长春市","county":"经开区","community":"东方广场街道聚宝家园9栋","full_address":"吉林省长春市经开区东方广场街道聚宝家园9栋","info":""}},{"type":"Feature","geometry":{"type":"Point","coordinates":[125.41042,43.865502]},"properties":{"province":"吉林省","city":"长春市","county":"经开区","community":"世纪街道西派府监控中心","full_address":"吉林省长春市经开区世纪街道西派府监控中心","info":""}},{"type":"Feature","geometry":{"type":"Point","coordinates":[125.419502,43.982863]},"properties":{"province":"吉林省","city":"长春市","county":"长春新区","community":"新星宇之悦东郡37号楼","full_address":"吉林省长春市长春新区新星宇之悦东郡37号楼","info":""}},{"type":"Feature","geometry":{"type":"Point","coordinates":[125.236724,43.792934]},"properties":{"province":"吉林省","city":"长春市","county":"长春新区","community":"硅谷街道益田枫露二期13栋","full_address":"吉林省长春市长春新区硅谷街道益田枫露二期13栋","info":""}},{"type":"Feature","geometry":{"type":"Point","coordinates":[125.370151,43.866817]},"properties":{"province":"吉林省","city":"长春市","county":"长春新区","community":"双德街道高新区奥威5514小区23栋","full_address":"吉林省长春市长春新区双德街道高新区奥威5514小区23栋","info":""}},{"type":"Feature","geometry":{"type":"Point","coordinates":[125.417216,43.897928]},"properties":{"province":"吉林省","city":"长春市","county":"莲花山生态旅游度假区","community":"泉眼镇幸福家园小区1栋","full_address":"吉林省长春市莲花山生态旅游度假区泉眼镇幸福家园小区1栋","info":""}},{"type":"Feature","geometry":{"type":"Point","coordinates":[126.57347,45.734943]},"properties":{"province":"黑龙江省","city":"哈尔滨市","county":"道里区","community":"天鹅湾赫郡小区4号楼","full_address":"黑龙江省哈尔滨市道里区天鹅湾赫郡小区4号楼","info":""}},{"type":"Feature","geometry":{"type":"Point","coordinates":[126.572014,45.723361]},"properties":{"province":"黑龙江省","city":"哈尔滨市","county":"道里区","community":"润园翡翠城小区B2号楼","full_address":"黑龙江省哈尔滨市道里区润园翡翠城小区B2号楼","info":""}},{"type":"Feature","geometry":{"type":"Point","coordinates":[126.571454,45.722901]},"properties":{"province":"黑龙江省","city":"哈尔滨市","county":"道里区","community":"润园翡翠城小区B1号楼","full_address":"黑龙江省哈尔滨市道里区润园翡翠城小区B1号楼","info":""}},{"type":"Feature","geometry":{"type":"Point","coordinates":[126.580269,45.725978]},"properties":{"province":"黑龙江省","city":"哈尔滨市","county":"道里区","community":"迎宾小区103栋","full_address":"黑龙江省哈尔滨市道里区迎宾小区103栋","info":""}},{"type":"Feature","geometry":{"type":"Point","coordinates":[126.543306,45.724502]},"properties":{"province":"黑龙江省","city":"哈尔滨市","county":"道里区","community":"恒大天地人和小区G10栋","full_address":"黑龙江省哈尔滨市道里区恒大天地人和小区G10栋","info":""}},{"type":"Feature","geometry":{"type":"Point","coordinates":[126.562609,45.72155]},"properties":{"province":"黑龙江省","city":"哈尔滨市","county":"道里区","community":"新城小区102栋1-6单元、103栋6-7单元合围区域","full_address":"黑龙江省哈尔滨市道里区新城小区102栋1-6单元、103栋6-7单元合围区域","info":""}},{"type":"Feature","geometry":{"type":"Point","coordinates":[126.555831,45.718866]},"properties":{"province":"黑龙江省","city":"哈尔滨市","county":"道里区","community":"海富禧园小区1号楼","full_address":"黑龙江省哈尔滨市道里区海富禧园小区1号楼","info":""}},{"type":"Feature","geometry":{"type":"Point","coordinates":[126.588076,45.734473]},"properties":{"province":"黑龙江省","city":"哈尔滨市","county":"道里区","community":"乡里街140号楼","full_address":"黑龙江省哈尔滨市道里区乡里街140号楼","info":""}},{"type":"Feature","geometry":{"type":"Point","coordinates":[126.580535,45.733939]},"properties":{"province":"黑龙江省","city":"哈尔滨市","county":"道里区","community":"美晨家园小区玫瑰园1号楼","full_address":"黑龙江省哈尔滨市道里区美晨家园小区玫瑰园1号楼","info":""}},{"type":"Feature","geometry":{"type":"Point","coordinates":[126.613703,45.749541]},"properties":{"province":"黑龙江省","city":"哈尔滨市","county":"道里区","community":"民茂街共乐小区51栋1单元","full_address":"黑龙江省哈尔滨市道里区民茂街共乐小区51栋1单元","info":""}},{"type":"Feature","geometry":{"type":"Point","coordinates":[126.534299,45.70671]},"properties":{"province":"黑龙江省","city":"哈尔滨市","county":"道里区","community":"群力家园小区A区4号楼","full_address":"黑龙江省哈尔滨市道里区群力家园小区A区4号楼","info":""}},{"type":"Feature","geometry":{"type":"Point","coordinates":[126.590126,45.74731]},"properties":{"province":"黑龙江省","city":"哈尔滨市","county":"道里区","community":"锦江绿色家园小区8号楼","full_address":"黑龙江省哈尔滨市道里区锦江绿色家园小区8号楼","info":""}},{"type":"Feature","geometry":{"type":"Point","coordinates":[126.555042,45.732234]},"properties":{"province":"黑龙江省","city":"哈尔滨市","county":"道里区","community":"海富第五大道小区哈林区19栋","full_address":"黑龙江省哈尔滨市道里区海富第五大道小区哈林区19栋","info":""}},{"type":"Feature","geometry":{"type":"Point","coordinates":[126.629148,45.728926]},"properties":{"province":"黑龙江省","city":"哈尔滨市","county":"南岗区","community":"北鸿花园小区B栋、G栋、A栋、N栋与C栋合围区域住宅楼","full_address":"黑龙江省哈尔滨市南岗区北鸿花园小区B栋、G栋、A栋、N栋与C栋合围区域住宅楼","info":""}},{"type":"Feature","geometry":{"type":"Point","coordinates":[126.626287,45.733631]},"properties":{"province":"黑龙江省","city":"哈尔滨市","county":"南岗区","community":"印象城小区6栋、7栋、8栋、9栋、10栋、11栋","full_address":"黑龙江省哈尔滨市南岗区印象城小区6栋、7栋、8栋、9栋、10栋、11栋","info":""}},{"type":"Feature","geometry":{"type":"Point","coordinates":[126.55418,45.88782]},"properties":{"province":"黑龙江省","city":"哈尔滨市","county":"松北区","community":"大都会新天地二期F栋","full_address":"黑龙江省哈尔滨市松北区大都会新天地二期F栋","info":""}},{"type":"Feature","geometry":{"type":"Point","coordinates":[126.701819,45.732411]},"properties":{"province":"黑龙江省","city":"哈尔滨市","county":"香坊区","community":"公滨路307-1号","full_address":"黑龙江省哈尔滨市香坊区公滨路307-1号","info":""}},{"type":"Feature","geometry":{"type":"Point","coordinates":[126.869756,45.675006]},"properties":{"province":"黑龙江省","city":"哈尔滨市","county":"香坊区","community":"成高子镇民强村董家沟屯","full_address":"黑龙江省哈尔滨市香坊区成高子镇民强村董家沟屯","info":""}},{"type":"Feature","geometry":{"type":"Point","coordinates":[126.764781,45.744622]},"properties":{"province":"黑龙江省","city":"哈尔滨市","county":"香坊区","community":"新松茂樾山一期2号楼","full_address":"黑龙江省哈尔滨市香坊区新松茂樾山一期2号楼","info":""}},{"type":"Feature","geometry":{"type":"Point","coordinates":[126.764781,45.744622]},"properties":{"province":"黑龙江省","city":"哈尔滨市","county":"香坊区","community":"新松茂樾山一期9号楼","full_address":"黑龙江省哈尔滨市香坊区新松茂樾山一期9号楼","info":""}},{"type":"Feature","geometry":{"type":"Point","coordinates":[126.714039,45.727943]},"properties":{"province":"黑龙江省","city":"哈尔滨市","county":"香坊区","community":"香德街副22号","full_address":"黑龙江省哈尔滨市香坊区香德街副22号","info":""}},{"type":"Feature","geometry":{"type":"Point","coordinates":[126.713697,45.727813]},"properties":{"province":"黑龙江省","city":"哈尔滨市","county":"香坊区","community":"香德街蓝盾家园","full_address":"黑龙江省哈尔滨市香坊区香德街蓝盾家园","info":""}},{"type":"Feature","geometry":{"type":"Point","coordinates":[126.683635,45.722912]},"properties":{"province":"黑龙江省","city":"哈尔滨市","county":"香坊区","community":"珑瑞小区五街区3号楼（通站街80-1号至通站街100号）","full_address":"黑龙江省哈尔滨市香坊区珑瑞小区五街区3号楼（通站街80-1号至通站街100号）","info":""}},{"type":"Feature","geometry":{"type":"Point","coordinates":[126.684028,45.722371]},"properties":{"province":"黑龙江省","city":"哈尔滨市","county":"香坊区","community":"珑瑞小区五街区4号楼（卫生街22号）","full_address":"黑龙江省哈尔滨市香坊区珑瑞小区五街区4号楼（卫生街22号）","info":""}},{"type":"Feature","geometry":{"type":"Point","coordinates":[126.7086,45.727575]},"properties":{"province":"黑龙江省","city":"哈尔滨市","county":"香坊区","community":"油坊街、通天街、公滨路、铁路拉滨线合围区域内果园小区，司法警官住宅1号楼、2号楼-延福街2号，银行楼-东门街46号，化工楼-东门街48号","full_address":"黑龙江省哈尔滨市香坊区油坊街、通天街、公滨路、铁路拉滨线合围区域内果园小区，司法警官住宅1号楼、2号楼-延福街2号，银行楼-东门街46号，化工楼-东门街48号","info":""}},{"type":"Feature","geometry":{"type":"Point","coordinates":[126.763511,45.716702]},"properties":{"province":"黑龙江省","city":"哈尔滨市","county":"香坊区","community":"永泰城四期","full_address":"黑龙江省哈尔滨市香坊区永泰城四期","info":""}},{"type":"Feature","geometry":{"type":"Point","coordinates":[127.287083,46.642283]},"properties":{"province":"黑龙江省","city":"哈尔滨市","county":"巴彦县","community":"天增镇庆胜村徐家岗屯","full_address":"黑龙江省哈尔滨市巴彦县天增镇庆胜村徐家岗屯","info":""}},{"type":"Feature","geometry":{"type":"Point","coordinates":[127.328109,46.640634]},"properties":{"province":"黑龙江省","city":"哈尔滨市","county":"巴彦县","community":"天增镇庆胜村半步道屯","full_address":"黑龙江省哈尔滨市巴彦县天增镇庆胜村半步道屯","info":""}},{"type":"Feature","geometry":{"type":"Point","coordinates":[125.01132,46.584006]},"properties":{"province":"黑龙江省","city":"大庆市","county":"萨尔图区","community":"萨尔图街道萨环东路九龙达汽配城小区","full_address":"黑龙江省大庆市萨尔图区萨尔图街道萨环东路九龙达汽配城小区","info":""}},{"type":"Feature","geometry":{"type":"Point","coordinates":[125.003171,46.577707]},"properties":{"province":"黑龙江省","city":"大庆市","county":"萨尔图区","community":"萨尔图街道萨环东路以南、勤奋南路以西、南一路以北、萨大北路以东建材市场、陶瓷大市场、石材市场所属区域","full_address":"黑龙江省大庆市萨尔图区萨尔图街道萨环东路以南、勤奋南路以西、南一路以北、萨大北路以东建材市场、陶瓷大市场、石材市场所属区域","info":""}},{"type":"Feature","geometry":{"type":"Point","coordinates":[125.127805,46.620281]},"properties":{"province":"黑龙江省","city":"大庆市","county":"萨尔图区","community":"格林街道东风新村格林小镇小区二期B12号楼","full_address":"黑龙江省大庆市萨尔图区格林街道东风新村格林小镇小区二期B12号楼","info":""}},{"type":"Feature","geometry":{"type":"Point","coordinates":[125.127805,46.620281]},"properties":{"province":"黑龙江省","city":"大庆市","county":"萨尔图区","community":"格林街道东风新村格林小镇小区二期C12号楼","full_address":"黑龙江省大庆市萨尔图区格林街道东风新村格林小镇小区二期C12号楼","info":""}},{"type":"Feature","geometry":{"type":"Point","coordinates":[125.118538,46.623725]},"properties":{"province":"黑龙江省","city":"大庆市","county":"萨尔图区","community":"东风街道东风新村唯美主邑小区C8栋楼","full_address":"黑龙江省大庆市萨尔图区东风街道东风新村唯美主邑小区C8栋楼","info":""}},{"type":"Feature","geometry":{"type":"Point","coordinates":[125.159728,46.588764]},"properties":{"province":"黑龙江省","city":"大庆市","county":"萨尔图区","community":"高新区黎明街道富民街九区批发大市场","full_address":"黑龙江省大庆市萨尔图区高新区黎明街道富民街九区批发大市场","info":""}},{"type":"Feature","geometry":{"type":"Point","coordinates":[125.106441,46.596359]},"properties":{"province":"黑龙江省","city":"大庆市","county":"萨尔图区","community":"东风街道东风新村新星小区A组团（一区）1-14号楼","full_address":"黑龙江省大庆市萨尔图区东风街道东风新村新星小区A组团（一区）1-14号楼","info":""}},{"type":"Feature","geometry":{"type":"Point","coordinates":[125.111517,46.601413]},"properties":{"province":"黑龙江省","city":"大庆市","county":"萨尔图区","community":"东风街道东风新村新源小区A组团（二区）2-34号楼","full_address":"黑龙江省大庆市萨尔图区东风街道东风新村新源小区A组团（二区）2-34号楼","info":""}},{"type":"Feature","geometry":{"type":"Point","coordinates":[125.127805,46.620281]},"properties":{"province":"黑龙江省","city":"大庆市","county":"萨尔图区","community":"格林街道格林小镇小区二期E09号楼","full_address":"黑龙江省大庆市萨尔图区格林街道格林小镇小区二期E09号楼","info":""}},{"type":"Feature","geometry":{"type":"Point","coordinates":[125.121996,46.610439]},"properties":{"province":"黑龙江省","city":"大庆市","county":"萨尔图区","community":"绿园街道绿色家园小区J04号楼","full_address":"黑龙江省大庆市萨尔图区绿园街道绿色家园小区J04号楼","info":""}},{"type":"Feature","geometry":{"type":"Point","coordinates":[125.126125,46.597777]},"properties":{"province":"黑龙江省","city":"大庆市","county":"萨尔图区","community":"东安街道塞纳花园小区2号楼","full_address":"黑龙江省大庆市萨尔图区东安街道塞纳花园小区2号楼","info":""}},{"type":"Feature","geometry":{"type":"Point","coordinates":[125.120856,46.620098]},"properties":{"province":"黑龙江省","city":"大庆市","county":"萨尔图区","community":"格林街道香逸名苑小区三期1号楼","full_address":"黑龙江省大庆市萨尔图区格林街道香逸名苑小区三期1号楼","info":""}},{"type":"Feature","geometry":{"type":"Point","coordinates":[125.120704,46.619658]},"properties":{"province":"黑龙江省","city":"大庆市","county":"萨尔图区","community":"格林街道香逸名苑小区三期2号楼","full_address":"黑龙江省大庆市萨尔图区格林街道香逸名苑小区三期2号楼","info":""}},{"type":"Feature","geometry":{"type":"Point","coordinates":[125.122598,46.625058]},"properties":{"province":"黑龙江省","city":"大庆市","county":"萨尔图区","community":"格林街道唯美主邑小区三期4号楼","full_address":"黑龙江省大庆市萨尔图区格林街道唯美主邑小区三期4号楼","info":""}},{"type":"Feature","geometry":{"type":"Point","coordinates":[125.144549,46.567611]},"properties":{"province":"黑龙江省","city":"大庆市","county":"萨尔图区","community":"（高新区）黎明街道兴顺路8号OYO圣豪泰宾馆","full_address":"黑龙江省大庆市萨尔图区（高新区）黎明街道兴顺路8号OYO圣豪泰宾馆","info":""}},{"type":"Feature","geometry":{"type":"Point","coordinates":[125.162804,46.617132]},"properties":{"province":"黑龙江省","city":"大庆市","county":"萨尔图区","community":"（高新区）黎明街道博学大街滨州华府5号楼","full_address":"黑龙江省大庆市萨尔图区（高新区）黎明街道博学大街滨州华府5号楼","info":""}},{"type":"Feature","geometry":{"type":"Point","coordinates":[125.130553,46.575373]},"properties":{"province":"黑龙江省","city":"大庆市","county":"萨尔图区","community":"（高新区）黎明街道富民街湖滨花园小区（含外围商服）","full_address":"黑龙江省大庆市萨尔图区（高新区）黎明街道富民街湖滨花园小区（含外围商服）","info":""}},{"type":"Feature","geometry":{"type":"Point","coordinates":[125.112562,46.602968]},"properties":{"province":"黑龙江省","city":"大庆市","county":"萨尔图区","community":"东风街道东风新村新源小区F组团6-15号楼","full_address":"黑龙江省大庆市萨尔图区东风街道东风新村新源小区F组团6-15号楼","info":""}},{"type":"Feature","geometry":{"type":"Point","coordinates":[125.122067,46.600862]},"properties":{"province":"黑龙江省","city":"大庆市","county":"萨尔图区","community":"东安街道东风新村东安小区B组团3-70号楼","full_address":"黑龙江省大庆市萨尔图区东安街道东风新村东安小区B组团3-70号楼","info":""}},{"type":"Feature","geometry":{"type":"Point","coordinates":[125.113052,46.611373]},"properties":{"province":"黑龙江省","city":"大庆市","county":"萨尔图区","community":"绿园街道东风新村北辰小区2-6号楼","full_address":"黑龙江省大庆市萨尔图区绿园街道东风新村北辰小区2-6号楼","info":""}},{"type":"Feature","geometry":{"type":"Point","coordinates":[125.122312,46.620644]},"properties":{"province":"黑龙江省","city":"大庆市","county":"萨尔图区","community":"格林街道香逸名苑小区一二期6号楼","full_address":"黑龙江省大庆市萨尔图区格林街道香逸名苑小区一二期6号楼","info":""}},{"type":"Feature","geometry":{"type":"Point","coordinates":[125.126648,46.588874]},"properties":{"province":"黑龙江省","city":"大庆市","county":"萨尔图区","community":"东安街道庆龙小区C3号楼","full_address":"黑龙江省大庆市萨尔图区东安街道庆龙小区C3号楼","info":""}},{"type":"Feature","geometry":{"type":"Point","coordinates":[125.127805,46.620281]},"properties":{"province":"黑龙江省","city":"大庆市","county":"萨尔图区","community":"格林街道格林小镇小区二期A03号楼","full_address":"黑龙江省大庆市萨尔图区格林街道格林小镇小区二期A03号楼","info":""}},{"type":"Feature","geometry":{"type":"Point","coordinates":[125.09057,46.758891]},"properties":{"province":"黑龙江省","city":"大庆市","county":"萨尔图区","community":"拥军街道春雷种植园一期A26到A28、B24到B26","full_address":"黑龙江省大庆市萨尔图区拥军街道春雷种植园一期A26到A28、B24到B26","info":""}},{"type":"Feature","geometry":{"type":"Point","coordinates":[125.130808,46.610154]},"properties":{"province":"黑龙江省","city":"大庆市","county":"萨尔图区","community":"（高新区）黎明街道学伟大街沿湖城翠江湾A座","full_address":"黑龙江省大庆市萨尔图区（高新区）黎明街道学伟大街沿湖城翠江湾A座","info":""}},{"type":"Feature","geometry":{"type":"Point","coordinates":[125.138713,46.581164]},"properties":{"province":"黑龙江省","city":"大庆市","county":"萨尔图区","community":"（高新区）黎明街道富民街九区9-75号楼","full_address":"黑龙江省大庆市萨尔图区（高新区）黎明街道富民街九区9-75号楼","info":""}},{"type":"Feature","geometry":{"type":"Point","coordinates":[125.138713,46.581164]},"properties":{"province":"黑龙江省","city":"大庆市","county":"萨尔图区","community":"（高新区）黎明街道富民街九区9-42号楼","full_address":"黑龙江省大庆市萨尔图区（高新区）黎明街道富民街九区9-42号楼","info":""}},{"type":"Feature","geometry":{"type":"Point","coordinates":[125.136125,46.57825]},"properties":{"province":"黑龙江省","city":"大庆市","county":"萨尔图区","community":"（高新区）黎明街道富民街天贺小区10-21号楼、10-26号楼","full_address":"黑龙江省大庆市萨尔图区（高新区）黎明街道富民街天贺小区10-21号楼、10-26号楼","info":""}},{"type":"Feature","geometry":{"type":"Point","coordinates":[125.127437,46.574728]},"properties":{"province":"黑龙江省","city":"大庆市","county":"萨尔图区","community":"（高新区）黎明街道富民街盛景九号小区（全域）","full_address":"黑龙江省大庆市萨尔图区（高新区）黎明街道富民街盛景九号小区（全域）","info":""}},{"type":"Feature","geometry":{"type":"Point","coordinates":[125.14288,46.576207]},"properties":{"province":"黑龙江省","city":"大庆市","county":"萨尔图区","community":"（高新区）黎明街道建设路景程小区3号楼、17号楼、24号楼","full_address":"黑龙江省大庆市萨尔图区（高新区）黎明街道建设路景程小区3号楼、17号楼、24号楼","info":""}},{"type":"Feature","geometry":{"type":"Point","coordinates":[125.123899,46.579226]},"properties":{"province":"黑龙江省","city":"大庆市","county":"萨尔图区","community":"（高新区）黎明街道纬二路水木华庭小区1号楼","full_address":"黑龙江省大庆市萨尔图区（高新区）黎明街道纬二路水木华庭小区1号楼","info":""}},{"type":"Feature","geometry":{"type":"Point","coordinates":[125.128333,46.612917]},"properties":{"province":"黑龙江省","city":"大庆市","county":"萨尔图区","community":"绿园街道东方玫瑰园小区2号楼","full_address":"黑龙江省大庆市萨尔图区绿园街道东方玫瑰园小区2号楼","info":""}},{"type":"Feature","geometry":{"type":"Point","coordinates":[125.121798,46.597885]},"properties":{"province":"黑龙江省","city":"大庆市","county":"萨尔图区","community":"东安街道东安新村三区3-37B","full_address":"黑龙江省大庆市萨尔图区东安街道东安新村三区3-37B","info":""}},{"type":"Feature","geometry":{"type":"Point","coordinates":[124.921599,46.621901]},"properties":{"province":"黑龙江省","city":"大庆市","county":"萨尔图区","community":"铁人街道奔二小区3-21号楼","full_address":"黑龙江省大庆市萨尔图区铁人街道奔二小区3-21号楼","info":""}},{"type":"Feature","geometry":{"type":"Point","coordinates":[125.129841,46.619911]},"properties":{"province":"黑龙江省","city":"大庆市","county":"萨尔图区","community":"格林街道格林小镇二期C28号楼(含外围商服)","full_address":"黑龙江省大庆市萨尔图区格林街道格林小镇二期C28号楼(含外围商服)","info":""}},{"type":"Feature","geometry":{"type":"Point","coordinates":[125.129841,46.619911]},"properties":{"province":"黑龙江省","city":"大庆市","county":"萨尔图区","community":"格林街道格林小镇二期E01号楼、E05号楼、E13号楼","full_address":"黑龙江省大庆市萨尔图区格林街道格林小镇二期E01号楼、E05号楼、E13号楼","info":""}},{"type":"Feature","geometry":{"type":"Point","coordinates":[125.052625,46.670742]},"properties":{"province":"黑龙江省","city":"大庆市","county":"萨尔图区","community":"拥军街道三厂1-2罐站（绿洲社区1-21号楼后身）","full_address":"黑龙江省大庆市萨尔图区拥军街道三厂1-2罐站（绿洲社区1-21号楼后身）","info":""}},{"type":"Feature","geometry":{"type":"Point","coordinates":[125.123648,46.623666]},"properties":{"province":"黑龙江省","city":"大庆市","county":"萨尔图区","community":"格林街道唯美主邑小区D04号楼、D01号楼（含外围商服）","full_address":"黑龙江省大庆市萨尔图区格林街道唯美主邑小区D04号楼、D01号楼（含外围商服）","info":""}},{"type":"Feature","geometry":{"type":"Point","coordinates":[125.052625,46.670742]},"properties":{"province":"黑龙江省","city":"大庆市","county":"萨尔图区","community":"拥军街道绿洲社区1-12号楼、3-10号楼","full_address":"黑龙江省大庆市萨尔图区拥军街道绿洲社区1-12号楼、3-10号楼","info":""}},{"type":"Feature","geometry":{"type":"Point","coordinates":[125.107074,46.605243]},"properties":{"province":"黑龙江省","city":"大庆市","county":"萨尔图区","community":"绿园街道书香名邸小区18号楼","full_address":"黑龙江省大庆市萨尔图区绿园街道书香名邸小区18号楼","info":""}},{"type":"Feature","geometry":{"type":"Point","coordinates":[125.120716,46.589854]},"properties":{"province":"黑龙江省","city":"大庆市","county":"萨尔图区","community":"东安街道庆龙小区A1号楼","full_address":"黑龙江省大庆市萨尔图区东安街道庆龙小区A1号楼","info":""}},{"type":"Feature","geometry":{"type":"Point","coordinates":[125.102462,46.596307]},"properties":{"province":"黑龙江省","city":"大庆市","county":"萨尔图区","community":"东风街道新星小区F组团3号楼","full_address":"黑龙江省大庆市萨尔图区东风街道新星小区F组团3号楼","info":""}},{"type":"Feature","geometry":{"type":"Point","coordinates":[125.135233,46.57756]},"properties":{"province":"黑龙江省","city":"大庆市","county":"萨尔图区","community":"（高新区）黎明街道富民街天贺小区10-10号楼","full_address":"黑龙江省大庆市萨尔图区（高新区）黎明街道富民街天贺小区10-10号楼","info":""}},{"type":"Feature","geometry":{"type":"Point","coordinates":[125.142339,46.577109]},"properties":{"province":"黑龙江省","city":"大庆市","county":"萨尔图区","community":"（高新区）黎明街道建设路景程小区2号楼、4号楼","full_address":"黑龙江省大庆市萨尔图区（高新区）黎明街道建设路景程小区2号楼、4号楼","info":""}},{"type":"Feature","geometry":{"type":"Point","coordinates":[125.148529,46.56487]},"properties":{"province":"黑龙江省","city":"大庆市","county":"萨尔图区","community":"（高新区）黎明街道龙兴路乾和城A1、A3、A7、A32号楼","full_address":"黑龙江省大庆市萨尔图区（高新区）黎明街道龙兴路乾和城A1、A3、A7、A32号楼","info":""}},{"type":"Feature","geometry":{"type":"Point","coordinates":[125.116234,46.586742]},"properties":{"province":"黑龙江省","city":"大庆市","county":"萨尔图区","community":"（高新区）黎明街道纬二路悦城馨苑3号楼","full_address":"黑龙江省大庆市萨尔图区（高新区）黎明街道纬二路悦城馨苑3号楼","info":""}},{"type":"Feature","geometry":{"type":"Point","coordinates":[125.114643,46.596356]},"properties":{"province":"黑龙江省","city":"大庆市","county":"萨尔图区","community":"绿园街道兰德湖一号小区D06号楼、B06号楼、B09号楼、C02号楼、C03号楼、D12号楼","full_address":"黑龙江省大庆市萨尔图区绿园街道兰德湖一号小区D06号楼、B06号楼、B09号楼、C02号楼、C03号楼、D12号楼","info":""}},{"type":"Feature","geometry":{"type":"Point","coordinates":[125.124334,46.650245]},"properties":{"province":"黑龙江省","city":"大庆市","county":"萨尔图区","community":"火炬街道火炬小区2-1号楼","full_address":"黑龙江省大庆市萨尔图区火炬街道火炬小区2-1号楼","info":""}},{"type":"Feature","geometry":{"type":"Point","coordinates":[124.921404,46.630077]},"properties":{"province":"黑龙江省","city":"大庆市","county":"萨尔图区","community":"铁人街道沁园春小区A栋（含外围商服）","full_address":"黑龙江省大庆市萨尔图区铁人街道沁园春小区A栋（含外围商服）","info":""}},{"type":"Feature","geometry":{"type":"Point","coordinates":[125.121001,46.618135]},"properties":{"province":"黑龙江省","city":"大庆市","county":"萨尔图区","community":"格林街道唐宁杰座小区09号楼","full_address":"黑龙江省大庆市萨尔图区格林街道唐宁杰座小区09号楼","info":""}},{"type":"Feature","geometry":{"type":"Point","coordinates":[125.128242,46.626964]},"properties":{"province":"黑龙江省","city":"大庆市","county":"萨尔图区","community":"格林街道兰德华府小区5号楼","full_address":"黑龙江省大庆市萨尔图区格林街道兰德华府小区5号楼","info":""}},{"type":"Feature","geometry":{"type":"Point","coordinates":[125.13725,46.622347]},"properties":{"province":"黑龙江省","city":"大庆市","county":"萨尔图区","community":"格林街道时尚印象小区5号楼","full_address":"黑龙江省大庆市萨尔图区格林街道时尚印象小区5号楼","info":""}},{"type":"Feature","geometry":{"type":"Point","coordinates":[125.12226,46.59058]},"properties":{"province":"黑龙江省","city":"大庆市","county":"萨尔图区","community":"东安街道庆龙小区A05号楼、A06号楼、C04号楼、4-39号楼","full_address":"黑龙江省大庆市萨尔图区东安街道庆龙小区A05号楼、A06号楼、C04号楼、4-39号楼","info":""}},{"type":"Feature","geometry":{"type":"Point","coordinates":[125.130527,46.617381]},"properties":{"province":"黑龙江省","city":"大庆市","county":"萨尔图区","community":"格林街道格林小镇二期B14号楼","full_address":"黑龙江省大庆市萨尔图区格林街道格林小镇二期B14号楼","info":""}},{"type":"Feature","geometry":{"type":"Point","coordinates":[125.136734,46.581642]},"properties":{"province":"黑龙江省","city":"大庆市","county":"萨尔图区","community":"（高新区）黎明街道富民街新华园小区（全域含周边商服）","full_address":"黑龙江省大庆市萨尔图区（高新区）黎明街道富民街新华园小区（全域含周边商服）","info":""}},{"type":"Feature","geometry":{"type":"Point","coordinates":[125.136994,46.57791]},"properties":{"province":"黑龙江省","city":"大庆市","county":"萨尔图区","community":"（高新区）黎明街道富民街天贺小区10-28号楼、10-33号楼","full_address":"黑龙江省大庆市萨尔图区（高新区）黎明街道富民街天贺小区10-28号楼、10-33号楼","info":""}},{"type":"Feature","geometry":{"type":"Point","coordinates":[125.138713,46.581164]},"properties":{"province":"黑龙江省","city":"大庆市","county":"萨尔图区","community":"（高新区）黎明街道富民街九区9-35号楼","full_address":"黑龙江省大庆市萨尔图区（高新区）黎明街道富民街九区9-35号楼","info":""}},{"type":"Feature","geometry":{"type":"Point","coordinates":[125.138713,46.581164]},"properties":{"province":"黑龙江省","city":"大庆市","county":"萨尔图区","community":"（高新区）黎明街道富民街九区9-63号楼、9-68号楼","full_address":"黑龙江省大庆市萨尔图区（高新区）黎明街道富民街九区9-63号楼、9-68号楼","info":""}},{"type":"Feature","geometry":{"type":"Point","coordinates":[125.123376,46.579964]},"properties":{"province":"黑龙江省","city":"大庆市","county":"萨尔图区","community":"（高新区）黎明街道纬二路水木华庭小区2号楼","full_address":"黑龙江省大庆市萨尔图区（高新区）黎明街道纬二路水木华庭小区2号楼","info":""}},{"type":"Feature","geometry":{"type":"Point","coordinates":[125.124932,46.576763]},"properties":{"province":"黑龙江省","city":"大庆市","county":"萨尔图区","community":"（高新区）黎明街道东风路维也纳音乐花园南郡A03号楼","full_address":"黑龙江省大庆市萨尔图区（高新区）黎明街道东风路维也纳音乐花园南郡A03号楼","info":""}},{"type":"Feature","geometry":{"type":"Point","coordinates":[125.157224,46.594269]},"properties":{"province":"黑龙江省","city":"大庆市","county":"萨尔图区","community":"（高新区）黎明街道博学大街新城御景A10号楼","full_address":"黑龙江省大庆市萨尔图区（高新区）黎明街道博学大街新城御景A10号楼","info":""}},{"type":"Feature","geometry":{"type":"Point","coordinates":[125.158813,46.596529]},"properties":{"province":"黑龙江省","city":"大庆市","county":"萨尔图区","community":"（高新区）黎明街道博学大街新城御景B01号楼、B13号楼","full_address":"黑龙江省大庆市萨尔图区（高新区）黎明街道博学大街新城御景B01号楼、B13号楼","info":""}},{"type":"Feature","geometry":{"type":"Point","coordinates":[125.145263,46.578241]},"properties":{"province":"黑龙江省","city":"大庆市","county":"萨尔图区","community":"（高新区）黎明街道火炬新街唯美康城11号楼","full_address":"黑龙江省大庆市萨尔图区（高新区）黎明街道火炬新街唯美康城11号楼","info":""}},{"type":"Feature","geometry":{"type":"Point","coordinates":[125.138994,46.631881]},"properties":{"province":"黑龙江省","city":"大庆市","county":"萨尔图区","community":"（高新区）黎明街道学伟大街绿地国际城D08号楼","full_address":"黑龙江省大庆市萨尔图区（高新区）黎明街道学伟大街绿地国际城D08号楼","info":""}},{"type":"Feature","geometry":{"type":"Point","coordinates":[125.150574,46.625882]},"properties":{"province":"黑龙江省","city":"大庆市","county":"萨尔图区","community":"（高新区）黎明街道滨湖路堤香花园E17号楼","full_address":"黑龙江省大庆市萨尔图区（高新区）黎明街道滨湖路堤香花园E17号楼","info":""}},{"type":"Feature","geometry":{"type":"Point","coordinates":[125.107146,46.607646]},"properties":{"province":"黑龙江省","city":"大庆市","county":"萨尔图区","community":"绿园街道北辰一区1-43号楼","full_address":"黑龙江省大庆市萨尔图区绿园街道北辰一区1-43号楼","info":""}},{"type":"Feature","geometry":{"type":"Point","coordinates":[125.041354,46.602054]},"properties":{"province":"黑龙江省","city":"大庆市","county":"萨尔图区","community":"友谊街道团结大街西侧平房区（大庆利安汽车修理厂对面）","full_address":"黑龙江省大庆市萨尔图区友谊街道团结大街西侧平房区（大庆利安汽车修理厂对面）","info":""}},{"type":"Feature","geometry":{"type":"Point","coordinates":[125.127805,46.620281]},"properties":{"province":"黑龙江省","city":"大庆市","county":"萨尔图区","community":"格林街道格林小镇小区二期B04号楼、E21号楼","full_address":"黑龙江省大庆市萨尔图区格林街道格林小镇小区二期B04号楼、E21号楼","info":""}},{"type":"Feature","geometry":{"type":"Point","coordinates":[125.106441,46.596359]},"properties":{"province":"黑龙江省","city":"大庆市","county":"萨尔图区","community":"东风街道东风新村新星小区A组团1-1号楼","full_address":"黑龙江省大庆市萨尔图区东风街道东风新村新星小区A组团1-1号楼","info":""}},{"type":"Feature","geometry":{"type":"Point","coordinates":[125.129299,46.615453]},"properties":{"province":"黑龙江省","city":"大庆市","county":"萨尔图区","community":"绿园街道东方玫瑰园小区19号楼、24号楼","full_address":"黑龙江省大庆市萨尔图区绿园街道东方玫瑰园小区19号楼、24号楼","info":""}},{"type":"Feature","geometry":{"type":"Point","coordinates":[125.121102,46.606839]},"properties":{"province":"黑龙江省","city":"大庆市","county":"萨尔图区","community":"绿园街道绿色家园小区H02号楼","full_address":"黑龙江省大庆市萨尔图区绿园街道绿色家园小区H02号楼","info":""}},{"type":"Feature","geometry":{"type":"Point","coordinates":[125.10019,46.602059]},"properties":{"province":"黑龙江省","city":"大庆市","county":"萨尔图区","community":"东风街道东风新村新星小区E组团1-37号楼","full_address":"黑龙江省大庆市萨尔图区东风街道东风新村新星小区E组团1-37号楼","info":""}},{"type":"Feature","geometry":{"type":"Point","coordinates":[125.115627,46.601515]},"properties":{"province":"黑龙江省","city":"大庆市","county":"萨尔图区","community":"东风街道东风新村新源小区B组团2-56号楼","full_address":"黑龙江省大庆市萨尔图区东风街道东风新村新源小区B组团2-56号楼","info":""}},{"type":"Feature","geometry":{"type":"Point","coordinates":[125.136994,46.57791]},"properties":{"province":"黑龙江省","city":"大庆市","county":"萨尔图区","community":"（高新区）黎明街道富民街天贺小区10-5号楼","full_address":"黑龙江省大庆市萨尔图区（高新区）黎明街道富民街天贺小区10-5号楼","info":""}},{"type":"Feature","geometry":{"type":"Point","coordinates":[125.138713,46.581164]},"properties":{"province":"黑龙江省","city":"大庆市","county":"萨尔图区","community":"（高新区）黎明街道富民街九区9-28号楼、9-58号楼","full_address":"黑龙江省大庆市萨尔图区（高新区）黎明街道富民街九区9-28号楼、9-58号楼","info":""}},{"type":"Feature","geometry":{"type":"Point","coordinates":[125.122926,46.580964]},"properties":{"province":"黑龙江省","city":"大庆市","county":"萨尔图区","community":"（高新区）黎明街道纬二路水木华庭小区10号楼","full_address":"黑龙江省大庆市萨尔图区（高新区）黎明街道纬二路水木华庭小区10号楼","info":""}},{"type":"Feature","geometry":{"type":"Point","coordinates":[125.158158,46.612721]},"properties":{"province":"黑龙江省","city":"大庆市","county":"萨尔图区","community":"（高新区）黎明街道生态大街新城枫景小区D04号楼","full_address":"黑龙江省大庆市萨尔图区（高新区）黎明街道生态大街新城枫景小区D04号楼","info":""}},{"type":"Feature","geometry":{"type":"Point","coordinates":[125.161675,46.588765]},"properties":{"province":"黑龙江省","city":"大庆市","county":"萨尔图区","community":"（高新区）黎明街道博学大街联想科技城小区B7号楼、C5号楼（含周边商服）","full_address":"黑龙江省大庆市萨尔图区（高新区）黎明街道博学大街联想科技城小区B7号楼、C5号楼（含周边商服）","info":""}},{"type":"Feature","geometry":{"type":"Point","coordinates":[125.14616,46.568744]},"properties":{"province":"黑龙江省","city":"大庆市","county":"萨尔图区","community":"（高新区）黎明街道创业新街宝利丰大厦","full_address":"黑龙江省大庆市萨尔图区（高新区）黎明街道创业新街宝利丰大厦","info":""}},{"type":"Feature","geometry":{"type":"Point","coordinates":[125.141947,46.557775]},"properties":{"province":"黑龙江省","city":"大庆市","county":"萨尔图区","community":"（高新区）黎明街道阳光大街花蔓溪谷小区24号楼","full_address":"黑龙江省大庆市萨尔图区（高新区）黎明街道阳光大街花蔓溪谷小区24号楼","info":""}},{"type":"Feature","geometry":{"type":"Point","coordinates":[125.167203,46.591491]},"properties":{"province":"黑龙江省","city":"大庆市","county":"萨尔图区","community":"（高新区）黎明街道新阳路农大小区11号楼","full_address":"黑龙江省大庆市萨尔图区（高新区）黎明街道新阳路农大小区11号楼","info":""}},{"type":"Feature","geometry":{"type":"Point","coordinates":[125.1102,46.578954]},"properties":{"province":"黑龙江省","city":"大庆市","county":"萨尔图区","community":"万宝街道万宝一区","full_address":"黑龙江省大庆市萨尔图区万宝街道万宝一区","info":""}},{"type":"Feature","geometry":{"type":"Point","coordinates":[125.104112,46.57616]},"properties":{"province":"黑龙江省","city":"大庆市","county":"萨尔图区","community":"万宝街道万宝二区","full_address":"黑龙江省大庆市萨尔图区万宝街道万宝二区","info":""}},{"type":"Feature","geometry":{"type":"Point","coordinates":[125.098833,46.572445]},"properties":{"province":"黑龙江省","city":"大庆市","county":"萨尔图区","community":"万宝街道万宝三区","full_address":"黑龙江省大庆市萨尔图区万宝街道万宝三区","info":""}},{"type":"Feature","geometry":{"type":"Point","coordinates":[125.028297,46.600525]},"properties":{"province":"黑龙江省","city":"大庆市","county":"萨尔图区","community":"会战街道利民苑小区9号楼","full_address":"黑龙江省大庆市萨尔图区会战街道利民苑小区9号楼","info":""}},{"type":"Feature","geometry":{"type":"Point","coordinates":[125.121514,46.586437]},"properties":{"province":"黑龙江省","city":"大庆市","county":"萨尔图区","community":"东风街道东风社区卫生服务中心","full_address":"黑龙江省大庆市萨尔图区东风街道东风社区卫生服务中心","info":""}},{"type":"Feature","geometry":{"type":"Point","coordinates":[125.124633,46.624649]},"properties":{"province":"黑龙江省","city":"大庆市","county":"萨尔图区","community":"格林街道唯美主邑小区D15号楼","full_address":"黑龙江省大庆市萨尔图区格林街道唯美主邑小区D15号楼","info":""}},{"type":"Feature","geometry":{"type":"Point","coordinates":[125.120165,46.605059]},"properties":{"province":"黑龙江省","city":"大庆市","county":"萨尔图区","community":"东安街道安惠小区E组团5-20号楼","full_address":"黑龙江省大庆市萨尔图区东安街道安惠小区E组团5-20号楼","info":""}},{"type":"Feature","geometry":{"type":"Point","coordinates":[125.138713,46.581164]},"properties":{"province":"黑龙江省","city":"大庆市","county":"萨尔图区","community":"（高新区）黎明街道富民街九区9-12号楼","full_address":"黑龙江省大庆市萨尔图区（高新区）黎明街道富民街九区9-12号楼","info":""}},{"type":"Feature","geometry":{"type":"Point","coordinates":[125.145512,46.564271]},"properties":{"province":"黑龙江省","city":"大庆市","county":"萨尔图区","community":"（高新区）黎明街道龙兴路乾和城小区B1号楼、B2号楼","full_address":"黑龙江省大庆市萨尔图区（高新区）黎明街道龙兴路乾和城小区B1号楼、B2号楼","info":""}},{"type":"Feature","geometry":{"type":"Point","coordinates":[125.122791,46.577801]},"properties":{"province":"黑龙江省","city":"大庆市","county":"萨尔图区","community":"（高新区）黎明街道东风路维也纳音乐花园南郡D09号楼","full_address":"黑龙江省大庆市萨尔图区（高新区）黎明街道东风路维也纳音乐花园南郡D09号楼","info":""}},{"type":"Feature","geometry":{"type":"Point","coordinates":[125.09476,46.594248]},"properties":{"province":"黑龙江省","city":"大庆市","county":"萨尔图区","community":"（高新区）黎明街道新阳路丽都佳苑3号楼、4号楼","full_address":"黑龙江省大庆市萨尔图区（高新区）黎明街道新阳路丽都佳苑3号楼、4号楼","info":""}},{"type":"Feature","geometry":{"type":"Point","coordinates":[125.159497,46.612518]},"properties":{"province":"黑龙江省","city":"大庆市","county":"萨尔图区","community":"（高新区）黎明街道生态大街新城枫景小区D01号楼","full_address":"黑龙江省大庆市萨尔图区（高新区）黎明街道生态大街新城枫景小区D01号楼","info":""}},{"type":"Feature","geometry":{"type":"Point","coordinates":[125.161362,46.589081]},"properties":{"province":"黑龙江省","city":"大庆市","county":"萨尔图区","community":"（高新区）黎明街道博学大街联想科技城小区C2号楼（含周边商服）","full_address":"黑龙江省大庆市萨尔图区（高新区）黎明街道博学大街联想科技城小区C2号楼（含周边商服）","info":""}},{"type":"Feature","geometry":{"type":"Point","coordinates":[124.874717,46.702411]},"properties":{"province":"黑龙江省","city":"大庆市","county":"萨尔图区","community":"（高新区）黎明街道秀水路150号高端装备制造园B13号厂房（大庆博翼物流有限公司）","full_address":"黑龙江省大庆市萨尔图区（高新区）黎明街道秀水路150号高端装备制造园B13号厂房（大庆博翼物流有限公司）","info":""}},{"type":"Feature","geometry":{"type":"Point","coordinates":[125.138713,46.581164]},"properties":{"province":"黑龙江省","city":"大庆市","county":"萨尔图区","community":"（高新区）黎明街道禾丰路爱马仕名马基地保安亭（东经125.200402、北纬46.571384）","full_address":"黑龙江省大庆市萨尔图区（高新区）黎明街道禾丰路爱马仕名马基地保安亭（东经125.200402、北纬46.571384）","info":""}},{"type":"Feature","geometry":{"type":"Point","coordinates":[125.138713,46.581164]},"properties":{"province":"黑龙江省","city":"大庆市","county":"萨尔图区","community":"（高新区）黎明街道新发街兴荣工业园厂房本体南半部分","full_address":"黑龙江省大庆市萨尔图区（高新区）黎明街道新发街兴荣工业园厂房本体南半部分","info":""}},{"type":"Feature","geometry":{"type":"Point","coordinates":[125.121194,46.614231]},"properties":{"province":"黑龙江省","city":"大庆市","county":"萨尔图区","community":"绿园街道兰德湖壹号小区B12号楼","full_address":"黑龙江省大庆市萨尔图区绿园街道兰德湖壹号小区B12号楼","info":""}},{"type":"Feature","geometry":{"type":"Point","coordinates":[125.122203,46.620018]},"properties":{"province":"黑龙江省","city":"大庆市","county":"萨尔图区","community":"格林街道香逸名苑小区三期3号楼","full_address":"黑龙江省大庆市萨尔图区格林街道香逸名苑小区三期3号楼","info":""}},{"type":"Feature","geometry":{"type":"Point","coordinates":[125.120113,46.620291]},"properties":{"province":"黑龙江省","city":"大庆市","county":"萨尔图区","community":"格林街道香逸名苑小区三期8号楼","full_address":"黑龙江省大庆市萨尔图区格林街道香逸名苑小区三期8号楼","info":""}},{"type":"Feature","geometry":{"type":"Point","coordinates":[125.122312,46.620644]},"properties":{"province":"黑龙江省","city":"大庆市","county":"萨尔图区","community":"格林街道香逸名苑小区一二期A3号楼","full_address":"黑龙江省大庆市萨尔图区格林街道香逸名苑小区一二期A3号楼","info":""}},{"type":"Feature","geometry":{"type":"Point","coordinates":[125.122312,46.620644]},"properties":{"province":"黑龙江省","city":"大庆市","county":"萨尔图区","community":"格林街道香逸名苑小区一二期B3号楼","full_address":"黑龙江省大庆市萨尔图区格林街道香逸名苑小区一二期B3号楼","info":""}},{"type":"Feature","geometry":{"type":"Point","coordinates":[125.122312,46.620644]},"properties":{"province":"黑龙江省","city":"大庆市","county":"萨尔图区","community":"格林街道香逸名苑小区一二期B5号楼","full_address":"黑龙江省大庆市萨尔图区格林街道香逸名苑小区一二期B5号楼","info":""}},{"type":"Feature","geometry":{"type":"Point","coordinates":[125.118789,46.624821]},"properties":{"province":"黑龙江省","city":"大庆市","county":"萨尔图区","community":"格林街道唯美主邑小区C13号楼","full_address":"黑龙江省大庆市萨尔图区格林街道唯美主邑小区C13号楼","info":""}},{"type":"Feature","geometry":{"type":"Point","coordinates":[125.127805,46.620281]},"properties":{"province":"黑龙江省","city":"大庆市","county":"萨尔图区","community":"格林街道格林小镇小区二期C05号楼","full_address":"黑龙江省大庆市萨尔图区格林街道格林小镇小区二期C05号楼","info":""}},{"type":"Feature","geometry":{"type":"Point","coordinates":[125.127805,46.620281]},"properties":{"province":"黑龙江省","city":"大庆市","county":"萨尔图区","community":"格林街道格林小镇小区二期C25号楼","full_address":"黑龙江省大庆市萨尔图区格林街道格林小镇小区二期C25号楼","info":""}},{"type":"Feature","geometry":{"type":"Point","coordinates":[125.102462,46.596307]},"properties":{"province":"黑龙江省","city":"大庆市","county":"萨尔图区","community":"东风街道纬二路优根口腔所在商服楼栋（新星小区F组团南侧）","full_address":"黑龙江省大庆市萨尔图区东风街道纬二路优根口腔所在商服楼栋（新星小区F组团南侧）","info":""}},{"type":"Feature","geometry":{"type":"Point","coordinates":[125.008877,46.591914]},"properties":{"province":"黑龙江省","city":"大庆市","county":"萨尔图区","community":"萨尔图街道一厂五矿1-1联合站工地","full_address":"黑龙江省大庆市萨尔图区萨尔图街道一厂五矿1-1联合站工地","info":""}},{"type":"Feature","geometry":{"type":"Point","coordinates":[125.126251,46.610971]},"properties":{"province":"黑龙江省","city":"大庆市","county":"萨尔图区","community":"绿园街道绿色家园小区S04号楼","full_address":"黑龙江省大庆市萨尔图区绿园街道绿色家园小区S04号楼","info":""}},{"type":"Feature","geometry":{"type":"Point","coordinates":[125.126251,46.610971]},"properties":{"province":"黑龙江省","city":"大庆市","county":"萨尔图区","community":"绿园街道绿色家园小区S03号楼","full_address":"黑龙江省大庆市萨尔图区绿园街道绿色家园小区S03号楼","info":""}},{"type":"Feature","geometry":{"type":"Point","coordinates":[125.118147,46.615454]},"properties":{"province":"黑龙江省","city":"大庆市","county":"萨尔图区","community":"绿园街道百湖花园小区A07号楼","full_address":"黑龙江省大庆市萨尔图区绿园街道百湖花园小区A07号楼","info":""}},{"type":"Feature","geometry":{"type":"Point","coordinates":[125.099478,46.602527]},"properties":{"province":"黑龙江省","city":"大庆市","county":"萨尔图区","community":"绿园街道益民小区11号楼","full_address":"黑龙江省大庆市萨尔图区绿园街道益民小区11号楼","info":""}},{"type":"Feature","geometry":{"type":"Point","coordinates":[125.12705,46.592927]},"properties":{"province":"黑龙江省","city":"大庆市","county":"萨尔图区","community":"东安街道广源步行街B5商服鑫顺祥招待所","full_address":"黑龙江省大庆市萨尔图区东安街道广源步行街B5商服鑫顺祥招待所","info":""}},{"type":"Feature","geometry":{"type":"Point","coordinates":[125.161377,46.619292]},"properties":{"province":"黑龙江省","city":"大庆市","county":"萨尔图区","community":"（高新区）黎明街道生态大街滨州华府小区22号楼裙房4号商服（佳鑫生鲜超市）","full_address":"黑龙江省大庆市萨尔图区（高新区）黎明街道生态大街滨州华府小区22号楼裙房4号商服（佳鑫生鲜超市）","info":""}},{"type":"Feature","geometry":{"type":"Point","coordinates":[125.146174,46.565945]},"properties":{"province":"黑龙江省","city":"大庆市","county":"萨尔图区","community":"（高新区）黎明街道创业新街满满海鲜饭店所属栋楼（乾和城小区东侧）","full_address":"黑龙江省大庆市萨尔图区（高新区）黎明街道创业新街满满海鲜饭店所属栋楼（乾和城小区东侧）","info":""}},{"type":"Feature","geometry":{"type":"Point","coordinates":[125.126399,46.584934]},"properties":{"province":"黑龙江省","city":"大庆市","county":"萨尔图区","community":"（高新区）黎明街道建设路水岸家园1号楼","full_address":"黑龙江省大庆市萨尔图区（高新区）黎明街道建设路水岸家园1号楼","info":""}},{"type":"Feature","geometry":{"type":"Point","coordinates":[125.147614,46.564908]},"properties":{"province":"黑龙江省","city":"大庆市","county":"萨尔图区","community":"（高新区）黎明街道龙兴路乾和城小区A4号楼","full_address":"黑龙江省大庆市萨尔图区（高新区）黎明街道龙兴路乾和城小区A4号楼","info":""}},{"type":"Feature","geometry":{"type":"Point","coordinates":[125.13385,46.576608]},"properties":{"province":"黑龙江省","city":"大庆市","county":"萨尔图区","community":"（高新区）黎明街道纬二路龙泉小区（全域）","full_address":"黑龙江省大庆市萨尔图区（高新区）黎明街道纬二路龙泉小区（全域）","info":""}},{"type":"Feature","geometry":{"type":"Point","coordinates":[125.173382,46.566905]},"properties":{"province":"黑龙江省","city":"大庆市","county":"萨尔图区","community":"（高新区）黎明街道阳光东街融公馆小区18号楼","full_address":"黑龙江省大庆市萨尔图区（高新区）黎明街道阳光东街融公馆小区18号楼","info":""}},{"type":"Feature","geometry":{"type":"Point","coordinates":[125.127309,46.52208]},"properties":{"province":"黑龙江省","city":"大庆市","county":"龙凤区","community":"龙凤街道湿地福苑D02 号楼","full_address":"黑龙江省大庆市龙凤区龙凤街道湿地福苑D02 号楼","info":""}},{"type":"Feature","geometry":{"type":"Point","coordinates":[125.126815,46.5217]},"properties":{"province":"黑龙江省","city":"大庆市","county":"龙凤区","community":"龙凤街道湿地福苑D03号楼","full_address":"黑龙江省大庆市龙凤区龙凤街道湿地福苑D03号楼","info":""}},{"type":"Feature","geometry":{"type":"Point","coordinates":[125.122661,46.518075]},"properties":{"province":"黑龙江省","city":"大庆市","county":"龙凤区","community":"龙凤街道湿地福苑A10号楼","full_address":"黑龙江省大庆市龙凤区龙凤街道湿地福苑A10号楼","info":""}},{"type":"Feature","geometry":{"type":"Point","coordinates":[125.162068,46.545157]},"properties":{"province":"黑龙江省","city":"大庆市","county":"龙凤区","community":"湿地街道欣凤学城三期C33号楼和商服92号-118号","full_address":"黑龙江省大庆市龙凤区湿地街道欣凤学城三期C33号楼和商服92号-118号","info":""}},{"type":"Feature","geometry":{"type":"Point","coordinates":[125.162068,46.545157]},"properties":{"province":"黑龙江省","city":"大庆市","county":"龙凤区","community":"湿地街道欣凤学城二期B11号楼","full_address":"黑龙江省大庆市龙凤区湿地街道欣凤学城二期B11号楼","info":""}},{"type":"Feature","geometry":{"type":"Point","coordinates":[125.135704,46.564934]},"properties":{"province":"黑龙江省","city":"大庆市","county":"龙凤区","community":"龙政街道唐人中心2号楼","full_address":"黑龙江省大庆市龙凤区龙政街道唐人中心2号楼","info":""}},{"type":"Feature","geometry":{"type":"Point","coordinates":[125.135756,46.565636]},"properties":{"province":"黑龙江省","city":"大庆市","county":"龙凤区","community":"龙政街道唐人中心10号楼","full_address":"黑龙江省大庆市龙凤区龙政街道唐人中心10号楼","info":""}},{"type":"Feature","geometry":{"type":"Point","coordinates":[125.053258,46.498325]},"properties":{"province":"黑龙江省","city":"大庆市","county":"龙凤区","community":"农批城全域","full_address":"黑龙江省大庆市龙凤区农批城全域","info":""}},{"type":"Feature","geometry":{"type":"Point","coordinates":[125.147594,46.547118]},"properties":{"province":"黑龙江省","city":"大庆市","county":"龙凤区","community":"湿地街道汇宏悦澜湾A3号楼","full_address":"黑龙江省大庆市龙凤区湿地街道汇宏悦澜湾A3号楼","info":""}},{"type":"Feature","geometry":{"type":"Point","coordinates":[125.147594,46.547118]},"properties":{"province":"黑龙江省","city":"大庆市","county":"龙凤区","community":"湿地街道汇宏悦澜湾D4号楼","full_address":"黑龙江省大庆市龙凤区湿地街道汇宏悦澜湾D4号楼","info":""}},{"type":"Feature","geometry":{"type":"Point","coordinates":[125.131461,46.564047]},"properties":{"province":"黑龙江省","city":"大庆市","county":"龙凤区","community":"瀚城星苑2期A2号楼","full_address":"黑龙江省大庆市龙凤区瀚城星苑2期A2号楼","info":""}},{"type":"Feature","geometry":{"type":"Point","coordinates":[125.157377,46.537217]},"properties":{"province":"黑龙江省","city":"大庆市","county":"龙凤区","community":"湿地街道英伦三岛E19号楼","full_address":"黑龙江省大庆市龙凤区湿地街道英伦三岛E19号楼","info":""}},{"type":"Feature","geometry":{"type":"Point","coordinates":[125.112105,46.530118]},"properties":{"province":"黑龙江省","city":"大庆市","county":"龙凤区","community":"龙凤街道厂前北小区1-40号楼、1-41号楼","full_address":"黑龙江省大庆市龙凤区龙凤街道厂前北小区1-40号楼、1-41号楼","info":""}},{"type":"Feature","geometry":{"type":"Point","coordinates":[125.109389,46.548944]},"properties":{"province":"黑龙江省","city":"大庆市","county":"龙凤区","community":"三永街道澳龙小区A02、B22、F4号楼","full_address":"黑龙江省大庆市龙凤区三永街道澳龙小区A02、B22、F4号楼","info":""}},{"type":"Feature","geometry":{"type":"Point","coordinates":[125.192235,46.451402]},"properties":{"province":"黑龙江省","city":"大庆市","county":"龙凤区","community":"兴化街道乙烯5-19号楼","full_address":"黑龙江省大庆市龙凤区兴化街道乙烯5-19号楼","info":""}},{"type":"Feature","geometry":{"type":"Point","coordinates":[125.162068,46.545157]},"properties":{"province":"黑龙江省","city":"大庆市","county":"龙凤区","community":"湿地街道欣凤学城A14、A25号楼","full_address":"黑龙江省大庆市龙凤区湿地街道欣凤学城A14、A25号楼","info":""}},{"type":"Feature","geometry":{"type":"Point","coordinates":[125.09875,46.55562]},"properties":{"province":"黑龙江省","city":"大庆市","county":"龙凤区","community":"三永街道香槟小镇6号楼","full_address":"黑龙江省大庆市龙凤区三永街道香槟小镇6号楼","info":""}},{"type":"Feature","geometry":{"type":"Point","coordinates":[125.137439,46.565164]},"properties":{"province":"黑龙江省","city":"大庆市","county":"龙凤区","community":"龙政街道唐人中心12号楼","full_address":"黑龙江省大庆市龙凤区龙政街道唐人中心12号楼","info":""}},{"type":"Feature","geometry":{"type":"Point","coordinates":[125.030114,46.528305]},"properties":{"province":"黑龙江省","city":"大庆市","county":"龙凤区","community":"龙凤镇向阳村向阳大屯所属全域","full_address":"黑龙江省大庆市龙凤区龙凤镇向阳村向阳大屯所属全域","info":""}},{"type":"Feature","geometry":{"type":"Point","coordinates":[125.133459,46.558145]},"properties":{"province":"黑龙江省","city":"大庆市","county":"龙凤区","community":"龙政街道东城领秀D25A号楼","full_address":"黑龙江省大庆市龙凤区龙政街道东城领秀D25A号楼","info":""}},{"type":"Feature","geometry":{"type":"Point","coordinates":[125.065744,46.562218]},"properties":{"province":"黑龙江省","city":"大庆市","county":"龙凤区","community":"东光街道东光小区2-1号楼","full_address":"黑龙江省大庆市龙凤区东光街道东光小区2-1号楼","info":""}},{"type":"Feature","geometry":{"type":"Point","coordinates":[125.136182,46.564484]},"properties":{"province":"黑龙江省","city":"大庆市","county":"龙凤区","community":"龙政街道唐人中心5号楼","full_address":"黑龙江省大庆市龙凤区龙政街道唐人中心5号楼","info":""}},{"type":"Feature","geometry":{"type":"Point","coordinates":[125.138245,46.564194]},"properties":{"province":"黑龙江省","city":"大庆市","county":"龙凤区","community":"龙政街道唐人中心6号楼","full_address":"黑龙江省大庆市龙凤区龙政街道唐人中心6号楼","info":""}},{"type":"Feature","geometry":{"type":"Point","coordinates":[125.11034,46.544481]},"properties":{"province":"黑龙江省","city":"大庆市","county":"龙凤区","community":"三永街道澳龙小区E05号楼","full_address":"黑龙江省大庆市龙凤区三永街道澳龙小区E05号楼","info":""}},{"type":"Feature","geometry":{"type":"Point","coordinates":[125.127084,46.520312]},"properties":{"province":"黑龙江省","city":"大庆市","county":"龙凤区","community":"龙凤街道湿地福苑D11号楼","full_address":"黑龙江省大庆市龙凤区龙凤街道湿地福苑D11号楼","info":""}},{"type":"Feature","geometry":{"type":"Point","coordinates":[125.186564,46.433222]},"properties":{"province":"黑龙江省","city":"大庆市","county":"龙凤区","community":"龙凤镇建兴村于江屯全域","full_address":"黑龙江省大庆市龙凤区龙凤镇建兴村于江屯全域","info":""}},{"type":"Feature","geometry":{"type":"Point","coordinates":[125.145911,46.5227]},"properties":{"province":"黑龙江省","city":"大庆市","county":"龙凤区","community":"龙凤镇铁东村三屯全域","full_address":"黑龙江省大庆市龙凤区龙凤镇铁东村三屯全域","info":""}},{"type":"Feature","geometry":{"type":"Point","coordinates":[125.113822,46.530627]},"properties":{"province":"黑龙江省","city":"大庆市","county":"龙凤区","community":"龙凤街道厂前小区86号楼","full_address":"黑龙江省大庆市龙凤区龙凤街道厂前小区86号楼","info":""}},{"type":"Feature","geometry":{"type":"Point","coordinates":[125.126944,46.513354]},"properties":{"province":"黑龙江省","city":"大庆市","county":"龙凤区","community":"湿地街道千祥雅苑3号楼","full_address":"黑龙江省大庆市龙凤区湿地街道千祥雅苑3号楼","info":""}},{"type":"Feature","geometry":{"type":"Point","coordinates":[125.141949,46.559289]},"properties":{"province":"黑龙江省","city":"大庆市","county":"龙凤区","community":"龙政街道华溪龙城一期12号楼","full_address":"黑龙江省大庆市龙凤区龙政街道华溪龙城一期12号楼","info":""}},{"type":"Feature","geometry":{"type":"Point","coordinates":[125.137653,46.558003]},"properties":{"province":"黑龙江省","city":"大庆市","county":"龙凤区","community":"龙政街道东城领秀B区33号","full_address":"黑龙江省大庆市龙凤区龙政街道东城领秀B区33号","info":""}},{"type":"Feature","geometry":{"type":"Point","coordinates":[125.13688,46.56477]},"properties":{"province":"黑龙江省","city":"大庆市","county":"龙凤区","community":"龙政街道唐人中心8号楼","full_address":"黑龙江省大庆市龙凤区龙政街道唐人中心8号楼","info":""}},{"type":"Feature","geometry":{"type":"Point","coordinates":[125.115785,46.575112]},"properties":{"province":"黑龙江省","city":"大庆市","county":"龙凤区","community":"三永街道瀚城名苑D5号楼","full_address":"黑龙江省大庆市龙凤区三永街道瀚城名苑D5号楼","info":""}},{"type":"Feature","geometry":{"type":"Point","coordinates":[125.151109,46.549273]},"properties":{"province":"黑龙江省","city":"大庆市","county":"龙凤区","community":"湿地街道平安家园1号楼","full_address":"黑龙江省大庆市龙凤区湿地街道平安家园1号楼","info":""}},{"type":"Feature","geometry":{"type":"Point","coordinates":[125.152969,46.542564]},"properties":{"province":"黑龙江省","city":"大庆市","county":"龙凤区","community":"湿地街道聚福园20号楼","full_address":"黑龙江省大庆市龙凤区湿地街道聚福园20号楼","info":""}},{"type":"Feature","geometry":{"type":"Point","coordinates":[125.135121,46.567071]},"properties":{"province":"黑龙江省","city":"大庆市","county":"龙凤区","community":"三永街道瀚城星苑二期A7号楼","full_address":"黑龙江省大庆市龙凤区三永街道瀚城星苑二期A7号楼","info":""}},{"type":"Feature","geometry":{"type":"Point","coordinates":[125.124047,46.546241]},"properties":{"province":"黑龙江省","city":"大庆市","county":"龙凤区","community":"龙政街道滨海花园24号楼","full_address":"黑龙江省大庆市龙凤区龙政街道滨海花园24号楼","info":""}},{"type":"Feature","geometry":{"type":"Point","coordinates":[125.135919,46.559323]},"properties":{"province":"黑龙江省","city":"大庆市","county":"龙凤区","community":"龙政街道东城领秀A区21号楼","full_address":"黑龙江省大庆市龙凤区龙政街道东城领秀A区21号楼","info":""}},{"type":"Feature","geometry":{"type":"Point","coordinates":[125.138346,46.5585]},"properties":{"province":"黑龙江省","city":"大庆市","county":"龙凤区","community":"龙政街道东城领秀B区7号楼","full_address":"黑龙江省大庆市龙凤区龙政街道东城领秀B区7号楼","info":""}},{"type":"Feature","geometry":{"type":"Point","coordinates":[125.121023,46.54538]},"properties":{"province":"黑龙江省","city":"大庆市","county":"龙凤区","community":"三永街道瑞安花园10号楼、7号楼","full_address":"黑龙江省大庆市龙凤区三永街道瑞安花园10号楼、7号楼","info":""}},{"type":"Feature","geometry":{"type":"Point","coordinates":[125.133459,46.558145]},"properties":{"province":"黑龙江省","city":"大庆市","county":"龙凤区","community":"东城领秀百邦超市南侧壁至刘涛牛羊肉店和叫了个鸡商服之间区域","full_address":"黑龙江省大庆市龙凤区东城领秀百邦超市南侧壁至刘涛牛羊肉店和叫了个鸡商服之间区域","info":""}},{"type":"Feature","geometry":{"type":"Point","coordinates":[124.878618,46.630716]},"properties":{"province":"黑龙江省","city":"大庆市","county":"让胡路区","community":"华北路、聚贤街、西宾路、昆仑大街合围区域","full_address":"黑龙江省大庆市让胡路区华北路、聚贤街、西宾路、昆仑大街合围区域","info":""}},{"type":"Feature","geometry":{"type":"Point","coordinates":[124.893148,46.609918]},"properties":{"province":"黑龙江省","city":"大庆市","county":"让胡路区","community":"龙南综合批发市场CA3栋","full_address":"黑龙江省大庆市让胡路区龙南综合批发市场CA3栋","info":""}},{"type":"Feature","geometry":{"type":"Point","coordinates":[124.880678,46.615389]},"properties":{"province":"黑龙江省","city":"大庆市","county":"让胡路区","community":"远望二社区12号楼栋","full_address":"黑龙江省大庆市让胡路区远望二社区12号楼栋","info":""}},{"type":"Feature","geometry":{"type":"Point","coordinates":[124.888586,46.578494]},"properties":{"province":"黑龙江省","city":"大庆市","county":"让胡路区","community":"东湖小区401栋","full_address":"黑龙江省大庆市让胡路区东湖小区401栋","info":""}},{"type":"Feature","geometry":{"type":"Point","coordinates":[124.86142,46.622419]},"properties":{"province":"黑龙江省","city":"大庆市","county":"让胡路区","community":"阳光嘉城B22栋","full_address":"黑龙江省大庆市让胡路区阳光嘉城B22栋","info":""}},{"type":"Feature","geometry":{"type":"Point","coordinates":[124.888054,46.595745]},"properties":{"province":"黑龙江省","city":"大庆市","county":"让胡路区","community":"世纪花园B-6栋","full_address":"黑龙江省大庆市让胡路区世纪花园B-6栋","info":""}},{"type":"Feature","geometry":{"type":"Point","coordinates":[124.875773,46.634693]},"properties":{"province":"黑龙江省","city":"大庆市","county":"让胡路区","community":"阳光佳苑A10栋","full_address":"黑龙江省大庆市让胡路区阳光佳苑A10栋","info":""}},{"type":"Feature","geometry":{"type":"Point","coordinates":[124.89475,46.57777]},"properties":{"province":"黑龙江省","city":"大庆市","county":"让胡路区","community":"东湖小区812栋、826栋","full_address":"黑龙江省大庆市让胡路区东湖小区812栋、826栋","info":""}},{"type":"Feature","geometry":{"type":"Point","coordinates":[124.81893,46.602038]},"properties":{"province":"黑龙江省","city":"大庆市","county":"让胡路区","community":"喇嘛甸镇宏伟村四屯、六屯","full_address":"黑龙江省大庆市让胡路区喇嘛甸镇宏伟村四屯、六屯","info":""}},{"type":"Feature","geometry":{"type":"Point","coordinates":[124.906499,46.6071]},"properties":{"province":"黑龙江省","city":"大庆市","county":"让胡路区","community":"未来城小区12号楼、21号楼、26号楼、35号楼","full_address":"黑龙江省大庆市让胡路区未来城小区12号楼、21号楼、26号楼、35号楼","info":""}},{"type":"Feature","geometry":{"type":"Point","coordinates":[124.869397,46.653258]},"properties":{"province":"黑龙江省","city":"大庆市","county":"让胡路区","community":"奋斗七区34号楼","full_address":"黑龙江省大庆市让胡路区奋斗七区34号楼","info":""}},{"type":"Feature","geometry":{"type":"Point","coordinates":[124.90367,46.564335]},"properties":{"province":"黑龙江省","city":"大庆市","county":"让胡路区","community":"东湖九区904号楼","full_address":"黑龙江省大庆市让胡路区东湖九区904号楼","info":""}},{"type":"Feature","geometry":{"type":"Point","coordinates":[124.917394,46.739235]},"properties":{"province":"黑龙江省","city":"大庆市","county":"让胡路区","community":"采油六厂欣欣小区9-1号楼","full_address":"黑龙江省大庆市让胡路区采油六厂欣欣小区9-1号楼","info":""}},{"type":"Feature","geometry":{"type":"Point","coordinates":[124.903669,46.607174]},"properties":{"province":"黑龙江省","city":"大庆市","county":"让胡路区","community":"未来城小区19号楼","full_address":"黑龙江省大庆市让胡路区未来城小区19号楼","info":""}},{"type":"Feature","geometry":{"type":"Point","coordinates":[124.894798,46.571456]},"properties":{"province":"黑龙江省","city":"大庆市","county":"让胡路区","community":"东湖小区10区35号楼","full_address":"黑龙江省大庆市让胡路区东湖小区10区35号楼","info":""}},{"type":"Feature","geometry":{"type":"Point","coordinates":[124.888458,46.613679]},"properties":{"province":"黑龙江省","city":"大庆市","county":"让胡路区","community":"乐园小区11号楼","full_address":"黑龙江省大庆市让胡路区乐园小区11号楼","info":""}},{"type":"Feature","geometry":{"type":"Point","coordinates":[124.873744,46.612672]},"properties":{"province":"黑龙江省","city":"大庆市","county":"让胡路区","community":"明湖苑小区8号楼","full_address":"黑龙江省大庆市让胡路区明湖苑小区8号楼","info":""}},{"type":"Feature","geometry":{"type":"Point","coordinates":[124.856544,46.639275]},"properties":{"province":"黑龙江省","city":"大庆市","county":"让胡路区","community":"学府郦城小区A区11号楼","full_address":"黑龙江省大庆市让胡路区学府郦城小区A区11号楼","info":""}},{"type":"Feature","geometry":{"type":"Point","coordinates":[124.902502,46.607168]},"properties":{"province":"黑龙江省","city":"大庆市","county":"让胡路区","community":"北方汽配城20栋","full_address":"黑龙江省大庆市让胡路区北方汽配城20栋","info":""}},{"type":"Feature","geometry":{"type":"Point","coordinates":[124.853703,46.621259]},"properties":{"province":"黑龙江省","city":"大庆市","county":"让胡路区","community":"富强新城J区3号楼旁平房","full_address":"黑龙江省大庆市让胡路区富强新城J区3号楼旁平房","info":""}},{"type":"Feature","geometry":{"type":"Point","coordinates":[124.888462,46.619109]},"properties":{"province":"黑龙江省","city":"大庆市","county":"让胡路区","community":"怡园小区3-6号楼","full_address":"黑龙江省大庆市让胡路区怡园小区3-6号楼","info":""}},{"type":"Feature","geometry":{"type":"Point","coordinates":[124.905303,46.605241]},"properties":{"province":"黑龙江省","city":"大庆市","county":"让胡路区","community":"未来城小区15号楼、33号楼","full_address":"黑龙江省大庆市让胡路区未来城小区15号楼、33号楼","info":""}},{"type":"Feature","geometry":{"type":"Point","coordinates":[124.89232,46.5742]},"properties":{"province":"黑龙江省","city":"大庆市","county":"让胡路区","community":"东湖祥诚商贸中心商服楼南侧世一大药房至春燕五金商店范围内包括1层、2层（范围包含南侧世一大药房、春燕五金商店）","full_address":"黑龙江省大庆市让胡路区东湖祥诚商贸中心商服楼南侧世一大药房至春燕五金商店范围内包括1层、2层（范围包含南侧世一大药房、春燕五金商店）","info":""}},{"type":"Feature","geometry":{"type":"Point","coordinates":[124.896706,46.608421]},"properties":{"province":"黑龙江省","city":"大庆市","county":"让胡路区","community":"北方建材装饰城20号楼","full_address":"黑龙江省大庆市让胡路区北方建材装饰城20号楼","info":""}},{"type":"Feature","geometry":{"type":"Point","coordinates":[124.881702,46.613341]},"properties":{"province":"黑龙江省","city":"大庆市","county":"让胡路区","community":"西宾街道远望大街72号楼栋","full_address":"黑龙江省大庆市让胡路区西宾街道远望大街72号楼栋","info":""}},{"type":"Feature","geometry":{"type":"Point","coordinates":[125.334075,46.413871]},"properties":{"province":"黑龙江省","city":"绥化市","county":"安达市","community":"蓝天综贸大市场","full_address":"黑龙江省绥化市安达市蓝天综贸大市场","info":""}},{"type":"Feature","geometry":{"type":"Point","coordinates":[125.327661,46.414371]},"properties":{"province":"黑龙江省","city":"绥化市","county":"安达市","community":"格林嘉园小区6号楼3单元","full_address":"黑龙江省绥化市安达市格林嘉园小区6号楼3单元","info":""}},{"type":"Feature","geometry":{"type":"Point","coordinates":[125.352188,46.423508]},"properties":{"province":"黑龙江省","city":"绥化市","county":"安达市","community":"利达综合楼4号楼13单元","full_address":"黑龙江省绥化市安达市利达综合楼4号楼13单元","info":""}},{"type":"Feature","geometry":{"type":"Point","coordinates":[126.007627,46.262321]},"properties":{"province":"黑龙江省","city":"绥化市","county":"肇东市","community":"昌五镇一街1组","full_address":"黑龙江省绥化市肇东市昌五镇一街1组","info":""}},{"type":"Feature","geometry":{"type":"Point","coordinates":[125.61027,46.012542]},"properties":{"province":"黑龙江省","city":"绥化市","county":"肇东市","community":"昌五镇一街29组","full_address":"黑龙江省绥化市肇东市昌五镇一街29组","info":""}},{"type":"Feature","geometry":{"type":"Point","coordinates":[125.596534,46.01334]},"properties":{"province":"黑龙江省","city":"绥化市","county":"肇东市","community":"昌五镇二街28组","full_address":"黑龙江省绥化市肇东市昌五镇二街28组","info":""}},{"type":"Feature","geometry":{"type":"Point","coordinates":[125.59792,46.010502]},"properties":{"province":"黑龙江省","city":"绥化市","county":"肇东市","community":"昌五镇四街1组","full_address":"黑龙江省绥化市肇东市昌五镇四街1组","info":""}},{"type":"Feature","geometry":{"type":"Point","coordinates":[125.59829,46.011471]},"properties":{"province":"黑龙江省","city":"绥化市","county":"肇东市","community":"昌五镇十字街国税局西50米商服","full_address":"黑龙江省绥化市肇东市昌五镇十字街国税局西50米商服","info":""}},{"type":"Feature","geometry":{"type":"Point","coordinates":[125.61027,46.012542]},"properties":{"province":"黑龙江省","city":"绥化市","county":"肇东市","community":"昌五镇鑫洪源饭店","full_address":"黑龙江省绥化市肇东市昌五镇鑫洪源饭店","info":""}},{"type":"Feature","geometry":{"type":"Point","coordinates":[125.61027,46.012542]},"properties":{"province":"黑龙江省","city":"绥化市","county":"肇东市","community":"昌五镇验蛋厂","full_address":"黑龙江省绥化市肇东市昌五镇验蛋厂","info":""}},{"type":"Feature","geometry":{"type":"Point","coordinates":[125.598351,46.010557]},"properties":{"province":"黑龙江省","city":"绥化市","county":"肇东市","community":"昌五镇小辣妹麻辣烫","full_address":"黑龙江省绥化市肇东市昌五镇小辣妹麻辣烫","info":""}},{"type":"Feature","geometry":{"type":"Point","coordinates":[125.61027,46.012542]},"properties":{"province":"黑龙江省","city":"绥化市","county":"肇东市","community":"昌五镇马记火锅","full_address":"黑龙江省绥化市肇东市昌五镇马记火锅","info":""}},{"type":"Feature","geometry":{"type":"Point","coordinates":[125.61027,46.012542]},"properties":{"province":"黑龙江省","city":"绥化市","county":"肇东市","community":"昌五镇鑫汇鑫饭店核酸采样点","full_address":"黑龙江省绥化市肇东市昌五镇鑫汇鑫饭店核酸采样点","info":""}},{"type":"Feature","geometry":{"type":"Point","coordinates":[125.530515,46.148913]},"properties":{"province":"黑龙江省","city":"绥化市","county":"肇东市","community":"安民乡八撮村腰八撮屯","full_address":"黑龙江省绥化市肇东市安民乡八撮村腰八撮屯","info":""}},{"type":"Feature","geometry":{"type":"Point","coordinates":[125.674361,46.064486]},"properties":{"province":"黑龙江省","city":"绥化市","county":"肇东市","community":"向阳乡曙光村大井子屯","full_address":"黑龙江省绥化市肇东市向阳乡曙光村大井子屯","info":""}},{"type":"Feature","geometry":{"type":"Point","coordinates":[125.979087,46.064037]},"properties":{"province":"黑龙江省","city":"绥化市","county":"肇东市","community":"肇东市十五道街鸣俊烧烤店","full_address":"黑龙江省绥化市肇东市肇东市十五道街鸣俊烧烤店","info":""}},{"type":"Feature","geometry":{"type":"Point","coordinates":[125.971979,46.061785]},"properties":{"province":"黑龙江省","city":"绥化市","county":"肇东市","community":"肇东市宏盛丽园小区4号楼3单元","full_address":"黑龙江省绥化市肇东市肇东市宏盛丽园小区4号楼3单元","info":""}},{"type":"Feature","geometry":{"type":"Point","coordinates":[125.530515,46.148913]},"properties":{"province":"黑龙江省","city":"绥化市","county":"肇东市","community":"安民乡八撮村","full_address":"黑龙江省绥化市肇东市安民乡八撮村","info":""}},{"type":"Feature","geometry":{"type":"Point","coordinates":[125.53407,46.110048]},"properties":{"province":"黑龙江省","city":"绥化市","county":"肇东市","community":"安民乡中通快递点和韵达快递点","full_address":"黑龙江省绥化市肇东市安民乡中通快递点和韵达快递点","info":""}},{"type":"Feature","geometry":{"type":"Point","coordinates":[125.674361,46.064486]},"properties":{"province":"黑龙江省","city":"绥化市","county":"肇东市","community":"向阳乡曙光村三队","full_address":"黑龙江省绥化市肇东市向阳乡曙光村三队","info":""}},{"type":"Feature","geometry":{"type":"Point","coordinates":[126.116193,46.684788]},"properties":{"province":"黑龙江省","city":"绥化市","county":"肇东市","community":"昌五镇国涛家园小区1号楼1单元","full_address":"黑龙江省绥化市肇东市昌五镇国涛家园小区1号楼1单元","info":""}},{"type":"Feature","geometry":{"type":"Point","coordinates":[125.61027,46.012542]},"properties":{"province":"黑龙江省","city":"绥化市","county":"肇东市","community":"昌五镇马老六饭店","full_address":"黑龙江省绥化市肇东市昌五镇马老六饭店","info":""}},{"type":"Feature","geometry":{"type":"Point","coordinates":[125.99484,46.063321]},"properties":{"province":"黑龙江省","city":"绥化市","county":"肇东市","community":"巴黎花园小区7号楼1单元","full_address":"黑龙江省绥化市肇东市巴黎花园小区7号楼1单元","info":""}},{"type":"Feature","geometry":{"type":"Point","coordinates":[125.598235,46.010889]},"properties":{"province":"黑龙江省","city":"绥化市","county":"肇东市","community":"昌五镇四川麻辣烫","full_address":"黑龙江省绥化市肇东市昌五镇四川麻辣烫","info":""}},{"type":"Feature","geometry":{"type":"Point","coordinates":[125.602057,46.013059]},"properties":{"province":"黑龙江省","city":"绥化市","county":"肇东市","community":"昌五镇御龙湖小区2号楼2单元","full_address":"黑龙江省绥化市肇东市昌五镇御龙湖小区2号楼2单元","info":""}},{"type":"Feature","geometry":{"type":"Point","coordinates":[125.601192,46.011069]},"properties":{"province":"黑龙江省","city":"绥化市","county":"肇东市","community":"昌五镇大白楼一单元","full_address":"黑龙江省绥化市肇东市昌五镇大白楼一单元","info":""}},{"type":"Feature","geometry":{"type":"Point","coordinates":[125.792589,45.986763]},"properties":{"province":"黑龙江省","city":"绥化市","county":"肇东市","community":"安民乡向阳村周德库屯","full_address":"黑龙江省绥化市肇东市安民乡向阳村周德库屯","info":""}},{"type":"Feature","geometry":{"type":"Point","coordinates":[125.49314,46.181989]},"properties":{"province":"黑龙江省","city":"绥化市","county":"肇东市","community":"安民乡卫生院北侧粉色平房","full_address":"黑龙江省绥化市肇东市安民乡卫生院北侧粉色平房","info":""}},{"type":"Feature","geometry":{"type":"Point","coordinates":[125.593787,46.009953]},"properties":{"province":"黑龙江省","city":"绥化市","county":"肇东市","community":"昌五镇国涛家园2号楼2单元","full_address":"黑龙江省绥化市肇东市昌五镇国涛家园2号楼2单元","info":""}},{"type":"Feature","geometry":{"type":"Point","coordinates":[125.974048,46.061376]},"properties":{"province":"黑龙江省","city":"绥化市","county":"肇东市","community":"九道街正阳明珠购物广场米村拌饭","full_address":"黑龙江省绥化市肇东市九道街正阳明珠购物广场米村拌饭","info":""}},{"type":"Feature","geometry":{"type":"Point","coordinates":[125.977615,46.066623]},"properties":{"province":"黑龙江省","city":"绥化市","county":"肇东市","community":"尚城壹品小区B6栋2单元","full_address":"黑龙江省绥化市肇东市尚城壹品小区B6栋2单元","info":""}},{"type":"Feature","geometry":{"type":"Point","coordinates":[125.50175,45.998677]},"properties":{"province":"黑龙江省","city":"绥化市","county":"肇东市","community":"洪河乡平原村张兴国屯","full_address":"黑龙江省绥化市肇东市洪河乡平原村张兴国屯","info":""}},{"type":"Feature","geometry":{"type":"Point","coordinates":[125.61027,46.012542]},"properties":{"province":"黑龙江省","city":"绥化市","county":"肇东市","community":"昌五镇国涛嘉园小区一号楼3单元","full_address":"黑龙江省绥化市肇东市昌五镇国涛嘉园小区一号楼3单元","info":""}},{"type":"Feature","geometry":{"type":"Point","coordinates":[125.599305,46.010698]},"properties":{"province":"黑龙江省","city":"绥化市","county":"肇东市","community":"昌五镇十字街东新玛特精品店","full_address":"黑龙江省绥化市肇东市昌五镇十字街东新玛特精品店","info":""}},{"type":"Feature","geometry":{"type":"Point","coordinates":[121.458034,31.247942]},"properties":{"province":"上海市","city":"上海市","county":"静安区","community":"天目西路街道秣陵路83号汉庭酒店","full_address":"上海市上海市静安区天目西路街道秣陵路83号汉庭酒店","info":""}},{"type":"Feature","geometry":{"type":"Point","coordinates":[121.388411,31.168096]},"properties":{"province":"上海市","city":"上海市","county":"闵行区","community":"虹桥镇宜山路1888号瑞特国际大厦","full_address":"上海市上海市闵行区虹桥镇宜山路1888号瑞特国际大厦","info":""}},{"type":"Feature","geometry":{"type":"Point","coordinates":[121.387613,31.166862]},"properties":{"province":"上海市","city":"上海市","county":"闵行区","community":"虹桥镇宜山路1999号10号楼字节跳动办公大楼","full_address":"上海市上海市闵行区虹桥镇宜山路1999号10号楼字节跳动办公大楼","info":""}},{"type":"Feature","geometry":{"type":"Point","coordinates":[121.384443,31.171983]},"properties":{"province":"上海市","city":"上海市","county":"闵行区","community":"虹桥镇万源路2289弄万源新城一、二期","full_address":"上海市上海市闵行区虹桥镇万源路2289弄万源新城一、二期","info":""}},{"type":"Feature","geometry":{"type":"Point","coordinates":[120.85212,31.999819]},"properties":{"province":"江苏省","city":"南通市","county":"崇川区","community":"虹桥东村14幢","full_address":"江苏省南通市崇川区虹桥东村14幢","info":""}},{"type":"Feature","geometry":{"type":"Point","coordinates":[118.374961,32.327394]},"properties":{"province":"安徽省","city":"滁州市","county":"琅琊区","community":"韩上电器有限公司","full_address":"安徽省滁州市琅琊区韩上电器有限公司","info":""}},{"type":"Feature","geometry":{"type":"Point","coordinates":[118.305843,32.29453]},"properties":{"province":"安徽省","city":"滁州市","county":"琅琊区","community":"港铭新材料科技公司","full_address":"安徽省滁州市琅琊区港铭新材料科技公司","info":""}},{"type":"Feature","geometry":{"type":"Point","coordinates":[118.367652,32.31793]},"properties":{"province":"安徽省","city":"滁州市","county":"琅琊区","community":"中州国际广场一至三层商铺","full_address":"安徽省滁州市琅琊区中州国际广场一至三层商铺","info":""}},{"type":"Feature","geometry":{"type":"Point","coordinates":[116.807946,28.217745]},"properties":{"province":"江西省","city":"鹰潭市","county":"余江区","community":"工业园区新达玻璃厂","full_address":"江西省鹰潭市余江区工业园区新达玻璃厂","info":""}},{"type":"Feature","geometry":{"type":"Point","coordinates":[116.815349,28.212381]},"properties":{"province":"江西省","city":"鹰潭市","county":"余江区","community":"邓埠街道竹溪邓家","full_address":"江西省鹰潭市余江区邓埠街道竹溪邓家","info":""}},{"type":"Feature","geometry":{"type":"Point","coordinates":[117.213941,28.285574]},"properties":{"province":"江西省","city":"鹰潭市","county":"贵溪市","community":"东门街道信江社区艾家岭小区","full_address":"江西省鹰潭市贵溪市东门街道信江社区艾家岭小区","info":""}},{"type":"Feature","geometry":{"type":"Point","coordinates":[117.224225,28.27878]},"properties":{"province":"江西省","city":"鹰潭市","county":"贵溪市","community":"东门街道木丝岭社区信江明珠小区","full_address":"江西省鹰潭市贵溪市东门街道木丝岭社区信江明珠小区","info":""}},{"type":"Feature","geometry":{"type":"Point","coordinates":[117.208502,28.291214]},"properties":{"province":"江西省","city":"鹰潭市","county":"贵溪市","community":"东门街道雄石社区北门下李村","full_address":"江西省鹰潭市贵溪市东门街道雄石社区北门下李村","info":""}},{"type":"Feature","geometry":{"type":"Point","coordinates":[117.208621,28.281783]},"properties":{"province":"江西省","city":"鹰潭市","county":"贵溪市","community":"雄石街道以叶家塘菜场为中心南至沿河西路西至茨孛弄路延伸到复兴路北至雄鹰大道东至信江路","full_address":"江西省鹰潭市贵溪市雄石街道以叶家塘菜场为中心南至沿河西路西至茨孛弄路延伸到复兴路北至雄鹰大道东至信江路","info":""}},{"type":"Feature","geometry":{"type":"Point","coordinates":[117.21236,28.281876]},"properties":{"province":"江西省","city":"鹰潭市","county":"贵溪市","community":"东门街道江边社区（知青宿舍、水塔底78号、泰昌大厦）","full_address":"江西省鹰潭市贵溪市东门街道江边社区（知青宿舍、水塔底78号、泰昌大厦）","info":""}},{"type":"Feature","geometry":{"type":"Point","coordinates":[117.208775,28.293718]},"properties":{"province":"江西省","city":"鹰潭市","county":"贵溪市","community":"东门街道雄石社区雄石州上组","full_address":"江西省鹰潭市贵溪市东门街道雄石社区雄石州上组","info":""}},{"type":"Feature","geometry":{"type":"Point","coordinates":[117.209849,28.292644]},"properties":{"province":"江西省","city":"鹰潭市","county":"贵溪市","community":"东门街道雄石社区新都花苑小区（1栋、5栋）","full_address":"江西省鹰潭市贵溪市东门街道雄石社区新都花苑小区（1栋、5栋）","info":""}},{"type":"Feature","geometry":{"type":"Point","coordinates":[117.224703,28.282897]},"properties":{"province":"江西省","city":"鹰潭市","county":"贵溪市","community":"东门街道芗溪社区电厂东区（6栋、13栋、阳光花苑G栋2单元）","full_address":"江西省鹰潭市贵溪市东门街道芗溪社区电厂东区（6栋、13栋、阳光花苑G栋2单元）","info":""}},{"type":"Feature","geometry":{"type":"Point","coordinates":[117.241632,28.318218]},"properties":{"province":"江西省","city":"鹰潭市","county":"贵溪市","community":"滨江镇铜都村五里台吴家","full_address":"江西省鹰潭市贵溪市滨江镇铜都村五里台吴家","info":""}},{"type":"Feature","geometry":{"type":"Point","coordinates":[117.211314,28.317086]},"properties":{"province":"江西省","city":"鹰潭市","county":"贵溪市","community":"滨江镇柏里村竹山组","full_address":"江西省鹰潭市贵溪市滨江镇柏里村竹山组","info":""}},{"type":"Feature","geometry":{"type":"Point","coordinates":[117.208775,28.293718]},"properties":{"province":"江西省","city":"鹰潭市","county":"贵溪市","community":"东门街道雄石社区北门付家","full_address":"江西省鹰潭市贵溪市东门街道雄石社区北门付家","info":""}},{"type":"Feature","geometry":{"type":"Point","coordinates":[117.176281,28.232689]},"properties":{"province":"江西省","city":"鹰潭市","county":"贵溪市","community":"罗河镇周家村周家组","full_address":"江西省鹰潭市贵溪市罗河镇周家村周家组","info":""}},{"type":"Feature","geometry":{"type":"Point","coordinates":[117.156232,28.162113]},"properties":{"province":"江西省","city":"鹰潭市","county":"贵溪市","community":"罗河镇洋塘村","full_address":"江西省鹰潭市贵溪市罗河镇洋塘村","info":""}},{"type":"Feature","geometry":{"type":"Point","coordinates":[117.020574,28.2384]},"properties":{"province":"江西省","city":"鹰潭市","county":"贵溪市","community":"花园街道贵冶社区、铜苑社区","full_address":"江西省鹰潭市贵溪市花园街道贵冶社区、铜苑社区","info":""}},{"type":"Feature","geometry":{"type":"Point","coordinates":[117.213446,28.287754]},"properties":{"province":"江西省","city":"鹰潭市","county":"贵溪市","community":"东门街道信江社区汪张小区","full_address":"江西省鹰潭市贵溪市东门街道信江社区汪张小区","info":""}},{"type":"Feature","geometry":{"type":"Point","coordinates":[117.212952,28.28465]},"properties":{"province":"江西省","city":"鹰潭市","county":"贵溪市","community":"东门街道信江社区金童花园（1栋）","full_address":"江西省鹰潭市贵溪市东门街道信江社区金童花园（1栋）","info":""}},{"type":"Feature","geometry":{"type":"Point","coordinates":[115.155666,27.554275]},"properties":{"province":"江西省","city":"吉安市","county":"峡江县","community":"巴邱镇天成华府小区","full_address":"江西省吉安市峡江县巴邱镇天成华府小区","info":""}},{"type":"Feature","geometry":{"type":"Point","coordinates":[115.172341,27.572826]},"properties":{"province":"江西省","city":"吉安市","county":"峡江县","community":"巴邱镇黄泥岗村","full_address":"江西省吉安市峡江县巴邱镇黄泥岗村","info":""}},{"type":"Feature","geometry":{"type":"Point","coordinates":[115.162716,27.563313]},"properties":{"province":"江西省","city":"吉安市","county":"峡江县","community":"巴邱镇学府公馆15栋","full_address":"江西省吉安市峡江县巴邱镇学府公馆15栋","info":""}},{"type":"Feature","geometry":{"type":"Point","coordinates":[115.062267,27.564389]},"properties":{"province":"江西省","city":"吉安市","county":"峡江县","community":"罗田镇神林村委岭里自然村","full_address":"江西省吉安市峡江县罗田镇神林村委岭里自然村","info":""}},{"type":"Feature","geometry":{"type":"Point","coordinates":[115.33026,27.604067]},"properties":{"province":"江西省","city":"吉安市","county":"峡江县","community":"水边镇荣耀华府3栋","full_address":"江西省吉安市峡江县水边镇荣耀华府3栋","info":""}},{"type":"Feature","geometry":{"type":"Point","coordinates":[114.969407,27.561651]},"properties":{"province":"江西省","city":"吉安市","county":"峡江县","community":"水边镇下痕村委桥头自然村","full_address":"江西省吉安市峡江县水边镇下痕村委桥头自然村","info":""}},{"type":"Feature","geometry":{"type":"Point","coordinates":[115.304187,27.579358]},"properties":{"province":"江西省","city":"吉安市","county":"峡江县","community":"水边镇何君村委老六组住宅周边50米","full_address":"江西省吉安市峡江县水边镇何君村委老六组住宅周边50米","info":""}},{"type":"Feature","geometry":{"type":"Point","coordinates":[115.319317,27.589316]},"properties":{"province":"江西省","city":"吉安市","county":"峡江县","community":"水边镇幸福水库宿舍","full_address":"江西省吉安市峡江县水边镇幸福水库宿舍","info":""}},{"type":"Feature","geometry":{"type":"Point","coordinates":[115.319042,27.578958]},"properties":{"province":"江西省","city":"吉安市","county":"峡江县","community":"水边镇大秀路40号","full_address":"江西省吉安市峡江县水边镇大秀路40号","info":""}},{"type":"Feature","geometry":{"type":"Point","coordinates":[115.327266,27.576073]},"properties":{"province":"江西省","city":"吉安市","county":"峡江县","community":"水边镇佩贝村委五江村","full_address":"江西省吉安市峡江县水边镇佩贝村委五江村","info":""}},{"type":"Feature","geometry":{"type":"Point","coordinates":[115.33026,27.604067]},"properties":{"province":"江西省","city":"吉安市","county":"峡江县","community":"水边镇农机局宿舍","full_address":"江西省吉安市峡江县水边镇农机局宿舍","info":""}},{"type":"Feature","geometry":{"type":"Point","coordinates":[115.31022,27.57332]},"properties":{"province":"江西省","city":"吉安市","county":"峡江县","community":"水边镇何君新村C栋","full_address":"江西省吉安市峡江县水边镇何君新村C栋","info":""}},{"type":"Feature","geometry":{"type":"Point","coordinates":[115.30476,27.565322]},"properties":{"province":"江西省","city":"吉安市","county":"峡江县","community":"水边镇林改房B区1栋","full_address":"江西省吉安市峡江县水边镇林改房B区1栋","info":""}},{"type":"Feature","geometry":{"type":"Point","coordinates":[115.309243,27.576199]},"properties":{"province":"江西省","city":"吉安市","county":"峡江县","community":"水边镇玉宏壹号小区11栋","full_address":"江西省吉安市峡江县水边镇玉宏壹号小区11栋","info":""}},{"type":"Feature","geometry":{"type":"Point","coordinates":[115.323102,27.579599]},"properties":{"province":"江西省","city":"吉安市","county":"峡江县","community":"水边镇东信建材五金超市","full_address":"江西省吉安市峡江县水边镇东信建材五金超市","info":""}},{"type":"Feature","geometry":{"type":"Point","coordinates":[115.316312,27.585373]},"properties":{"province":"江西省","city":"吉安市","county":"峡江县","community":"水边镇玉府佳园5栋","full_address":"江西省吉安市峡江县水边镇玉府佳园5栋","info":""}},{"type":"Feature","geometry":{"type":"Point","coordinates":[115.412687,27.535468]},"properties":{"province":"江西省","city":"吉安市","county":"峡江县","community":"桐林乡桐林村委直坑自然村","full_address":"江西省吉安市峡江县桐林乡桐林村委直坑自然村","info":""}},{"type":"Feature","geometry":{"type":"Point","coordinates":[115.172341,27.572826]},"properties":{"province":"江西省","city":"吉安市","county":"峡江县","community":"巴邱镇书香佳菀北区7栋","full_address":"江西省吉安市峡江县巴邱镇书香佳菀北区7栋","info":""}},{"type":"Feature","geometry":{"type":"Point","coordinates":[115.404418,27.262735]},"properties":{"province":"江西省","city":"吉安市","county":"永丰县","community":"恩江镇营前村营前自然村","full_address":"江西省吉安市永丰县恩江镇营前村营前自然村","info":""}},{"type":"Feature","geometry":{"type":"Point","coordinates":[115.404418,27.262735]},"properties":{"province":"江西省","city":"吉安市","county":"永丰县","community":"恩江镇营前村肖罗自然村","full_address":"江西省吉安市永丰县恩江镇营前村肖罗自然村","info":""}},{"type":"Feature","geometry":{"type":"Point","coordinates":[115.420041,27.284539]},"properties":{"province":"江西省","city":"吉安市","county":"永丰县","community":"恩江镇岭上村雷公山自然村","full_address":"江西省吉安市永丰县恩江镇岭上村雷公山自然村","info":""}},{"type":"Feature","geometry":{"type":"Point","coordinates":[115.420041,27.284539]},"properties":{"province":"江西省","city":"吉安市","county":"永丰县","community":"恩江镇岭上村漕下老村自然村","full_address":"江西省吉安市永丰县恩江镇岭上村漕下老村自然村","info":""}},{"type":"Feature","geometry":{"type":"Point","coordinates":[115.436774,27.325128]},"properties":{"province":"江西省","city":"吉安市","county":"永丰县","community":"恩江镇塘仔角龙岗南路老教育局宿舍100米范围内","full_address":"江西省吉安市永丰县恩江镇塘仔角龙岗南路老教育局宿舍100米范围内","info":""}},{"type":"Feature","geometry":{"type":"Point","coordinates":[115.404819,27.309599]},"properties":{"province":"江西省","city":"吉安市","county":"永丰县","community":"佐龙乡塘边村塘边自然村","full_address":"江西省吉安市永丰县佐龙乡塘边村塘边自然村","info":""}},{"type":"Feature","geometry":{"type":"Point","coordinates":[120.385309,36.372936]},"properties":{"province":"山东省","city":"青岛市","county":"即墨区","community":"长江二路369号鼎泰丰小区","full_address":"山东省青岛市即墨区长江二路369号鼎泰丰小区","info":""}},{"type":"Feature","geometry":{"type":"Point","coordinates":[120.405701,36.376548]},"properties":{"province":"山东省","city":"青岛市","county":"即墨区","community":"淮涉河一路893号梧桐巷文旅中心","full_address":"山东省青岛市即墨区淮涉河一路893号梧桐巷文旅中心","info":""}},{"type":"Feature","geometry":{"type":"Point","coordinates":[120.415299,36.374479]},"properties":{"province":"山东省","city":"青岛市","county":"即墨区","community":"华山一路硕辉苑小区","full_address":"山东省青岛市即墨区华山一路硕辉苑小区","info":""}},{"type":"Feature","geometry":{"type":"Point","coordinates":[120.407411,36.375838]},"properties":{"province":"山东省","city":"青岛市","county":"即墨区","community":"长江二路188号岘山花城小区","full_address":"山东省青岛市即墨区长江二路188号岘山花城小区","info":""}},{"type":"Feature","geometry":{"type":"Point","coordinates":[120.371108,36.379055]},"properties":{"province":"山东省","city":"青岛市","county":"即墨区","community":"通济街道店子社区闫家岭民兴钢木制品厂","full_address":"山东省青岛市即墨区通济街道店子社区闫家岭民兴钢木制品厂","info":""}},{"type":"Feature","geometry":{"type":"Point","coordinates":[120.443362,36.352509]},"properties":{"province":"山东省","city":"青岛市","county":"即墨区","community":"环秀街道办事处后东城村","full_address":"山东省青岛市即墨区环秀街道办事处后东城村","info":""}},{"type":"Feature","geometry":{"type":"Point","coordinates":[116.602168,35.398492]},"properties":{"province":"山东省","city":"济宁市","county":"任城区","community":"唐口街道锡龙大酒店","full_address":"山东省济宁市任城区唐口街道锡龙大酒店","info":""}},{"type":"Feature","geometry":{"type":"Point","coordinates":[116.505873,35.470004]},"properties":{"province":"山东省","city":"济宁市","county":"任城区","community":"南张街道前店村","full_address":"山东省济宁市任城区南张街道前店村","info":""}},{"type":"Feature","geometry":{"type":"Point","coordinates":[116.508341,35.46808]},"properties":{"province":"山东省","city":"济宁市","county":"任城区","community":"南张街道后店村","full_address":"山东省济宁市任城区南张街道后店村","info":""}},{"type":"Feature","geometry":{"type":"Point","coordinates":[116.542833,35.46056]},"properties":{"province":"山东省","city":"济宁市","county":"任城区","community":"南张街道仙庄村","full_address":"山东省济宁市任城区南张街道仙庄村","info":""}},{"type":"Feature","geometry":{"type":"Point","coordinates":[116.61616,35.394382]},"properties":{"province":"山东省","city":"济宁市","county":"任城区","community":"观音阁街道东南华城宏河美地","full_address":"山东省济宁市任城区观音阁街道东南华城宏河美地","info":""}},{"type":"Feature","geometry":{"type":"Point","coordinates":[116.506736,35.459016]},"properties":{"province":"山东省","city":"济宁市","county":"任城区","community":"南张街道南白村","full_address":"山东省济宁市任城区南张街道南白村","info":""}},{"type":"Feature","geometry":{"type":"Point","coordinates":[116.511505,35.427781]},"properties":{"province":"山东省","city":"济宁市","county":"任城区","community":"南张街道李庙村","full_address":"山东省济宁市任城区南张街道李庙村","info":""}},{"type":"Feature","geometry":{"type":"Point","coordinates":[116.496654,35.316338]},"properties":{"province":"山东省","city":"济宁市","county":"任城区","community":"唐口街道唐口村","full_address":"山东省济宁市任城区唐口街道唐口村","info":""}},{"type":"Feature","geometry":{"type":"Point","coordinates":[116.481822,35.336618]},"properties":{"province":"山东省","city":"济宁市","county":"任城区","community":"唐口街道朱庙村","full_address":"山东省济宁市任城区唐口街道朱庙村","info":""}},{"type":"Feature","geometry":{"type":"Point","coordinates":[116.462905,35.299092]},"properties":{"province":"山东省","city":"济宁市","county":"任城区","community":"唐口街道前王堂村","full_address":"山东省济宁市任城区唐口街道前王堂村","info":""}},{"type":"Feature","geometry":{"type":"Point","coordinates":[116.559052,35.346372]},