{"type":"FeatureCollection","features":[{"type":"Feature","geometry":{"type":"Point","coordinates":[117.189019,39.105494]},"properties":{"full_address":"天津市天津市和平区新兴街吴家窑二号路15号楼及相连底商"}},{"type":"Feature","geometry":{"type":"Point","coordinates":[117.189122,39.105061]},"properties":{"full_address":"天津市天津市和平区新兴街新中东里1-7号楼"}},{"type":"Feature","geometry":{"type":"Point","coordinates":[117.256492,39.138911]},"properties":{"full_address":"天津市天津市河东区向阳楼街道昕旺南苑（1号楼、2号楼除外）"}},{"type":"Feature","geometry":{"type":"Point","coordinates":[117.266604,39.117589]},"properties":{"full_address":"天津市天津市河东区上杭路街道第六大道区域（俊东公寓）"}},{"type":"Feature","geometry":{"type":"Point","coordinates":[117.282535,39.095591]},"properties":{"full_address":"天津市天津市河东区二号桥街道金地紫云庭13号楼、14号楼"}},{"type":"Feature","geometry":{"type":"Point","coordinates":[117.24318,39.148279]},"properties":{"full_address":"天津市天津市河东区鲁山道街道皓阳园（4号楼除外）"}},{"type":"Feature","geometry":{"type":"Point","coordinates":[117.257377,39.060187]},"properties":{"full_address":"天津市天津市河西区东海街道九江里10门、12门、14门、24门、26门、28门、30门、32门及外围底商"}},{"type":"Feature","geometry":{"type":"Point","coordinates":[117.270317,39.075814]},"properties":{"full_address":"天津市天津市河西区柳林街金海湾花园21号楼"}},{"type":"Feature","geometry":{"type":"Point","coordinates":[117.26326,39.070007]},"properties":{"full_address":"天津市天津市河西区柳林街恒山里（除高风险区外）"}},{"type":"Feature","geometry":{"type":"Point","coordinates":[117.207539,39.098532]},"properties":{"full_address":"天津市天津市河西区越秀路街黄埔里除高风险区以外的其他区域"}},{"type":"Feature","geometry":{"type":"Point","coordinates":[117.256187,39.06168]},"properties":{"full_address":"天津市天津市河西区东海街九江里平房、枫林路北头公共厕所"}},{"type":"Feature","geometry":{"type":"Point","coordinates":[117.231111,39.0866]},"properties":{"full_address":"天津市天津市河西区尖山街红升里除高风险区以外的其他区域"}},{"type":"Feature","geometry":{"type":"Point","coordinates":[117.201759,39.104094]},"properties":{"full_address":"天津市天津市河西区桃园街湛江路4-18门（双号门）、湛江路新村除上述高风险区以外的其他区域"}},{"type":"Feature","geometry":{"type":"Point","coordinates":[117.209673,39.098774]},"properties":{"full_address":"天津市天津市河西区越秀路街恩德西里1-47门、恩德东里1-42门"}},{"type":"Feature","geometry":{"type":"Point","coordinates":[117.207156,39.095007]},"properties":{"full_address":"天津市天津市河西区越秀路街育红楼13至19门"}},{"type":"Feature","geometry":{"type":"Point","coordinates":[117.260395,39.076446]},"properties":{"full_address":"天津市天津市河西区陈塘庄街幸福家园除高风险区外的其他区域、钢厂宿舍、副食大楼"}},{"type":"Feature","geometry":{"type":"Point","coordinates":[117.143802,39.085065]},"properties":{"full_address":"天津市天津市南开区王顶堤街林苑西里19号楼"}},{"type":"Feature","geometry":{"type":"Point","coordinates":[117.141144,39.143575]},"properties":{"full_address":"天津市天津市南开区长虹街雅云里小区2、3、7、9、10号楼和雅云里平房"}},{"type":"Feature","geometry":{"type":"Point","coordinates":[117.215418,39.182229]},"properties":{"full_address":"天津市天津市河北区铁东路街道爱贤里小区2号楼12、13门"}},{"type":"Feature","geometry":{"type":"Point","coordinates":[117.170367,39.1766]},"properties":{"full_address":"天津市天津市红桥区丁字沽街桃花园东里除高风险区外其他区域、光荣楼小区"}},{"type":"Feature","geometry":{"type":"Point","coordinates":[117.306147,39.087007]},"properties":{"full_address":"天津市天津市东丽区张贵庄街詹滨西里小区南院除高风险区以外区域"}},{"type":"Feature","geometry":{"type":"Point","coordinates":[117.47676,39.190322]},"properties":{"full_address":"天津市天津市东丽区东丽湖街华侨城汇涛苑4号楼"}},{"type":"Feature","geometry":{"type":"Point","coordinates":[117.311722,39.086208]},"properties":{"full_address":"天津市天津市东丽区张贵庄街津门里小区除高风险区以外区域"}},{"type":"Feature","geometry":{"type":"Point","coordinates":[117.328544,39.094431]},"properties":{"full_address":"天津市天津市东丽区丰年村街万科民和巷花园小区5、12、13、16、17、19、20、21、24、25、26、27、29号楼"}},{"type":"Feature","geometry":{"type":"Point","coordinates":[117.114701,39.043537]},"properties":{"full_address":"天津市天津市西青区精武镇锦泽苑小区43号楼"}},{"type":"Feature","geometry":{"type":"Point","coordinates":[117.214993,38.988643]},"properties":{"full_address":"天津市天津市西青区大寺镇芦欣家园小区（除四区8号楼）"}},{"type":"Feature","geometry":{"type":"Point","coordinates":[117.173751,39.048094]},"properties":{"full_address":"天津市天津市西青区李七庄街盛阳园（除1号楼、2号楼外）"}},{"type":"Feature","geometry":{"type":"Point","coordinates":[117.236941,38.92198]},"properties":{"full_address":"天津市天津市西青区王稳庄镇大侯庄村平房区（津淄公路以东）"}},{"type":"Feature","geometry":{"type":"Point","coordinates":[117.286415,39.054357]},"properties":{"full_address":"天津市天津市津南区双林街福松源庄一期15号楼"}},{"type":"Feature","geometry":{"type":"Point","coordinates":[117.347413,39.02642]},"properties":{"full_address":"天津市天津市津南区辛庄镇首创星景苑3号楼、6号楼"}},{"type":"Feature","geometry":{"type":"Point","coordinates":[117.332188,38.938644]},"properties":{"full_address":"天津市天津市津南区八里台镇碧桂园映月庭院除2号楼以外区域"}},{"type":"Feature","geometry":{"type":"Point","coordinates":[117.352473,39.249169]},"properties":{"full_address":"天津市天津市北辰区西堤头镇刘快庄村康派尔商铺115号-128号"}},{"type":"Feature","geometry":{"type":"Point","coordinates":[117.350412,39.241425]},"properties":{"full_address":"天津市天津市北辰区西堤头镇刘快庄村百合家园公寓A座、B座、C座，鼎力酒店(聚福嘉苑公寓西店)及沿街底商"}},{"type":"Feature","geometry":{"type":"Point","coordinates":[117.680818,39.006933]},"properties":{"full_address":"天津市天津市滨海新区“东至海滨大道，西至秦滨高速，北至永定新河，南至海河”为四至区域，涉及北塘街、新河街、新北街、杭州道街、泰达街、胡家园街、新村街、塘沽街、新港街等9个街道在以上四至范围内高风险区域之外的区域"}},{"type":"Feature","geometry":{"type":"Point","coordinates":[114.575242,38.027191]},"properties":{"full_address":"河北省石家庄市裕华区裕东街道阳光361小区"}},{"type":"Feature","geometry":{"type":"Point","coordinates":[118.197731,39.805339]},"properties":{"full_address":"河北省唐山市丰润区银城铺镇殷官屯村（北小街）"}},{"type":"Feature","geometry":{"type":"Point","coordinates":[115.215208,37.932724]},"properties":{"full_address":"河北省辛集市辛集市文镌阁（兴华北路256号）"}},{"type":"Feature","geometry":{"type":"Point","coordinates":[115.215206,37.932947]},"properties":{"full_address":"河北省辛集市辛集市美味超市（兴华北路247号）"}},{"type":"Feature","geometry":{"type":"Point","coordinates":[115.210636,37.93772]},"properties":{"full_address":"河北省辛集市辛集市亨盛小区南区东院其他区域"}},{"type":"Feature","geometry":{"type":"Point","coordinates":[112.554443,37.824196]},"properties":{"full_address":"山西省太原市小店区水总花园小区"}},{"type":"Feature","geometry":{"type":"Point","coordinates":[112.563644,37.808288]},"properties":{"full_address":"山西省太原市万柏林区山西大众电子信息产业集团有限公司厂区"}},{"type":"Feature","geometry":{"type":"Point","coordinates":[112.508578,37.79503]},"properties":{"full_address":"山西省太原市晋源区太原科技大学南校区"}},{"type":"Feature","geometry":{"type":"Point","coordinates":[113.896706,40.055986]},"properties":{"full_address":"山西省大同市云州区阳高县东小村（包括新村）"}},{"type":"Feature","geometry":{"type":"Point","coordinates":[113.286423,40.069998]},"properties":{"full_address":"山西省大同市阳高县云州区交通小区"}},{"type":"Feature","geometry":{"type":"Point","coordinates":[107.450735,40.827476]},"properties":{"full_address":"内蒙古自治区巴彦淖尔市临河区曙光乡治丰四组"}},{"type":"Feature","geometry":{"type":"Point","coordinates":[126.673826,45.675542]},"properties":{"full_address":"黑龙江省哈尔滨市香坊区黎明街道办事处穆家新区（除9号楼）"}},{"type":"Feature","geometry":{"type":"Point","coordinates":[126.727424,45.732345]},"properties":{"full_address":"黑龙江省哈尔滨市香坊区城东新居C区（除5号楼）"}},{"type":"Feature","geometry":{"type":"Point","coordinates":[126.725343,45.73103]},"properties":{"full_address":"黑龙江省哈尔滨市香坊区城东新居D区（除8号楼）"}},{"type":"Feature","geometry":{"type":"Point","coordinates":[126.751516,45.711261]},"properties":{"full_address":"黑龙江省哈尔滨市香坊区工大集团第一工业园一汽大众中转站（香福路16号）"}},{"type":"Feature","geometry":{"type":"Point","coordinates":[126.741524,45.719921]},"properties":{"full_address":"黑龙江省哈尔滨市香坊区幸福镇安居社区（除4号楼）"}},{"type":"Feature","geometry":{"type":"Point","coordinates":[126.797418,45.700963]},"properties":{"full_address":"黑龙江省哈尔滨市香坊区哈纺社区211栋、213栋、219栋"}},{"type":"Feature","geometry":{"type":"Point","coordinates":[126.684566,45.722327]},"properties":{"full_address":"黑龙江省哈尔滨市香坊区公滨路、红旗大街、香坊大街、卫生街、滨北线、三合路合围区域"}},{"type":"Feature","geometry":{"type":"Point","coordinates":[130.360267,46.815368]},"properties":{"full_address":"黑龙江省佳木斯市向阳区龙海名苑D栋"}},{"type":"Feature","geometry":{"type":"Point","coordinates":[130.368803,46.807333]},"properties":{"full_address":"黑龙江省佳木斯市向阳区金厦佳苑"}},{"type":"Feature","geometry":{"type":"Point","coordinates":[130.360882,46.799372]},"properties":{"full_address":"黑龙江省佳木斯市向阳区杏林人家"}},{"type":"Feature","geometry":{"type":"Point","coordinates":[130.36703,46.811155]},"properties":{"full_address":"黑龙江省佳木斯市向阳区时代景城小区"}},{"type":"Feature","geometry":{"type":"Point","coordinates":[130.368897,46.811794]},"properties":{"full_address":"黑龙江省佳木斯市向阳区铭诗苑小区"}},{"type":"Feature","geometry":{"type":"Point","coordinates":[130.344461,46.802529]},"properties":{"full_address":"黑龙江省佳木斯市向阳区南铁西社区39号楼"}},{"type":"Feature","geometry":{"type":"Point","coordinates":[130.35786,46.81787]},"properties":{"full_address":"黑龙江省佳木斯市向阳区时代景城三期A栋"}},{"type":"Feature","geometry":{"type":"Point","coordinates":[130.356626,46.776924]},"properties":{"full_address":"黑龙江省佳木斯市向阳区天福城新丰村安置楼J栋"}},{"type":"Feature","geometry":{"type":"Point","coordinates":[130.33441,46.818623]},"properties":{"full_address":"黑龙江省佳木斯市向阳区罗曼庄园"}},{"type":"Feature","geometry":{"type":"Point","coordinates":[130.355583,46.811417]},"properties":{"full_address":"黑龙江省佳木斯市向阳区建业小区"}},{"type":"Feature","geometry":{"type":"Point","coordinates":[130.376464,46.79375]},"properties":{"full_address":"黑龙江省佳木斯市向阳区南铁西小区"}},{"type":"Feature","geometry":{"type":"Point","coordinates":[130.361175,46.811067]},"properties":{"full_address":"黑龙江省佳木斯市向阳区珍铭苑小区"}},{"type":"Feature","geometry":{"type":"Point","coordinates":[130.365759,46.786449]},"properties":{"full_address":"黑龙江省佳木斯市向阳区佳木斯大学一区B院"}},{"type":"Feature","geometry":{"type":"Point","coordinates":[130.332412,46.793061]},"properties":{"full_address":"黑龙江省佳木斯市向阳区万公馆"}},{"type":"Feature","geometry":{"type":"Point","coordinates":[130.367927,46.811683]},"properties":{"full_address":"黑龙江省佳木斯市向阳区万达华府一期、二期"}},{"type":"Feature","geometry":{"type":"Point","coordinates":[130.366323,46.812309]},"properties":{"full_address":"黑龙江省佳木斯市向阳区红旗嘉苑"}},{"type":"Feature","geometry":{"type":"Point","coordinates":[130.390257,46.809499]},"properties":{"full_address":"黑龙江省佳木斯市向阳区党校小区"}},{"type":"Feature","geometry":{"type":"Point","coordinates":[130.355074,46.817015]},"properties":{"full_address":"黑龙江省佳木斯市向阳区金地家园"}},{"type":"Feature","geometry":{"type":"Point","coordinates":[130.337405,46.806864]},"properties":{"full_address":"黑龙江省佳木斯市向阳区港龙东方城小区"}},{"type":"Feature","geometry":{"type":"Point","coordinates":[130.3545,46.81775]},"properties":{"full_address":"黑龙江省佳木斯市向阳区御景华庭小区"}},{"type":"Feature","geometry":{"type":"Point","coordinates":[130.362298,46.810445]},"properties":{"full_address":"黑龙江省佳木斯市向阳区鹤电小区"}},{"type":"Feature","geometry":{"type":"Point","coordinates":[130.3552,46.815]},"properties":{"full_address":"黑龙江省佳木斯市向阳区牧工商小区"}},{"type":"Feature","geometry":{"type":"Point","coordinates":[130.36803,46.804326]},"properties":{"full_address":"黑龙江省佳木斯市向阳区永房教育一小区"}},{"type":"Feature","geometry":{"type":"Point","coordinates":[130.365346,46.80779]},"properties":{"full_address":"黑龙江省佳木斯市向阳区天福城东区"}},{"type":"Feature","geometry":{"type":"Point","coordinates":[130.367242,46.790403]},"properties":{"full_address":"黑龙江省佳木斯市向阳区翰林名苑小区"}},{"type":"Feature","geometry":{"type":"Point","coordinates":[130.362545,46.810295]},"properties":{"full_address":"黑龙江省佳木斯市向阳区爱心家园小区"}},{"type":"Feature","geometry":{"type":"Point","coordinates":[130.360668,46.811921]},"properties":{"full_address":"黑龙江省佳木斯市向阳区滨江小区二期"}},{"type":"Feature","geometry":{"type":"Point","coordinates":[130.35455,46.8155]},"properties":{"full_address":"黑龙江省佳木斯市向阳区帝景豪庭小区"}},{"type":"Feature","geometry":{"type":"Point","coordinates":[130.356375,46.811]},"properties":{"full_address":"黑龙江省佳木斯市向阳区九州社区永房小区"}},{"type":"Feature","geometry":{"type":"Point","coordinates":[130.362871,46.801909]},"properties":{"full_address":"黑龙江省佳木斯市向阳区杏湖壹品小区"}},{"type":"Feature","geometry":{"type":"Point","coordinates":[130.362853,46.810853]},"properties":{"full_address":"黑龙江省佳木斯市向阳区三江商贸城小区"}},{"type":"Feature","geometry":{"type":"Point","coordinates":[130.348223,46.804335]},"properties":{"full_address":"黑龙江省佳木斯市向阳区长青街教育一小区"}},{"type":"Feature","geometry":{"type":"Point","coordinates":[130.36803,46.804326]},"properties":{"full_address":"黑龙江省佳木斯市向阳区璞院小区"}},{"type":"Feature","geometry":{"type":"Point","coordinates":[130.36803,46.804326]},"properties":{"full_address":"黑龙江省佳木斯市向阳区光明社区小区"}},{"type":"Feature","geometry":{"type":"Point","coordinates":[130.339152,46.789059]},"properties":{"full_address":"黑龙江省佳木斯市向阳区万象府小区"}},{"type":"Feature","geometry":{"type":"Point","coordinates":[130.350622,46.789402]},"properties":{"full_address":"黑龙江省佳木斯市向阳区昌隆世家小区"}},{"type":"Feature","geometry":{"type":"Point","coordinates":[130.357408,46.812907]},"properties":{"full_address":"黑龙江省佳木斯市向阳区宏安小区"}},{"type":"Feature","geometry":{"type":"Point","coordinates":[130.355571,46.819232]},"properties":{"full_address":"黑龙江省佳木斯市向阳区德祥小区"}},{"type":"Feature","geometry":{"type":"Point","coordinates":[130.360546,46.799885]},"properties":{"full_address":"黑龙江省佳木斯市向阳区杏林南苑"}},{"type":"Feature","geometry":{"type":"Point","coordinates":[130.351394,46.807064]},"properties":{"full_address":"黑龙江省佳木斯市向阳区志兴社区林业楼"}},{"type":"Feature","geometry":{"type":"Point","coordinates":[130.365346,46.80779]},"properties":{"full_address":"黑龙江省佳木斯市向阳区中央公园银桦园"}},{"type":"Feature","geometry":{"type":"Point","coordinates":[130.36803,46.804326]},"properties":{"full_address":"黑龙江省佳木斯市向阳区体委小区"}},{"type":"Feature","geometry":{"type":"Point","coordinates":[130.360567,46.81225]},"properties":{"full_address":"黑龙江省佳木斯市向阳区滨江小区一期"}},{"type":"Feature","geometry":{"type":"Point","coordinates":[130.367458,46.811988]},"properties":{"full_address":"黑龙江省佳木斯市向阳区枫和林里小区"}},{"type":"Feature","geometry":{"type":"Point","coordinates":[130.359686,46.799431]},"properties":{"full_address":"黑龙江省佳木斯市向阳区杏林南苑小区"}},{"type":"Feature","geometry":{"type":"Point","coordinates":[130.340464,46.809775]},"properties":{"full_address":"黑龙江省佳木斯市向阳区临江花园小区"}},{"type":"Feature","geometry":{"type":"Point","coordinates":[130.351394,46.807064]},"properties":{"full_address":"黑龙江省佳木斯市向阳区志兴小区"}},{"type":"Feature","geometry":{"type":"Point","coordinates":[130.36803,46.804326]},"properties":{"full_address":"黑龙江省佳木斯市向阳区安民社区小区"}},{"type":"Feature","geometry":{"type":"Point","coordinates":[130.366947,46.798848]},"properties":{"full_address":"黑龙江省佳木斯市向阳区迪尔小区"}},{"type":"Feature","geometry":{"type":"Point","coordinates":[130.355707,46.816699]},"properties":{"full_address":"黑龙江省佳木斯市向阳区中央公馆K区"}},{"type":"Feature","geometry":{"type":"Point","coordinates":[130.365346,46.80779]},"properties":{"full_address":"黑龙江省佳木斯市向阳区中央公园家榆园（不包含2号楼、4号楼）"}},{"type":"Feature","geometry":{"type":"Point","coordinates":[130.372515,46.79155]},"properties":{"full_address":"黑龙江省佳木斯市向阳区佳大尚都54号楼"}},{"type":"Feature","geometry":{"type":"Point","coordinates":[130.356375,46.81025]},"properties":{"full_address":"黑龙江省佳木斯市向阳区玻璃厂家属楼"}},{"type":"Feature","geometry":{"type":"Point","coordinates":[130.359853,46.790301]},"properties":{"full_address":"黑龙江省佳木斯市向阳区学府嘉园小区"}},{"type":"Feature","geometry":{"type":"Point","coordinates":[130.371415,46.802604]},"properties":{"full_address":"黑龙江省佳木斯市向阳区圣泰嘉苑小区"}},{"type":"Feature","geometry":{"type":"Point","coordinates":[130.340134,46.79557]},"properties":{"full_address":"黑龙江省佳木斯市向阳区时代景城9号楼"}},{"type":"Feature","geometry":{"type":"Point","coordinates":[130.373127,46.810139]},"properties":{"full_address":"黑龙江省佳木斯市向阳区志兴社区光大小区"}},{"type":"Feature","geometry":{"type":"Point","coordinates":[130.368917,46.812083]},"properties":{"full_address":"黑龙江省佳木斯市向阳区　　馨泰家园A楼"}},{"type":"Feature","geometry":{"type":"Point","coordinates":[130.36599974414455,46.80780139684005]},"properties":{"full_address":"黑龙江省佳木斯市向阳区　　市委25号楼"}},{"type":"Feature","geometry":{"type":"Point","coordinates":[130.37453367180035,46.791275814079505]},"properties":{"full_address":"黑龙江省佳木斯市向阳区　　佳大尚都九栋洋房小区"}},{"type":"Feature","geometry":{"type":"Point","coordinates":[130.365346,46.80779]},"properties":{"full_address":"黑龙江省佳木斯市向阳区　　新宜社区公企2号楼"}},{"type":"Feature","geometry":{"type":"Point","coordinates":[130.36547,46.80774]},"properties":{"full_address":"黑龙江省佳木斯市向阳区罗曼庄园V栋"}},{"type":"Feature","geometry":{"type":"Point","coordinates":[130.361444,46.81203]},"properties":{"full_address":"黑龙江省佳木斯市向阳区万达公寓"}},{"type":"Feature","geometry":{"type":"Point","coordinates":[130.355266,46.817168]},"properties":{"full_address":"黑龙江省佳木斯市向阳区九洲社区美丽家园"}},{"type":"Feature","geometry":{"type":"Point","coordinates":[130.351394,46.807064]},"properties":{"full_address":"黑龙江省佳木斯市向阳区志兴社区沪鸭楼"}},{"type":"Feature","geometry":{"type":"Point","coordinates":[130.350796,46.816765]},"properties":{"full_address":"黑龙江省佳木斯市向阳区祥瑞嘉园小区、果品综合楼"}},{"type":"Feature","geometry":{"type":"Point","coordinates":[130.368509,46.807444]},"properties":{"full_address":"黑龙江省佳木斯市向阳区金夏佳苑独栋楼"}},{"type":"Feature","geometry":{"type":"Point","coordinates":[130.371949,46.789827]},"properties":{"full_address":"黑龙江省佳木斯市向阳区翰林苑一期2号楼"}},{"type":"Feature","geometry":{"type":"Point","coordinates":[130.348419,46.821423]},"properties":{"full_address":"黑龙江省佳木斯市向阳区景江小区A栋"}},{"type":"Feature","geometry":{"type":"Point","coordinates":[130.367927,46.811683]},"properties":{"full_address":"黑龙江省佳木斯市向阳区万达华府一期2号楼"}},{"type":"Feature","geometry":{"type":"Point","coordinates":[130.367927,46.811683]},"properties":{"full_address":"黑龙江省佳木斯市向阳区万达华府一期3号楼"}},{"type":"Feature","geometry":{"type":"Point","coordinates":[130.355174,46.804023]},"properties":{"full_address":"黑龙江省佳木斯市向阳区建业小区4号楼"}},{"type":"Feature","geometry":{"type":"Point","coordinates":[130.3369,46.810696]},"properties":{"full_address":"黑龙江省佳木斯市向阳区常青花园G栋"}},{"type":"Feature","geometry":{"type":"Point","coordinates":[130.365346,46.80779]},"properties":{"full_address":"黑龙江省佳木斯市向阳区璞院11号楼"}},{"type":"Feature","geometry":{"type":"Point","coordinates":[130.365346,46.80779]},"properties":{"full_address":"黑龙江省佳木斯市向阳区璞院12号楼"}},{"type":"Feature","geometry":{"type":"Point","coordinates":[130.354967,46.80286]},"properties":{"full_address":"黑龙江省佳木斯市向阳区群英社区补贴2号楼"}},{"type":"Feature","geometry":{"type":"Point","coordinates":[130.357188,46.808031]},"properties":{"full_address":"黑龙江省佳木斯市向阳区环卫小区政府31号楼"}},{"type":"Feature","geometry":{"type":"Point","coordinates":[130.355101,46.817032]},"properties":{"full_address":"黑龙江省佳木斯市向阳区帝景豪庭3号楼"}},{"type":"Feature","geometry":{"type":"Point","coordinates":[130.362585,46.810565]},"properties":{"full_address":"黑龙江省佳木斯市向阳区复兴小区A栋"}},{"type":"Feature","geometry":{"type":"Point","coordinates":[130.363992,46.811713]},"properties":{"full_address":"黑龙江省佳木斯市向阳区益海花园小区"}},{"type":"Feature","geometry":{"type":"Point","coordinates":[130.376421,46.787363]},"properties":{"full_address":"黑龙江省佳木斯市向阳区佳大尚都三角地"}},{"type":"Feature","geometry":{"type":"Point","coordinates":[130.354967,46.80286]},"properties":{"full_address":"黑龙江省佳木斯市向阳区群英社区"}},{"type":"Feature","geometry":{"type":"Point","coordinates":[130.361148,46.804475]},"properties":{"full_address":"黑龙江省佳木斯市向阳区杏林公馆小区"}},{"type":"Feature","geometry":{"type":"Point","coordinates":[130.362385,46.810609]},"properties":{"full_address":"黑龙江省佳木斯市向阳区沁香华庭小区"}},{"type":"Feature","geometry":{"type":"Point","coordinates":[130.369246,46.806088]},"properties":{"full_address":"黑龙江省佳木斯市向阳区佳里中心及其东面永房1号楼"}},{"type":"Feature","geometry":{"type":"Point","coordinates":[130.35786,46.81787]},"properties":{"full_address":"黑龙江省佳木斯市向阳区时代景城一期"}},{"type":"Feature","geometry":{"type":"Point","coordinates":[130.357188,46.808031]},"properties":{"full_address":"黑龙江省佳木斯市向阳区环卫小区"}},{"type":"Feature","geometry":{"type":"Point","coordinates":[130.369336,46.806148]},"properties":{"full_address":"黑龙江省佳木斯市向阳区财富国际楼"}},{"type":"Feature","geometry":{"type":"Point","coordinates":[130.35123,46.816986]},"properties":{"full_address":"黑龙江省佳木斯市向阳区同福嘉园小区"}},{"type":"Feature","geometry":{"type":"Point","coordinates":[130.355337,46.816998]},"properties":{"full_address":"黑龙江省佳木斯市向阳区美好家园小区"}},{"type":"Feature","geometry":{"type":"Point","coordinates":[130.3451088860638,46.81454536052556]},"properties":{"full_address":"黑龙江省佳木斯市向阳区谷丰家园小区"}},{"type":"Feature","geometry":{"type":"Point","coordinates":[130.360136,46.812007]},"properties":{"full_address":"黑龙江省佳木斯市向阳区枫和万嘉小区"}},{"type":"Feature","geometry":{"type":"Point","coordinates":[130.367355,46.812543]},"properties":{"full_address":"黑龙江省佳木斯市向阳区宏光新天地小区"}},{"type":"Feature","geometry":{"type":"Point","coordinates":[130.3511724426376,46.80715775516928]},"properties":{"full_address":"黑龙江省佳木斯市向阳区志兴社区托管楼"}},{"type":"Feature","geometry":{"type":"Point","coordinates":[130.36145,46.816806]},"properties":{"full_address":"黑龙江省佳木斯市向阳区西林兴城小区"}},{"type":"Feature","geometry":{"type":"Point","coordinates":[130.345075,46.813527]},"properties":{"full_address":"黑龙江省佳木斯市向阳区慧海家园小区"}},{"type":"Feature","geometry":{"type":"Point","coordinates":[130.354893,46.801089]},"properties":{"full_address":"黑龙江省佳木斯市向阳区桥北街15号"}},{"type":"Feature","geometry":{"type":"Point","coordinates":[130.372022,46.815901]},"properties":{"full_address":"黑龙江省佳木斯市前进区太阳市场57号楼"}},{"type":"Feature","geometry":{"type":"Point","coordinates":[130.386265,46.819277]},"properties":{"full_address":"黑龙江省佳木斯市前进区金港湾小区"}},{"type":"Feature","geometry":{"type":"Point","coordinates":[130.368464,46.809708]},"properties":{"full_address":"黑龙江省佳木斯市前进区都市人居A栋"}},{"type":"Feature","geometry":{"type":"Point","coordinates":[130.375063,46.814103]},"properties":{"full_address":"黑龙江省佳木斯市前进区国脉通小区2号楼"}},{"type":"Feature","geometry":{"type":"Point","coordinates":[130.403134,46.799793]},"properties":{"full_address":"黑龙江省佳木斯市前进区胜利小区"}},{"type":"Feature","geometry":{"type":"Point","coordinates":[130.390148,46.810654]},"properties":{"full_address":"黑龙江省佳木斯市前进区鸿基家园小区"}},{"type":"Feature","geometry":{"type":"Point","coordinates":[130.384119,46.796878]},"properties":{"full_address":"黑龙江省佳木斯市前进区枫桥河畔小区"}},{"type":"Feature","geometry":{"type":"Point","coordinates":[130.382475,46.793502]},"properties":{"full_address":"黑龙江省佳木斯市前进区山水家园小区"}},{"type":"Feature","geometry":{"type":"Point","coordinates":[130.372087,46.818323]},"properties":{"full_address":"黑龙江省佳木斯市前进区航运小区"}},{"type":"Feature","geometry":{"type":"Point","coordinates":[130.380061,46.807929]},"properties":{"full_address":"黑龙江省佳木斯市前进区地质小区及院内地质勘探院"}},{"type":"Feature","geometry":{"type":"Point","coordinates":[130.37537,46.810055]},"properties":{"full_address":"黑龙江省佳木斯市前进区园林社区"}},{"type":"Feature","geometry":{"type":"Point","coordinates":[130.375063,46.814103]},"properties":{"full_address":"黑龙江省佳木斯市前进区永和街大厦楼5-6单元"}},{"type":"Feature","geometry":{"type":"Point","coordinates":[130.381455,46.816061]},"properties":{"full_address":"黑龙江省佳木斯市前进区港务小区"}},{"type":"Feature","geometry":{"type":"Point","coordinates":[130.380621,46.790114]},"properties":{"full_address":"黑龙江省佳木斯市前进区林业局家属楼"}},{"type":"Feature","geometry":{"type":"Point","coordinates":[130.372087,46.818323]},"properties":{"full_address":"黑龙江省佳木斯市前进区航运小区22号楼、23号楼"}},{"type":"Feature","geometry":{"type":"Point","coordinates":[130.389452,46.798426]},"properties":{"full_address":"黑龙江省佳木斯市前进区枫桥社区Z4栋、Z2栋1单元"}},{"type":"Feature","geometry":{"type":"Point","coordinates":[130.396984,46.790702]},"properties":{"full_address":"黑龙江省佳木斯市前进区江南府邸小区"}},{"type":"Feature","geometry":{"type":"Point","coordinates":[130.38212026394245,46.81510056509613]},"properties":{"full_address":"黑龙江省佳木斯市前进区春光电业小区"}},{"type":"Feature","geometry":{"type":"Point","coordinates":[130.374881,46.803604]},"properties":{"full_address":"黑龙江省佳木斯市前进区佳和福居J栋"}},{"type":"Feature","geometry":{"type":"Point","coordinates":[130.391739,46.812237]},"properties":{"full_address":"黑龙江省佳木斯市前进区教育二小区"}},{"type":"Feature","geometry":{"type":"Point","coordinates":[130.387648,46.820148]},"properties":{"full_address":"黑龙江省佳木斯市前进区金港湾2期9号楼"}},{"type":"Feature","geometry":{"type":"Point","coordinates":[130.397128,46.804386]},"properties":{"full_address":"黑龙江省佳木斯市前进区康居嘉园小区"}},{"type":"Feature","geometry":{"type":"Point","coordinates":[130.38122,46.789975]},"properties":{"full_address":"黑龙江省佳木斯市前进区林管局85楼独栋"}},{"type":"Feature","geometry":{"type":"Point","coordinates":[130.379546,46.797136]},"properties":{"full_address":"黑龙江省佳木斯市前进区水岸花城8号楼"}},{"type":"Feature","geometry":{"type":"Point","coordinates":[130.365027,46.817201]},"properties":{"full_address":"黑龙江省佳木斯市前进区唐人中心小区"}},{"type":"Feature","geometry":{"type":"Point","coordinates":[130.398726,46.816616]},"properties":{"full_address":"黑龙江省佳木斯市东风区阳光绿洲小区"}},{"type":"Feature","geometry":{"type":"Point","coordinates":[130.398871,46.823278]},"properties":{"full_address":"黑龙江省佳木斯市东风区东湾假日小区"}},{"type":"Feature","geometry":{"type":"Point","coordinates":[130.399586,46.815421]},"properties":{"full_address":"黑龙江省佳木斯市东风区玫瑰园小区"}},{"type":"Feature","geometry":{"type":"Point","coordinates":[130.403664,46.822572]},"properties":{"full_address":"黑龙江省佳木斯市东风区东兴城C区"}},{"type":"Feature","geometry":{"type":"Point","coordinates":[130.400628,46.82352]},"properties":{"full_address":"黑龙江省佳木斯市东风区兴电小区"}},{"type":"Feature","geometry":{"type":"Point","coordinates":[130.407313,46.817695]},"properties":{"full_address":"黑龙江省佳木斯市东风区东方花园小区"}},{"type":"Feature","geometry":{"type":"Point","coordinates":[130.405001,46.825163]},"properties":{"full_address":"黑龙江省佳木斯市东风区建国办兴电社区发电北区"}},{"type":"Feature","geometry":{"type":"Point","coordinates":[130.430948,46.82703]},"properties":{"full_address":"黑龙江省佳木斯市东风区东兴城G区99号楼"}},{"type":"Feature","geometry":{"type":"Point","coordinates":[130.430948,46.82703]},"properties":{"full_address":"黑龙江省佳木斯市东风区东兴城G区98#、100#、103#、104#、108#"}},{"type":"Feature","geometry":{"type":"Point","coordinates":[130.4185,46.8125]},"properties":{"full_address":"黑龙江省佳木斯市东风区农家小区"}},{"type":"Feature","geometry":{"type":"Point","coordinates":[130.40210653403585,46.81500493420571]},"properties":{"full_address":"黑龙江省佳木斯市东风区文明小区14号楼"}},{"type":"Feature","geometry":{"type":"Point","coordinates":[130.397756,46.812383]},"properties":{"full_address":"黑龙江省佳木斯市东风区晓云小区3号楼"}},{"type":"Feature","geometry":{"type":"Point","coordinates":[130.368962,46.812015]},"properties":{"full_address":"黑龙江省佳木斯市郊区益海花园小区9号楼"}},{"type":"Feature","geometry":{"type":"Point","coordinates":[130.36905,46.812]},"properties":{"full_address":"黑龙江省佳木斯市郊区盛世华都L栋"}},{"type":"Feature","geometry":{"type":"Point","coordinates":[130.368566,46.812271]},"properties":{"full_address":"黑龙江省佳木斯市郊区长安新城小区"}},{"type":"Feature","geometry":{"type":"Point","coordinates":[130.402714,46.822482]},"properties":{"full_address":"黑龙江省佳木斯市郊区物价小区"}},{"type":"Feature","geometry":{"type":"Point","coordinates":[130.328485,46.804589]},"properties":{"full_address":"黑龙江省佳木斯市郊区英伦尚城小区"}},{"type":"Feature","geometry":{"type":"Point","coordinates":[130.320609,46.803399]},"properties":{"full_address":"黑龙江省佳木斯市郊区荷兰城观湖小区"}},{"type":"Feature","geometry":{"type":"Point","coordinates":[130.329537,46.808157]},"properties":{"full_address":"黑龙江省佳木斯市郊区欧亚小镇小区"}},{"type":"Feature","geometry":{"type":"Point","coordinates":[130.315951,46.817032]},"properties":{"full_address":"黑龙江省佳木斯市郊区江南雅居小区"}},{"type":"Feature","geometry":{"type":"Point","coordinates":[130.240296,46.801003]},"properties":{"full_address":"黑龙江省佳木斯市郊区佳天国际小区"}},{"type":"Feature","geometry":{"type":"Point","coordinates":[130.341388,46.79845]},"properties":{"full_address":"黑龙江省佳木斯市郊区荣军社区良种场"}},{"type":"Feature","geometry":{"type":"Point","coordinates":[130.37228,46.869492]},"properties":{"full_address":"黑龙江省佳木斯市郊区平安乡群英村"}},{"type":"Feature","geometry":{"type":"Point","coordinates":[130.318945,46.857964]},"properties":{"full_address":"黑龙江省佳木斯市郊区莲江口镇鑫城小区"}},{"type":"Feature","geometry":{"type":"Point","coordinates":[129.910922,46.731349]},"properties":{"full_address":"黑龙江省佳木斯市郊区长安社区小区"}},{"type":"Feature","geometry":{"type":"Point","coordinates":[130.362853,46.810853]},"properties":{"full_address":"黑龙江省佳木斯市郊区万兴华城小区"}},{"type":"Feature","geometry":{"type":"Point","coordinates":[130.342927,46.799839]},"properties":{"full_address":"黑龙江省佳木斯市郊区长安嘉苑检察院楼B栋"}},{"type":"Feature","geometry":{"type":"Point","coordinates":[130.311438,46.821393]},"properties":{"full_address":"黑龙江省佳木斯市郊区东升江畔小区"}},{"type":"Feature","geometry":{"type":"Point","coordinates":[130.329299,46.810746]},"properties":{"full_address":"黑龙江省佳木斯市郊区　　农行家属楼（友谊路和红旗路交叉口附近）"}},{"type":"Feature","geometry":{"type":"Point","coordinates":[130.358181,46.757541]},"properties":{"full_address":"黑龙江省佳木斯市郊区四丰湖小镇"}},{"type":"Feature","geometry":{"type":"Point","coordinates":[130.368887,46.812198]},"properties":{"full_address":"黑龙江省佳木斯市郊区吉运花园小区"}},{"type":"Feature","geometry":{"type":"Point","coordinates":[130.368957,46.81206]},"properties":{"full_address":"黑龙江省佳木斯市郊区金融小区"}},{"type":"Feature","geometry":{"type":"Point","coordinates":[130.070529,46.687861]},"properties":{"full_address":"黑龙江省佳木斯市郊区胜利华城小区"}},{"type":"Feature","geometry":{"type":"Point","coordinates":[130.417619,46.810461]},"properties":{"full_address":"黑龙江省佳木斯市郊区长青社区D5号楼"}},{"type":"Feature","geometry":{"type":"Point","coordinates":[130.26729,46.81352]},"properties":{"full_address":"黑龙江省佳木斯市郊区中兴小区"}},{"type":"Feature","geometry":{"type":"Point","coordinates":[129.916364,46.732932]},"properties":{"full_address":"黑龙江省佳木斯市汤原县阳光河畔小区"}},{"type":"Feature","geometry":{"type":"Point","coordinates":[129.89475128060246,46.725905853505175]},"properties":{"full_address":"黑龙江省佳木斯市汤原县幸福家园小区"}},{"type":"Feature","geometry":{"type":"Point","coordinates":[129.90499993095807,46.72969879021856]},"properties":{"full_address":"黑龙江省佳木斯市汤原县北华种畜场"}},{"type":"Feature","geometry":{"type":"Point","coordinates":[130.726037,47.015047]},"properties":{"full_address":"黑龙江省佳木斯市富锦市新开社区多喜客超市"}},{"type":"Feature","geometry":{"type":"Point","coordinates":[132.035078,47.251425]},"properties":{"full_address":"黑龙江省佳木斯市富锦市新开社区枫悦肉店"}},{"type":"Feature","geometry":{"type":"Point","coordinates":[132.034553,47.245412]},"properties":{"full_address":"黑龙江省佳木斯市富锦市向阳社区百亿超市"}},{"type":"Feature","geometry":{"type":"Point","coordinates":[132.040324,47.260439]},"properties":{"full_address":"黑龙江省佳木斯市富锦市繁荣社区风情城一期13号楼"}},{"type":"Feature","geometry":{"type":"Point","coordinates":[132.03974,47.241533]},"properties":{"full_address":"黑龙江省佳木斯市富锦市太东林场"}},{"type":"Feature","geometry":{"type":"Point","coordinates":[132.623286,47.414628]},"properties":{"full_address":"黑龙江省佳木斯市富锦市二龙山镇太东村"}},{"type":"Feature","geometry":{"type":"Point","coordinates":[132.033065,47.254091]},"properties":{"full_address":"黑龙江省佳木斯市富锦市世纪家园B区16号楼"}},{"type":"Feature","geometry":{"type":"Point","coordinates":[129.399146,44.57109]},"properties":{"full_address":"黑龙江省牡丹江市海林市柴河镇被服小区"}},{"type":"Feature","geometry":{"type":"Point","coordinates":[127.497957,50.252053]},"properties":{"full_address":"黑龙江省黑河市爱辉区海兰街道鹿源春社区中房怡园66号楼2单元及2单元附属门市"}},{"type":"Feature","geometry":{"type":"Point","coordinates":[127.47671,50.245983]},"properties":{"full_address":"黑龙江省黑河市爱辉区海兰街道温馨社区力波家园24号楼1单元"}},{"type":"Feature","geometry":{"type":"Point","coordinates":[127.501834,50.238791]},"properties":{"full_address":"黑龙江省黑河市爱辉区花园街道长海社区龙滨嘉苑小区1号楼、2号楼（不含1单元及1单元附属门市）、4号楼（不含1单元及1单元楼下车库）、8号楼"}},{"type":"Feature","geometry":{"type":"Point","coordinates":[127.512145,50.241397]},"properties":{"full_address":"黑龙江省黑河市爱辉区海兰街道温馨社区供销社家属楼（不含3单元）、盛世华庭小区、多客隆食杂店、迎恩路110—2号、万顺叫车黑河分公司喇嘛台社区服务站（迎恩路110—3号）、澳创集团（迎恩路112—1号）、罗曼蒂克婚纱馆（迎恩路112—4号）、乡村铁锅炖（迎恩路114—2号）、洪森沙发（迎恩路114—3号）门市"}},{"type":"Feature","geometry":{"type":"Point","coordinates":[127.505825,50.233663]},"properties":{"full_address":"黑龙江省黑河市爱辉区花园街道长海社区国税小区1号楼及附属门市（不含4单元及4单元附属门市）、2号楼"}},{"type":"Feature","geometry":{"type":"Point","coordinates":[127.518173,50.240237]},"properties":{"full_address":"黑龙江省黑河市爱辉区花园街道长海社区边检楼及附属门市、武警楼及附属门市"}},{"type":"Feature","geometry":{"type":"Point","coordinates":[127.517764,50.245825]},"properties":{"full_address":"黑龙江省黑河市爱辉区花园街道金兰社区华林庭苑小区及附属门市（不含1号楼2单元及2单元附属门市）"}},{"type":"Feature","geometry":{"type":"Point","coordinates":[127.521489,50.234591]},"properties":{"full_address":"黑龙江省黑河市爱辉区花园街道博文社区安发小区及附属门市（不含3号楼1单元、7号楼4单元）"}},{"type":"Feature","geometry":{"type":"Point","coordinates":[127.53045,50.230125]},"properties":{"full_address":"黑龙江省黑河市爱辉区花园街道博文社区学府家园小区1号楼1单元、2号楼（不含7单元）"}},{"type":"Feature","geometry":{"type":"Point","coordinates":[127.509752,50.231367]},"properties":{"full_address":"黑龙江省黑河市爱辉区花园街道博文社区中房尚城小区及附属门市（不含1号楼2单元及2单元附属门市、5号楼4单元及4单元附属门市）"}},{"type":"Feature","geometry":{"type":"Point","coordinates":[127.489122,50.246789]},"properties":{"full_address":"黑龙江省黑河市爱辉区海兰街道鹿源春社区金达之家小区及附属门市（不含民航家属楼6单元及6单元附属门市、国际公司改造楼2单元及2单元附属门市）"}},{"type":"Feature","geometry":{"type":"Point","coordinates":[127.49554,50.243425]},"properties":{"full_address":"黑龙江省黑河市爱辉区兴安街道热电社区民政小区（不含61号楼5单元、一建2号楼3单元）"}},{"type":"Feature","geometry":{"type":"Point","coordinates":[127.500451,50.252106]},"properties":{"full_address":"黑龙江省黑河市爱辉区中燃厂区办公楼"}},{"type":"Feature","geometry":{"type":"Point","coordinates":[127.512199,50.244915]},"properties":{"full_address":"黑龙江省黑河市爱辉区花园街道网通社区农联大厦"}},{"type":"Feature","geometry":{"type":"Point","coordinates":[127.52282,50.238765]},"properties":{"full_address":"黑龙江省黑河市爱辉区花园街道网通社区地开发商30号楼（不含3单元及3单元附属门市）、31号楼、32号楼、33号楼及附属门市"}},{"type":"Feature","geometry":{"type":"Point","coordinates":[127.520241,50.242368]},"properties":{"full_address":"黑龙江省黑河市爱辉区花园街道金兰社区建行家属楼小区（不含2号楼4单元）"}},{"type":"Feature","geometry":{"type":"Point","coordinates":[127.533424,50.238059]},"properties":{"full_address":"黑龙江省黑河市爱辉区花园街道武庙屯社区华泰颐和国际小区3号楼（不含2单元）"}},{"type":"Feature","geometry":{"type":"Point","coordinates":[127.503723,50.239185]},"properties":{"full_address":"黑龙江省黑河市爱辉区花园街道长海社区龙滨嘉苑小区3号楼"}},{"type":"Feature","geometry":{"type":"Point","coordinates":[127.487701,50.253547]},"properties":{"full_address":"黑龙江省黑河市爱辉区西兴街道人保财险社区节能小区7号楼及附属门市（不含3单元及3单元附属门市）、4号楼及附属车库、4号楼附属房"}},{"type":"Feature","geometry":{"type":"Point","coordinates":[127.4195,50.1432]},"properties":{"full_address":"黑龙江省黑河市爱辉区锦河农场金河小区10号楼2单元"}},{"type":"Feature","geometry":{"type":"Point","coordinates":[127.493629,50.2458]},"properties":{"full_address":"黑龙江省黑河市爱辉区兴安街道金融社区祥和景园小区4、5、6、7、9、10单元"}},{"type":"Feature","geometry":{"type":"Point","coordinates":[127.49681,50.242872]},"properties":{"full_address":"黑龙江省黑河市爱辉区兴安街道热电社区爱家佳苑小区及附属门市（不含2号楼2单元及2单元附属门市）"}},{"type":"Feature","geometry":{"type":"Point","coordinates":[127.488456,50.241535]},"properties":{"full_address":"黑龙江省黑河市爱辉区兴安街道热电社区南湖雅苑小区16号楼、17号楼（不含2单元及2单元附属门市）、18号楼及附属门市"}},{"type":"Feature","geometry":{"type":"Point","coordinates":[127.490963,50.2368]},"properties":{"full_address":"黑龙江省黑河市爱辉区兴安街道热电社区惠民小区9号地9号楼及附属门市（不含3单元）、8号楼"}},{"type":"Feature","geometry":{"type":"Point","coordinates":[127.499335,50.236818]},"properties":{"full_address":"黑龙江省黑河市爱辉区兴安街道热电社区新生活家园小区（铁路街）及附属门市（除3号楼2单元）"}},{"type":"Feature","geometry":{"type":"Point","coordinates":[127.489956,50.249542]},"properties":{"full_address":"黑龙江省黑河市爱辉区西兴街道福龙社区益民二区17区9号楼及附属车库和门市、10号楼及附属车库、11号楼及附属车库（不含6单元及6单元附属车库）"}},{"type":"Feature","geometry":{"type":"Point","coordinates":[127.52282,50.238765]},"properties":{"full_address":"黑龙江省黑河市爱辉区花园街道网通社区卧牛湖小区中房2开楼及附属门市（不含4单元及4单元附属门市）、卧牛湖家属楼3单元及3单元附属车库"}},{"type":"Feature","geometry":{"type":"Point","coordinates":[127.504605,50.238491]},"properties":{"full_address":"黑龙江省黑河市爱辉区花园街道长海社区龙滨嘉苑小区6号楼及附属车库（不含2单元及2单元附属车库）"}},{"type":"Feature","geometry":{"type":"Point","coordinates":[127.515297,50.236049]},"properties":{"full_address":"黑龙江省黑河市爱辉区花园街道博文社区黑供小区（不含2号楼3单元）"}},{"type":"Feature","geometry":{"type":"Point","coordinates":[127.344707,49.425638]},"properties":{"full_address":"黑龙江省黑河市爱辉区花园街道喇嘛台社区尚品世纪经典小区7号楼（不含3单元）"}},{"type":"Feature","geometry":{"type":"Point","coordinates":[127.500209,50.2385]},"properties":{"full_address":"黑龙江省黑河市爱辉区花园街道长海社区黑龙大厦水利家属楼小区（不含黑龙大厦水利家属楼）"}},{"type":"Feature","geometry":{"type":"Point","coordinates":[127.493629,50.2458]},"properties":{"full_address":"黑龙江省黑河市爱辉区兴安街道金融社区兴林家园测绘楼小区及附属车库门市（不含测绘楼及附属门市）"}},{"type":"Feature","geometry":{"type":"Point","coordinates":[127.520241,50.242368]},"properties":{"full_address":"黑龙江省黑河市爱辉区花园街道金兰社区路桥小区及附属门市车库（不含路桥楼及附属车库）"}},{"type":"Feature","geometry":{"type":"Point","coordinates":[127.515312,50.244316]},"properties":{"full_address":"黑龙江省黑河市爱辉区海兰街道鹿源春社区保健佳苑小区（不含妇幼保健院家属楼及附属门市）"}},{"type":"Feature","geometry":{"type":"Point","coordinates":[127.493629,50.2458]},"properties":{"full_address":"黑龙江省黑河市爱辉区兴安街道金融社区兴都家园小区（不含广播局家属楼）"}},{"type":"Feature","geometry":{"type":"Point","coordinates":[127.521516,50.237484]},"properties":{"full_address":"黑龙江省黑河市爱辉区花园街道博文社区昌辉雅典城小区及附属门市车库（不含1号楼及附属车库）"}},{"type":"Feature","geometry":{"type":"Point","coordinates":[127.545117,49.785786]},"properties":{"full_address":"黑龙江省黑河市爱辉区红色边疆农场福苑小区1号楼、2号楼及附属车库"}},{"type":"Feature","geometry":{"type":"Point","coordinates":[127.517233,50.242845]},"properties":{"full_address":"黑龙江省黑河市爱辉区花园街道金兰社区园丁小区1号楼（不含3单元及3单元附属门市）、3号楼及附属门市、4号楼2、3、4单元及附属门市"}},{"type":"Feature","geometry":{"type":"Point","coordinates":[127.489571,50.251398]},"properties":{"full_address":"黑龙江省黑河市爱辉区海兰街道鹿源春社区教委2号楼及附属门市、二院烧火楼"}},{"type":"Feature","geometry":{"type":"Point","coordinates":[127.497957,50.252053]},"properties":{"full_address":"黑龙江省黑河市爱辉区海兰街道鹿源春社区西城老居小区及附属门市（不含药厂楼1单元及1单元附属门市、2单元及2单元附属门市、3单元及3单元附属门市）"}},{"type":"Feature","geometry":{"type":"Point","coordinates":[127.497957,50.252053]},"properties":{"full_address":"黑龙江省黑河市爱辉区海兰街道鹿源春社区热电商助小区及附属门市（不含2号楼及附属门市）"}},{"type":"Feature","geometry":{"type":"Point","coordinates":[127.486965,50.255329]},"properties":{"full_address":"黑龙江省黑河市爱辉区西兴街道人保财险社区建信B区6号楼及附属门市"}},{"type":"Feature","geometry":{"type":"Point","coordinates":[127.482375,50.256592]},"properties":{"full_address":"黑龙江省黑河市爱辉区西兴街道人保财险社区水岸华府小区1号楼及附属门市、2号楼及附属门市（不含1单元及1单元附属门市）、3号楼及附属门市、4号楼及附属门市车库、5号楼及附属门市车库"}},{"type":"Feature","geometry":{"type":"Point","coordinates":[127.488624,50.248131]},"properties":{"full_address":"黑龙江省黑河市爱辉区西兴街道向阳社区在水一方小区及附属门市车库（不含15号楼及附属门市车库）"}},{"type":"Feature","geometry":{"type":"Point","coordinates":[127.47686,50.25269]},"properties":{"full_address":"黑龙江省黑河市爱辉区西兴街道向阳社区水岸阳光小区及附属门市车库（不含3号楼及附属门市）"}},{"type":"Feature","geometry":{"type":"Point","coordinates":[127.499116,50.238844]},"properties":{"full_address":"黑龙江省黑河市爱辉区花园街道长海社区黑龙小区6号楼及附属门市、黑龙大市场"}},{"type":"Feature","geometry":{"type":"Point","coordinates":[127.498237,50.239974]},"properties":{"full_address":"黑龙江省黑河市爱辉区花园街道长海社区天丝小区及附属门市（不含D座8号楼及附属门市）"}},{"type":"Feature","geometry":{"type":"Point","coordinates":[127.518173,50.240237]},"properties":{"full_address":"黑龙江省黑河市爱辉区花园街道长海社区土地水利小区及附属门市（不含土地局集资楼及附属门市）"}},{"type":"Feature","geometry":{"type":"Point","coordinates":[127.515266,50.234344]},"properties":{"full_address":"黑龙江省黑河市爱辉区花园街道博文社区闽江佳苑小区及附属门市（不含4号楼及附属门市）"}},{"type":"Feature","geometry":{"type":"Point","coordinates":[127.530011,50.239083]},"properties":{"full_address":"黑龙江省黑河市爱辉区花园街道武庙屯社区大公馆小区7号楼及附属门市（不含2单元及2单元附属门市）"}},{"type":"Feature","geometry":{"type":"Point","coordinates":[127.52282,50.238765]},"properties":{"full_address":"黑龙江省黑河市爱辉区花园街道网通社区贝贝龙小区及附属门市车库（不含市房开59号楼及附属门市）"}},{"type":"Feature","geometry":{"type":"Point","coordinates":[127.501738,50.247087]},"properties":{"full_address":"黑龙江省黑河市爱辉区兴安街道邮政社区富绅小区及附属门市（不含区房产4号楼及附属门市、区房产21号楼及附属门市）"}},{"type":"Feature","geometry":{"type":"Point","coordinates":[127.497957,50.252053]},"properties":{"full_address":"黑龙江省黑河市爱辉区海兰街道鹿源春社区兴成生活小区及附属门市（不含经贸委集资楼及附属门市）"}},{"type":"Feature","geometry":{"type":"Point","coordinates":[127.489956,50.249542]},"properties":{"full_address":"黑龙江省黑河市爱辉区西兴街道福龙社区益民二区18区15号楼、18号楼及附属门市（不含9单元及9单元附属门市）、21号楼"}},{"type":"Feature","geometry":{"type":"Point","coordinates":[127.507217,50.246904]},"properties":{"full_address":"黑龙江省黑河市爱辉区花园街道网通社区楼中楼小区地开发30号楼（不含3单元及3单元附属门市）、31号楼、32号楼、33号楼及附属门市"}},{"type":"Feature","geometry":{"type":"Point","coordinates":[127.470269,50.253504]},"properties":{"full_address":"黑龙江省黑河市爱辉区西兴街道向阳社区福临家园及附属门市（不含3号楼及附属门市）"}},{"type":"Feature","geometry":{"type":"Point","coordinates":[127.520241,50.242368]},"properties":{"full_address":"黑龙江省黑河市爱辉区花园街道金兰社区工行家属楼小区（不含2号楼及附属门市）"}},{"type":"Feature","geometry":{"type":"Point","coordinates":[127.520125,50.233375]},"properties":{"full_address":"黑龙江省黑河市爱辉区花园街道博文社区中超三期小区6号楼及6号楼附属门市车库、7号楼及7号楼附属门市车库"}},{"type":"Feature","geometry":{"type":"Point","coordinates":[127.493629,50.2458]},"properties":{"full_address":"黑龙江省黑河市爱辉区兴安街道金融社区华和小区及附属门市（不含闽龙3号楼及附属门市）"}},{"type":"Feature","geometry":{"type":"Point","coordinates":[127.518714,50.245669]},"properties":{"full_address":"黑龙江省黑河市爱辉区花园街道金兰社区世纪花园小区及附属门市车库（不含12号楼及附属车库、14号楼及附属车库）"}},{"type":"Feature","geometry":{"type":"Point","coordinates":[127.520241,50.242368]},"properties":{"full_address":"黑龙江省黑河市爱辉区花园街道金兰社区公用局小区及附属门市车库（不含公用事业局2号楼及附属门市）、海关小区及附属门市车库"}},{"type":"Feature","geometry":{"type":"Point","coordinates":[127.530701,50.237656]},"properties":{"full_address":"黑龙江省黑河市爱辉区花园街道武庙屯社区之路佳苑小区及附属门市车库（不含5号楼及附属车库）"}},{"type":"Feature","geometry":{"type":"Point","coordinates":[127.499882,50.236724]},"properties":{"full_address":"黑龙江省黑河市爱辉区兴安街道热电社区惠民11号地小区及附属门市车库（不含6号楼及附属门市车库、1号楼及附属门市）"}},{"type":"Feature","geometry":{"type":"Point","coordinates":[127.491774,50.252528]},"properties":{"full_address":"黑龙江省黑河市爱辉区海兰街道鹿源春社区宏运小区及附属门市车库（不含2号楼及附属门市）"}},{"type":"Feature","geometry":{"type":"Point","coordinates":[127.523979,50.239513]},"properties":{"full_address":"黑龙江省黑河市爱辉区兴安街道邮政社区松辽委小区（不含中房94号楼4单元及4单元附属门市）"}},{"type":"Feature","geometry":{"type":"Point","coordinates":[127.52362225943371,50.23272469283783]},"properties":{"full_address":"黑龙江省黑河市爱辉区花园街道喇嘛台社区鸿城名苑小区3号楼（不含4单元及4单元附属车库）"}},{"type":"Feature","geometry":{"type":"Point","coordinates":[127.497957,50.252053]},"properties":{"full_address":"黑龙江省黑河市爱辉区海兰街道鹿源春社区恒基高层及附属门市（不含3单元及附属门市）"}},{"type":"Feature","geometry":{"type":"Point","coordinates":[127.506065,50.249198]},"properties":{"full_address":"黑龙江省黑河市爱辉区花园街道联通社区建行小区建行3号楼及附属门市、建行4号楼及附属门市（不含荣升久食杂店）"}},{"type":"Feature","geometry":{"type":"Point","coordinates":[127.526622,50.233326]},"properties":{"full_address":"黑龙江省黑河市爱辉区花园街道喇嘛台社区荣耀世纪小区6号楼及附属车库门市、10号楼及附属车库门市、11号楼及附属车库门市（不含5单元及5单元附属车库）、12号楼及附属车库门市"}},{"type":"Feature","geometry":{"type":"Point","coordinates":[127.506147,50.2332]},"properties":{"full_address":"黑龙江省黑河市爱辉区花园街道长海社区国税小区2号楼（不含1单元）"}},{"type":"Feature","geometry":{"type":"Point","coordinates":[127.506584,50.247932]},"properties":{"full_address":"黑龙江省黑河市爱辉区兴安街道金融社区锦江佳苑小区保险公司家属楼及附属门市（不含2单元及2单元附属门市）"}},{"type":"Feature","geometry":{"type":"Point","coordinates":[127.477338,50.24906]},"properties":{"full_address":"黑龙江省黑河市爱辉区西兴街道福龙社区翰林雅居小区（不含5号楼及附属门市、6号楼及附属门市）"}},{"type":"Feature","geometry":{"type":"Point","coordinates":[127.478034,50.252369]},"properties":{"full_address":"黑龙江省黑河市爱辉区西兴街道福龙社区御景湾小区4号楼、5号楼（不含2单元）、6号楼（不含1单元）、9号楼"}},{"type":"Feature","geometry":{"type":"Point","coordinates":[127.59126640106223,50.21507866736162]},"properties":{"full_address":"黑龙江省黑河市爱辉区幸福乡长发村西6道街228号、232号"}},{"type":"Feature","geometry":{"type":"Point","coordinates":[127.510382,50.230265]},"properties":{"full_address":"黑龙江省黑河市爱辉区花园街道博文社区尚品观景国际小区7号楼及附属车库"}},{"type":"Feature","geometry":{"type":"Point","coordinates":[127.52001,50.242435]},"properties":{"full_address":"黑龙江省黑河市爱辉区花园街道金兰社区海兰行小区5号楼及附属车库、A栋19单元及19单元附属门市"}},{"type":"Feature","geometry":{"type":"Point","coordinates":[127.488731,50.241997]},"properties":{"full_address":"黑龙江省黑河市爱辉区兴安街道热电社区南湖雅苑小区新8号楼及附属车库（不含1单元及1单元附属车库）、新6号楼及附属车库门市（除3单元及3单元附属车库）"}},{"type":"Feature","geometry":{"type":"Point","coordinates":[127.52282,50.238765]},"properties":{"full_address":"黑龙江省黑河市爱辉区花园街道网通社区楼中楼小区（不含地开发30号楼3单元及3单元附属门市、房产34号楼及附属门市）"}},{"type":"Feature","geometry":{"type":"Point","coordinates":[127.52787,50.238199]},"properties":{"full_address":"黑龙江省黑河市爱辉区花园街道博文社区中超一期小区（不含2号楼2单元及2单元附属门市、3单元及3单元附属门市、4单元及4单元附属门市）"}},{"type":"Feature","geometry":{"type":"Point","coordinates":[127.497032,50.240688]},"properties":{"full_address":"黑龙江省黑河市爱辉区兴安街道热电社区艺苑小区1号楼（不含1单元及1单元附属门市、1号楼二楼半及附属门市）、2号楼及附属门市、2号楼前后二楼半及附属门市"}},{"type":"Feature","geometry":{"type":"Point","coordinates":[127.484705,50.250961]},"properties":{"full_address":"黑龙江省黑河市爱辉区西兴街道福龙社区粮保小区及附属车库门市（不含保险家属楼1单元及1单元附属车库门市）"}},{"type":"Feature","geometry":{"type":"Point","coordinates":[127.432203,50.003468]},"properties":{"full_address":"黑龙江省黑河市爱辉区瑷珲镇北三家子村（不含一组92号—99号）"}},{"type":"Feature","geometry":{"type":"Point","coordinates":[127.500237,50.242584]},"properties":{"full_address":"黑龙江省黑河市爱辉区兴安街道热电社区惠民12号地小区9号楼及附属车库、11号楼及附属门市车库"}},{"type":"Feature","geometry":{"type":"Point","coordinates":[127.493618,50.253114]},"properties":{"full_address":"黑龙江省黑河市爱辉区海兰街道鹿源春社区北港嘉园小区及附属门市（不含2单元及2单元附属门市）"}},{"type":"Feature","geometry":{"type":"Point","coordinates":[127.502188,50.236542]},"properties":{"full_address":"黑龙江省黑河市爱辉区花园街道长海社区华寓小区1号楼及附属门市、2号楼及附属门市（不含4单元及4单元附属门市）、3号楼及附属门市、4号楼及附属门市、6号楼及附属车库"}},{"type":"Feature","geometry":{"type":"Point","coordinates":[127.517799,50.240204]},"properties":{"full_address":"黑龙江省黑河市爱辉区花园街道长海社区宏远小区宏鹏2号楼及附属车库"}},{"type":"Feature","geometry":{"type":"Point","coordinates":[127.533424,50.238059]},"properties":{"full_address":"黑龙江省黑河市爱辉区花园街道武庙屯社区华泰颐和国际小区9号楼及附属门市（不含1单元及1单元附属门市）"}},{"type":"Feature","geometry":{"type":"Point","coordinates":[127.50132,50.250397]},"properties":{"full_address":"黑龙江省黑河市爱辉区花园街道喇嘛台社区学府佳苑小区（不含8号楼及附属车库）"}},{"type":"Feature","geometry":{"type":"Point","coordinates":[127.489956,50.249542]},"properties":{"full_address":"黑龙江省黑河市爱辉区西兴街道福龙社区益民二区18区22号楼及附属门市车库"}},{"type":"Feature","geometry":{"type":"Point","coordinates":[128.483658,49.580578]},"properties":{"full_address":"黑龙江省黑河市爱辉区兴安街道金融社区建材小区及附属门市（不含地开发8号楼2单元及2单元附属门市、3单元及3单元附属门市、4单元及4单元附属门市、建材2号楼9单元及9单元附属门市）"}},{"type":"Feature","geometry":{"type":"Point","coordinates":[127.530011,50.239083]},"properties":{"full_address":"黑龙江省黑河市爱辉区花园街道武庙屯社区大公馆小区11号楼（不含1单元）"}},{"type":"Feature","geometry":{"type":"Point","coordinates":[127.528114,50.245159]},"properties":{"full_address":"黑龙江省黑河市爱辉区花园街道金兰社区华泰滨江锦苑小区1号楼及附属车库、3号楼及附属车库（不含1单元及1单元附属车库、2单元及2单元附属车库）"}},{"type":"Feature","geometry":{"type":"Point","coordinates":[127.487724,50.251812]},"properties":{"full_address":"黑龙江省黑河市爱辉区西兴街道人保财险社区林业11区及附属车库门市（不含2号楼2单元及2单元附属门市）"}},{"type":"Feature","geometry":{"type":"Point","coordinates":[127.518173,50.240237]},"properties":{"full_address":"黑龙江省黑河市爱辉区花园街道长海社区社保集资楼小区及附属门市车库（不含3号楼及附属门市）"}},{"type":"Feature","geometry":{"type":"Point","coordinates":[127.4821,50.240037]},"properties":{"full_address":"黑龙江省黑河市爱辉区海兰街道温馨社区阳光嘉园小区及附属门市车库（不含3号楼及附属车库）"}},{"type":"Feature","geometry":{"type":"Point","coordinates":[127.477974,50.244343]},"properties":{"full_address":"黑龙江省黑河市爱辉区海兰街道温馨社区北国明珠二期小区3号楼及附属车库（不含3单元及3单元附属车库）"}},{"type":"Feature","geometry":{"type":"Point","coordinates":[127.512691,50.243996]},"properties":{"full_address":"黑龙江省黑河市爱辉区花园街道长海社区鹏瑞新起点小区及附属门市（不含1单元及1单元附属门市）"}},{"type":"Feature","geometry":{"type":"Point","coordinates":[127.514709,50.239951]},"properties":{"full_address":"黑龙江省黑河市爱辉区花园街道长海社区龙滨花园小区及附属门市车库（不含3号楼及附属门市车库）"}},{"type":"Feature","geometry":{"type":"Point","coordinates":[127.516533,50.240419]},"properties":{"full_address":"黑龙江省黑河市爱辉区花园街道长海社区金盾小区及附属门市（不含1号楼及附属门市）"}},{"type":"Feature","geometry":{"type":"Point","coordinates":[127.505803,50.236145]},"properties":{"full_address":"黑龙江省黑河市爱辉区花园街道长海社区金通花园小区及附属门市（不含2号楼及附属门市）"}},{"type":"Feature","geometry":{"type":"Point","coordinates":[127.514997,50.247766]},"properties":{"full_address":"黑龙江省黑河市爱辉区花园街道联通社区教委集资楼及附属门市（不含2号楼及附属门市）"}},{"type":"Feature","geometry":{"type":"Point","coordinates":[127.497957,50.252053]},"properties":{"full_address":"黑龙江省黑河市爱辉区海兰街道鹿源春社区中房家园小区（大众浴池卡口通行楼宇）及附属门市（不含中房42号楼及附属门市）"}},{"type":"Feature","geometry":{"type":"Point","coordinates":[127.509689,50.241528]},"properties":{"full_address":"黑龙江省黑河市爱辉区花园街道长海社区学苑小区及附属门市车库（不含学苑1号楼及附属门市、学苑2号楼及附属门市车库）"}},{"type":"Feature","geometry":{"type":"Point","coordinates":[127.483444,50.246046]},"properties":{"full_address":"黑龙江省黑河市爱辉区海兰街道温馨社区金地花园小区及附属门市车库（不含11号楼及附属门市车库）"}},{"type":"Feature","geometry":{"type":"Point","coordinates":[127.477974,50.244343]},"properties":{"full_address":"黑龙江省黑河市爱辉区海兰街道温馨社区北国明珠二期小区及附属门市（不含1A东楼及附属门市）"}},{"type":"Feature","geometry":{"type":"Point","coordinates":[127.4162,50.141007]},"properties":{"full_address":"黑龙江省黑河市爱辉区锦河农场振兴街以东、富强街以西、安康路以北、安发路以南区域（不含锦河农场16号楼）"}},{"type":"Feature","geometry":{"type":"Point","coordinates":[127.521391,50.236428]},"properties":{"full_address":"黑龙江省黑河市爱辉区花园街道博文社区星辉小区及附属门市车库（不含2号楼及附属门市车库、6号楼高层区及附属门市车库）"}},{"type":"Feature","geometry":{"type":"Point","coordinates":[127.488683,50.241086]},"properties":{"full_address":"黑龙江省黑河市爱辉区兴安街道热电社区南湖雅苑小区15号楼及附属车库"}},{"type":"Feature","geometry":{"type":"Point","coordinates":[127.479416,50.247849]},"properties":{"full_address":"黑龙江省黑河市爱辉区西兴街道福龙社区力波家园小区3号楼、4号楼、9号楼、13号楼"}},{"type":"Feature","geometry":{"type":"Point","coordinates":[127.514111,50.230459]},"properties":{"full_address":"黑龙江省黑河市爱辉区弘发粮苑小区4号楼1单元及1单元附属门市"}},{"type":"Feature","geometry":{"type":"Point","coordinates":[127.499882,50.236724]},"properties":{"full_address":"黑龙江省黑河市爱辉区兴安街道热电社区铁路家属楼小区及附属门市（不含1号楼及附属门市）"}},{"type":"Feature","geometry":{"type":"Point","coordinates":[127.491541,50.244766]},"properties":{"full_address":"黑龙江省黑河市爱辉区兴安街道热电社区和谐家园小区及附属门市（不含1号楼及附属门市）"}},{"type":"Feature","geometry":{"type":"Point","coordinates":[127.481801,50.238572]},"properties":{"full_address":"黑龙江省黑河市爱辉区兴安街道热电社区阳光家园小区及附属门市（不含8号楼及附属门市）"}},{"type":"Feature","geometry":{"type":"Point","coordinates":[127.501968,50.248272]},"properties":{"full_address":"黑龙江省黑河市爱辉区兴安街道邮政社区无委会小区及附属门市车库（不含鹏瑞二期及附属门市）"}},{"type":"Feature","geometry":{"type":"Point","coordinates":[127.514997,50.247766]},"properties":{"full_address":"黑龙江省黑河市爱辉区花园街道联通社区体育场小区及附属门市（不含计委家属楼及附属门市）"}},{"type":"Feature","geometry":{"type":"Point","coordinates":[127.473538,50.25155]},"properties":{"full_address":"黑龙江省黑河市爱辉区西兴街道向阳社区幸福佳苑小区及附属门市车库（不含4号楼及附属车库）"}},{"type":"Feature","geometry":{"type":"Point","coordinates":[125.215513,49.184133]},"properties":{"full_address":"黑龙江省黑河市嫩江市颐江园高层1号楼、高层2号楼、多层1号楼、多层2号楼"}},{"type":"Feature","geometry":{"type":"Point","coordinates":[125.221192,49.185766]},"properties":{"full_address":"黑龙江省黑河市嫩江市农行招待所"}},{"type":"Feature","geometry":{"type":"Point","coordinates":[126.664245,51.727902]},"properties":{"full_address":"黑龙江省大兴安岭地区呼玛县三卡乡中心小区3号楼"}},{"type":"Feature","geometry":{"type":"Point","coordinates":[126.66078,51.725664]},"properties":{"full_address":"黑龙江省大兴安岭地区呼玛县气象小区、合顺家园1号、2号、3号楼、教育局办公楼合围区域（除高风险区外）"}},{"type":"Feature","geometry":{"type":"Point","coordinates":[117.135876,34.209467]},"properties":{"full_address":"江苏省徐州市铜山区铜山街道望城村皇姑窝自然村"}},{"type":"Feature","geometry":{"type":"Point","coordinates":[117.143277,34.199984]},"properties":{"full_address":"江苏省徐州市铜山区铜山街道龙腰山社区国基城邦小区5号楼"}},{"type":"Feature","geometry":{"type":"Point","coordinates":[117.136844,34.193503]},"properties":{"full_address":"江苏省徐州市铜山区铜山街道龙腰山社区国基逸境小区C13号楼"}},{"type":"Feature","geometry":{"type":"Point","coordinates":[119.51938,32.193046]},"properties":{"full_address":"江苏省镇江市京口区水木阳光小区"}},{"type":"Feature","geometry":{"type":"Point","coordinates":[119.474713,32.211419]},"properties":{"full_address":"江苏省镇江市京口区吉麦隆超市（江大店）"}},{"type":"Feature","geometry":{"type":"Point","coordinates":[119.461886,32.201951]},"properties":{"full_address":"江苏省镇江市京口区牛得多牛肉面馆（香江店）"}},{"type":"Feature","geometry":{"type":"Point","coordinates":[119.48906,32.212196]},"properties":{"full_address":"江苏省镇江市京口区夏文龙面馆（学府路、宗泽路交叉口附近）"}},{"type":"Feature","geometry":{"type":"Point","coordinates":[119.47016,32.19828]},"properties":{"full_address":"江苏省镇江市京口区江大后街（XY欧韩女装店、秀依阁服装店）"}},{"type":"Feature","geometry":{"type":"Point","coordinates":[115.786726,32.870261]},"properties":{"full_address":"安徽省阜阳市颍州区碧水雅苑小区B2区及其附属商铺门店"}},{"type":"Feature","geometry":{"type":"Point","coordinates":[118.094574,24.466573]},"properties":{"full_address":"福建省厦门市思明区禾祥西路234-246（万禾花园）"}},{"type":"Feature","geometry":{"type":"Point","coordinates":[118.085526,24.445085]},"properties":{"full_address":"福建省厦门市思明区碧山路1、3、3-1、3-2、5-1、5-3、7、7-1、7-2、7-3、9-1、9-2、11-1、11-2、13-1、13-2、15-1、17、19-1、21、21-1、21-2、21-3、23、25、27、27-1、27-2、29-1、29-2、29-3、29-9、29-10号"}},{"type":"Feature","geometry":{"type":"Point","coordinates":[116.006179,26.443535]},"properties":{"full_address":"江西省赣州市宁都县梅江镇高坑村富当塘小组"}},{"type":"Feature","geometry":{"type":"Point","coordinates":[115.433566,27.323948]},"properties":{"full_address":"江西省吉安市永丰县恩江镇肖家村（北至永丰大道，南至崇文大道，西至欧阳修大道，东至跃进西路)"}},{"type":"Feature","geometry":{"type":"Point","coordinates":[115.439045,27.316796]},"properties":{"full_address":"江西省吉安市永丰县恩江镇民主社区（北至崇文东大道、西至恩江南路、南至状元华府、东至永叔路）"}},{"type":"Feature","geometry":{"type":"Point","coordinates":[115.430788,27.319419]},"properties":{"full_address":"江西省吉安市永丰县恩江镇大园村（北至崇文大道、西至欧阳修南大道、南至祥和大道、东至恩江南大道)"}},{"type":"Feature","geometry":{"type":"Point","coordinates":[115.437873,27.320481]},"properties":{"full_address":"江西省吉安市永丰县恩江镇八一社区（北至跃进东路，西至恩江北路、南至崇文东大道、东至永叔路)"}},{"type":"Feature","geometry":{"type":"Point","coordinates":[115.424719,27.327904]},"properties":{"full_address":"江西省吉安市永丰县恩江镇傅家坝自然村（北至永丰大道，西和南至跃进西路，东至恩江北路）"}},{"type":"Feature","geometry":{"type":"Point","coordinates":[120.436753,36.101271]},"properties":{"full_address":"山东省青岛市崂山区鲁信长春花园小区高风险区以外的其他区域及该小区对外网点等区域"}},{"type":"Feature","geometry":{"type":"Point","coordinates":[116.589143,35.440544]},"properties":{"full_address":"山东省济宁市任城区李营街道培文社区苗营西区片区（东起建设路，西至片区西墙，南起苗营棚改区南墙，北至任城大道）除高风险区以外的其他区域"}},{"type":"Feature","geometry":{"type":"Point","coordinates":[116.580785,35.404176]},"properties":{"full_address":"山东省济宁市任城区观音阁街道长城工业园片区（东起洸府河，西至火炬路东200米，南起海南东路，北至深圳东路）"}},{"type":"Feature","geometry":{"type":"Point","coordinates":[116.585153,35.399996]},"properties":{"full_address":"山东省济宁市任城区越河街道望湖小区（东起武胜桥南街，西至小区内南北主通道，南起越河北岸，北至武胜桥街）"}},{"type":"Feature","geometry":{"type":"Point","coordinates":[116.550704,35.327772]},"properties":{"full_address":"山东省济宁市任城区唐口街道大张庄村片区（包含大张庄村、半边店村、泇河村、陈河口村、程庄村）"}},{"type":"Feature","geometry":{"type":"Point","coordinates":[115.067152,33.408357]},"properties":{"full_address":"河南省周口市沈丘县沈丘县北城办事处小辛营行政村"}},{"type":"Feature","geometry":{"type":"Point","coordinates":[115.077206,33.392635]},"properties":{"full_address":"河南省周口市沈丘县沈丘县槐店回族镇金田市场"}},{"type":"Feature","geometry":{"type":"Point","coordinates":[114.296784,30.578848]},"properties":{"full_address":"湖北省武汉市江岸区一元街道洞庭街鑫海休闲会所"}},{"type":"Feature","geometry":{"type":"Point","coordinates":[114.29681,30.594907]},"properties":{"full_address":"湖北省武汉市江岸区球场街道京汉大道夜时CLUB酒吧"}},{"type":"Feature","geometry":{"type":"Point","coordinates":[114.289538,30.589399]},"properties":{"full_address":"湖北省武汉市江岸区球场街道解放南路激活酒吧"}},{"type":"Feature","geometry":{"type":"Point","coordinates":[114.303727,30.651058]},"properties":{"full_address":"湖北省武汉市江岸区后湖街道同安家园59栋"}},{"type":"Feature","geometry":{"type":"Point","coordinates":[114.269011,30.624471]},"properties":{"full_address":"湖北省武汉市江汉区汉兴街道江汉人家A区3栋、7栋"}},{"type":"Feature","geometry":{"type":"Point","coordinates":[114.15473,30.668488]},"properties":{"full_address":"湖北省武汉市东西湖区径河街道径河南路1号4栋1楼天赐金龙城项目部"}},{"type":"Feature","geometry":{"type":"Point","coordinates":[114.360926,30.870886]},"properties":{"full_address":"湖北省武汉市黄陂区前川街道板桥大道金龙四季阳光南门重庆酸菜鱼馆"}},{"type":"Feature","geometry":{"type":"Point","coordinates":[109.39962,29.501206]},"properties":{"full_address":"湖北省恩施土家族苗族自治州来凤县翔凤镇星都汇小区2栋3单元"}},{"type":"Feature","geometry":{"type":"Point","coordinates":[109.411779,29.49538]},"properties":{"full_address":"湖北省恩施土家族苗族自治州来凤县翔凤镇夏威夷小区4栋1单元"}},{"type":"Feature","geometry":{"type":"Point","coordinates":[109.225286,29.569265]},"properties":{"full_address":"湖北省恩施土家族苗族自治州来凤县革勒车镇桐麻村"}},{"type":"Feature","geometry":{"type":"Point","coordinates":[109.426289,29.509767]},"properties":{"full_address":"湖北省恩施土家族苗族自治州来凤县翔凤镇大垭口村1组"}},{"type":"Feature","geometry":{"type":"Point","coordinates":[109.426289,29.509767]},"properties":{"full_address":"湖北省恩施土家族苗族自治州来凤县翔凤镇大垭口村4组"}},{"type":"Feature","geometry":{"type":"Point","coordinates":[114.192484,22.590302]},"properties":{"full_address":"广东省深圳市罗湖区东湖街道梧桐山社区茂仔村121号、123号，坑背村1号、221号、222号"}},{"type":"Feature","geometry":{"type":"Point","coordinates":[114.141141,22.549471]},"properties":{"full_address":"广东省深圳市罗湖区黄贝街道黄贝岭社区黄贝岭上村1至21栋，黄贝岭中村1至59栋（除高风险区外）"}},{"type":"Feature","geometry":{"type":"Point","coordinates":[114.146576,22.549294]},"properties":{"full_address":"广东省深圳市罗湖区黄贝街道新秀社区新秀村北区1至12栋、新秀深港建筑公司1至6栋围合区域（除高风险区外）"}},{"type":"Feature","geometry":{"type":"Point","coordinates":[114.174794,22.597264]},"properties":{"full_address":"广东省深圳市罗湖区东湖街道大望社区新平村87号、198号"}},{"type":"Feature","geometry":{"type":"Point","coordinates":[114.140899,22.583427]},"properties":{"full_address":"广东省深圳市罗湖区东湖街道金湖社区山湖居C3栋"}},{"type":"Feature","geometry":{"type":"Point","coordinates":[114.137671,22.566016]},"properties":{"full_address":"广东省深圳市罗湖区翠竹街道新村社区水库新村统建楼7栋、8栋，水库新村340号、341号、345号围合区域（除高风险区外）"}},{"type":"Feature","geometry":{"type":"Point","coordinates":[114.120793,22.54852]},"properties":{"full_address":"广东省深圳市罗湖区东门街道立新社区立新花园1—14栋（除高风险区外）"}},{"type":"Feature","geometry":{"type":"Point","coordinates":[114.113665,22.58512]},"properties":{"full_address":"广东省深圳市罗湖区清水河街道草埔西社区吓围新村47A栋、47B栋、48栋至50栋、53栋至55栋、62栋至64栋围合区域（除高风险区外）"}},{"type":"Feature","geometry":{"type":"Point","coordinates":[114.076403,22.541305]},"properties":{"full_address":"广东省深圳市福田区华富街道富荔花园第1栋3单元、第2栋3单元、第3栋3单元、第4栋3单元、第5栋3单元以及田面新村（高风险区除外）、田面花园、田面村1号、上村28号、上村45号、田达楼、田发楼、田兴楼"}},{"type":"Feature","geometry":{"type":"Point","coordinates":[114.082992,22.544002]},"properties":{"full_address":"广东省深圳市福田区华强北街道航苑大厦第3层及以下区域"}},{"type":"Feature","geometry":{"type":"Point","coordinates":[114.101189,22.537478]},"properties":{"full_address":"广东省深圳市福田区南园街道巴登村第1栋-第16栋、第18栋-第33栋、第36栋-第39栋、第42栋-第55栋、第59栋-第62栋、第64栋-第69栋"}},{"type":"Feature","geometry":{"type":"Point","coordinates":[114.04638,22.52234]},"properties":{"full_address":"广东省深圳市福田区沙头街道新洲祠堂村第58栋、第59栋、第61栋、第66栋、第68栋、第70栋-第75栋、第77栋-第79栋"}},{"type":"Feature","geometry":{"type":"Point","coordinates":[114.082101,22.548003]},"properties":{"full_address":"广东省深圳市福田区华强北街道上步工业区402A栋"}},{"type":"Feature","geometry":{"type":"Point","coordinates":[114.045442,22.517514]},"properties":{"full_address":"广东省深圳市福田区沙头街道沙尾社区（高风险区、金地一路22号除外），金地十路21号，福强路4001号第314栋、第316栋、第317栋"}},{"type":"Feature","geometry":{"type":"Point","coordinates":[114.036199,22.523001]},"properties":{"full_address":"广东省深圳市福田区沙头街道金地社区金地花园生活区第311栋"}},{"type":"Feature","geometry":{"type":"Point","coordinates":[114.092888,22.537251]},"properties":{"full_address":"广东省深圳市福田区南园街道沙埔头村东第5栋、东第6栋（除二单元外）、东第8栋、东第12栋-东第19栋、东第21栋-东第32栋、西第1栋-西第3栋、西第5栋-西第7栋、西第8栋（除一单元外）、西第9栋、西第11栋-西第21栋、沙埔头大厦第1栋-第2栋"}},{"type":"Feature","geometry":{"type":"Point","coordinates":[113.863896,22.576947]},"properties":{"full_address":"广东省深圳市宝安区西乡街道蚝业雅苑（除高风险区域以外）"}},{"type":"Feature","geometry":{"type":"Point","coordinates":[114.14622,22.613617]},"properties":{"full_address":"广东省深圳市龙岗区南湾街道南岭村社区荔枝花园（除A1栋和高风险区外）"}},{"type":"Feature","geometry":{"type":"Point","coordinates":[114.16079,22.609346]},"properties":{"full_address":"广东省深圳市龙岗区南湾街道厦村社区厦园路222栋、46栋及西坊13栋、99栋、100栋、151栋、沙湾河花园"}},{"type":"Feature","geometry":{"type":"Point","coordinates":[114.145692,22.604709]},"properties":{"full_address":"广东省深圳市龙岗区南湾街道南岭村社区南园路17号、19号"}},{"type":"Feature","geometry":{"type":"Point","coordinates":[114.006795,22.665542]},"properties":{"full_address":"广东省深圳市龙华区大浪街道高峰社区澳华花园、乌石岗工业区，澳华新村第14至26号"}},{"type":"Feature","geometry":{"type":"Point","coordinates":[114.009684,22.658784]},"properties":{"full_address":"广东省深圳市龙华区大浪街道高峰社区下早新村第26号、27号、47号、53号、57至60号、171至176号"}},{"type":"Feature","geometry":{"type":"Point","coordinates":[114.533326,22.592277]},"properties":{"full_address":"广东省深圳市大鹏新区大鹏办事处鹏飞路滨海花园30栋、31栋、33栋"}},{"type":"Feature","geometry":{"type":"Point","coordinates":[114.405856,23.0955]},"properties":{"full_address":"广东省惠州市惠东县平山街道公园东1巷、2巷、3巷（高风险区除外）"}},{"type":"Feature","geometry":{"type":"Point","coordinates":[114.732126,22.978156]},"properties":{"full_address":"广东省惠州市惠东县平山街道龙湖苑（高风险区除外）"}},{"type":"Feature","geometry":{"type":"Point","coordinates":[114.720293,22.969674]},"properties":{"full_address":"广东省惠州市惠东县平山街道升辉花园小区（高风险区除外）"}},{"type":"Feature","geometry":{"type":"Point","coordinates":[107.982049,21.544533]},"properties":{"full_address":"广西壮族自治区防城港市东兴市东兴镇花溪社区第8网格（除高风险区外）全域"}},{"type":"Feature","geometry":{"type":"Point","coordinates":[107.977729,21.5423]},"properties":{"full_address":"广西壮族自治区防城港市东兴市东兴镇花溪社区第7网格解放东路47号-57号（单号）"}},{"type":"Feature","geometry":{"type":"Point","coordinates":[107.977898,21.542064]},"properties":{"full_address":"广西壮族自治区防城港市东兴市东兴镇花溪社区第9网格景秀路2号-46号（双号），解放东路38号"}},{"type":"Feature","geometry":{"type":"Point","coordinates":[107.963758,21.537309]},"properties":{"full_address":"广西壮族自治区防城港市东兴市东兴镇北郊社区第1网格江南路二巷1号-12号，江南路55号、57号"}},{"type":"Feature","geometry":{"type":"Point","coordinates":[107.972078,21.539904]},"properties":{"full_address":"广西壮族自治区防城港市东兴市东兴镇中山社区第5网格教育路25-1号（东兴市老记照相馆）"}},{"type":"Feature","geometry":{"type":"Point","coordinates":[107.957403,21.546676]},"properties":{"full_address":"广西壮族自治区防城港市东兴市东兴镇深沟社区第19网格华隆凤翔阁三组团及其地下停车场"}},{"type":"Feature","geometry":{"type":"Point","coordinates":[110.375995,18.794501]},"properties":{"full_address":"海南省省直辖县级行政单位万宁市中央坡道班（东至水渠、南至红专西路、西至丰南南路、北至人民西路）"}},{"type":"Feature","geometry":{"type":"Point","coordinates":[104.066119,30.686839]},"properties":{"full_address":"四川省成都市金牛区北站西二路4号"}},{"type":"Feature","geometry":{"type":"Point","coordinates":[104.063437,30.688412]},"properties":{"full_address":"四川省成都市金牛区西北桥北街148、152号"}},{"type":"Feature","geometry":{"type":"Point","coordinates":[105.597119,30.531014]},"properties":{"full_address":"四川省遂宁市船山区东城绿洲A区"}},{"type":"Feature","geometry":{"type":"Point","coordinates":[105.602737,30.522102]},"properties":{"full_address":"四川省遂宁市船山区中央美邸"}},{"type":"Feature","geometry":{"type":"Point","coordinates":[105.561996,30.516553]},"properties":{"full_address":"四川省遂宁市船山区得月巷以南，玫瑰上品（含）以北，西山以东，渠河以西"}},{"type":"Feature","geometry":{"type":"Point","coordinates":[105.56891,30.440602]},"properties":{"full_address":"四川省遂宁市船山区保升镇保升村1社、7社、8社、9社"}},{"type":"Feature","geometry":{"type":"Point","coordinates":[105.606208,30.520053]},"properties":{"full_address":"四川省遂宁市船山区盛世华府"}},{"type":"Feature","geometry":{"type":"Point","coordinates":[105.568297,30.525475]},"properties":{"full_address":"四川省遂宁市船山区春天大道"}},{"type":"Feature","geometry":{"type":"Point","coordinates":[105.56567,30.525986]},"properties":{"full_address":"四川省遂宁市船山区嘉禾桥社区"}},{"type":"Feature","geometry":{"type":"Point","coordinates":[105.588975,30.498732]},"properties":{"full_address":"四川省遂宁市船山区涪江花园社区、希望社区"}},{"type":"Feature","geometry":{"type":"Point","coordinates":[105.58399,30.495311]},"properties":{"full_address":"四川省遂宁市船山区凯旋下路社区、文星街社区、南小区社区"}},{"type":"Feature","geometry":{"type":"Point","coordinates":[105.58728,30.503652]},"properties":{"full_address":"四川省遂宁市船山区油房街社区、紫薇社区"}},{"type":"Feature","geometry":{"type":"Point","coordinates":[105.591168,30.492188]},"properties":{"full_address":"四川省遂宁市船山区天宫路社区、玉泉街社区"}},{"type":"Feature","geometry":{"type":"Point","coordinates":[105.57644,30.509128]},"properties":{"full_address":"四川省遂宁市船山区和平东路社区、玉竹社区、盐市街社区"}},{"type":"Feature","geometry":{"type":"Point","coordinates":[105.581103,30.506541]},"properties":{"full_address":"四川省遂宁市船山区百福社区、朝阳社区"}},{"type":"Feature","geometry":{"type":"Point","coordinates":[105.565011,30.519966]},"properties":{"full_address":"四川省遂宁市船山区燕山社区"}},{"type":"Feature","geometry":{"type":"Point","coordinates":[105.563135,30.521663]},"properties":{"full_address":"四川省遂宁市船山区京宁社区"}},{"type":"Feature","geometry":{"type":"Point","coordinates":[105.582373,30.503556]},"properties":{"full_address":"四川省遂宁市船山区正兴街社区、兴隆社区、大东街社区"}},{"type":"Feature","geometry":{"type":"Point","coordinates":[105.58178,30.505108]},"properties":{"full_address":"四川省遂宁市船山区文成街社区、顺城街社区、德胜路社区"}},{"type":"Feature","geometry":{"type":"Point","coordinates":[105.589808,30.495394]},"properties":{"full_address":"四川省遂宁市船山区天兴社区、凯东社区、电江路社区"}},{"type":"Feature","geometry":{"type":"Point","coordinates":[105.57052,30.521316]},"properties":{"full_address":"四川省遂宁市船山区北河街社区、北小区社区、老盐关社区"}},{"type":"Feature","geometry":{"type":"Point","coordinates":[105.57325,30.513015]},"properties":{"full_address":"四川省遂宁市船山区犀牛社区"}},{"type":"Feature","geometry":{"type":"Point","coordinates":[105.57197,30.51361]},"properties":{"full_address":"四川省遂宁市船山区锦华社区、裕丰社区"}},{"type":"Feature","geometry":{"type":"Point","coordinates":[105.575782,30.49976]},"properties":{"full_address":"四川省遂宁市船山区米市社区、滨河社区"}},{"type":"Feature","geometry":{"type":"Point","coordinates":[105.574282,30.500768]},"properties":{"full_address":"四川省遂宁市船山区南翠二路以北，机场北路以南，南航西路以西，渠河路以东"}},{"type":"Feature","geometry":{"type":"Point","coordinates":[105.553308,30.534369]},"properties":{"full_address":"四川省遂宁市船山区明月路Y字路口以北，半山枫景以南，交通局宿舍以西，御景山以东"}},{"type":"Feature","geometry":{"type":"Point","coordinates":[105.565481,30.533923]},"properties":{"full_address":"四川省遂宁市船山区明月东路以北，鸿发东街以南，滨江北路以西，遂州北路以东（不含雅居巷1号）"}},{"type":"Feature","geometry":{"type":"Point","coordinates":[105.555124,30.528424]},"properties":{"full_address":"四川省遂宁市船山区明月九洲小区"}},{"type":"Feature","geometry":{"type":"Point","coordinates":[105.562103,30.531284]},"properties":{"full_address":"四川省遂宁市船山区明月路以北，鸿发西街以南，北兴街以西，渠河北路以东（不含天峰街73号）"}},{"type":"Feature","geometry":{"type":"Point","coordinates":[105.564788,30.535126]},"properties":{"full_address":"四川省遂宁市船山区北兴公寓以北，福苑公寓以南，遂州北路以西，金泽蜀都小区以东"}},{"type":"Feature","geometry":{"type":"Point","coordinates":[105.565481,30.533923]},"properties":{"full_address":"四川省遂宁市船山区九莲东街以北，新星街以南，滨江北路以西，遂州北路以东（不含遂州北路610、不含滨江北路861-865号）"}},{"type":"Feature","geometry":{"type":"Point","coordinates":[105.565813,30.545056]},"properties":{"full_address":"四川省遂宁市船山区新星路以北，宏桥西街以南，遂州北路以西，渠河路以东"}},{"type":"Feature","geometry":{"type":"Point","coordinates":[105.561779,30.508465]},"properties":{"full_address":"四川省遂宁市船山区东坡小区一二期"}},{"type":"Feature","geometry":{"type":"Point","coordinates":[105.570269,30.518297]},"properties":{"full_address":"四川省遂宁市船山区向山棚户三期"}},{"type":"Feature","geometry":{"type":"Point","coordinates":[105.607044,30.522407]},"properties":{"full_address":"四川省遂宁市船山区新塘房小区"}},{"type":"Feature","geometry":{"type":"Point","coordinates":[105.607399,30.521423]},"properties":{"full_address":"四川省遂宁市船山区灵应寺小区"}},{"type":"Feature","geometry":{"type":"Point","coordinates":[105.609809,30.521249]},"properties":{"full_address":"四川省遂宁市船山区龙腾青年公社"}},{"type":"Feature","geometry":{"type":"Point","coordinates":[105.623034,30.509996]},"properties":{"full_address":"四川省遂宁市船山区遂宁应用高级技工学校"}},{"type":"Feature","geometry":{"type":"Point","coordinates":[105.568297,30.525475]},"properties":{"full_address":"四川省遂宁市船山区华翔城小区（5期除外）"}},{"type":"Feature","geometry":{"type":"Point","coordinates":[105.562185,30.50905]},"properties":{"full_address":"四川省遂宁市船山区景宸府小区"}},{"type":"Feature","geometry":{"type":"Point","coordinates":[105.556066,30.438538]},"properties":{"full_address":"四川省遂宁市船山区保升兴街、保升街道318线两侧"}},{"type":"Feature","geometry":{"type":"Point","coordinates":[105.569393,30.470613]},"properties":{"full_address":"四川省遂宁市船山区兴贸路以东纵横综合服务区"}},{"type":"Feature","geometry":{"type":"Point","coordinates":[105.58759,30.492794]},"properties":{"full_address":"四川省遂宁市船山区邮拱局社区"}},{"type":"Feature","geometry":{"type":"Point","coordinates":[105.570615,30.511392]},"properties":{"full_address":"四川省遂宁市船山区和平西路社区"}},{"type":"Feature","geometry":{"type":"Point","coordinates":[105.594322,30.540274]},"properties":{"full_address":"四川省遂宁市船山区联福家园二期"}},{"type":"Feature","geometry":{"type":"Point","coordinates":[105.57208,30.522179]},"properties":{"full_address":"四川省遂宁市船山区任家渡阳光小区2栋"}},{"type":"Feature","geometry":{"type":"Point","coordinates":[105.399982,30.51141]},"properties":{"full_address":"四川省遂宁市安居区常理镇铜钱村"}},{"type":"Feature","geometry":{"type":"Point","coordinates":[104.666405,28.776783]},"properties":{"full_address":"四川省宜宾市三江新区白沙湾街道地中海蓝湾一期"}},{"type":"Feature","geometry":{"type":"Point","coordinates":[106.678413,26.555518]},"properties":{"full_address":"贵州省贵阳市南明区花果园L2区10栋"}},{"type":"Feature","geometry":{"type":"Point","coordinates":[106.675231,26.56258]},"properties":{"full_address":"贵州省贵阳市南明区花果园Q区9栋"}},{"type":"Feature","geometry":{"type":"Point","coordinates":[106.678053,26.554718]},"properties":{"full_address":"贵州省贵阳市南明区花果园L2区11栋"}},{"type":"Feature","geometry":{"type":"Point","coordinates":[106.708091,26.586534]},"properties":{"full_address":"贵州省贵阳市云岩区中华北路与延安中路、人民大道、黔灵西路的合围区域"}},{"type":"Feature","geometry":{"type":"Point","coordinates":[106.696924,26.587578]},"properties":{"full_address":"贵州省贵阳市云岩区北京西路与枣山路、英烈路、双峰路的合围区域"}},{"type":"Feature","geometry":{"type":"Point","coordinates":[106.71824,26.607185]},"properties":{"full_address":"贵州省贵阳市云岩区沙河花园一期A1-A2、B-D栋、5-7栋区域"}},{"type":"Feature","geometry":{"type":"Point","coordinates":[106.702711,26.57863]},"properties":{"full_address":"贵州省贵阳市云岩区浣沙巷2号香狮华龙商住楼"}},{"type":"Feature","geometry":{"type":"Point","coordinates":[106.659238,26.474234]},"properties":{"full_address":"贵州省贵阳市花溪区花溪大道与铁路、民大围墙外围合围的竹林社区区域（除大职路566号及高风险区）"}},{"type":"Feature","geometry":{"type":"Point","coordinates":[106.674693,26.461041]},"properties":{"full_address":"贵州省贵阳市花溪区董家堰村二组（除214号-220号）"}},{"type":"Feature","geometry":{"type":"Point","coordinates":[106.817828,26.63731]},"properties":{"full_address":"贵州省贵阳市乌当区东风镇新街路（两侧部分区域）与堡子路口、同心路（两侧）、东风大道1-20号的合围区域（除高风险区域外）"}},{"type":"Feature","geometry":{"type":"Point","coordinates":[105.289493,27.309772]},"properties":{"full_address":"贵州省毕节市七星关区毕节八中"}},{"type":"Feature","geometry":{"type":"Point","coordinates":[106.036966,27.024166]},"properties":{"full_address":"贵州省毕节市七星关区市东街道香山郦居小区11栋"}},{"type":"Feature","geometry":{"type":"Point","coordinates":[106.020944,26.985378]},"properties":{"full_address":"贵州省毕节市黔西市莲城街道八块田社区（除6、7网格外）"}},{"type":"Feature","geometry":{"type":"Point","coordinates":[106.020944,26.985378]},"properties":{"full_address":"贵州省毕节市黔西市中华大道与S212（南环线）交叉口东南侧接八块田社区闭环区域"}},{"type":"Feature","geometry":{"type":"Point","coordinates":[106.041173,26.993051]},"properties":{"full_address":"贵州省毕节市黔西市中华大道与金黔大道（同心大道）交叉口西南侧接八块田社区闭环区域"}},{"type":"Feature","geometry":{"type":"Point","coordinates":[106.029799,27.009257]},"properties":{"full_address":"贵州省毕节市黔西市桦晨医院及备勤楼"}},{"type":"Feature","geometry":{"type":"Point","coordinates":[106.239049,27.465209]},"properties":{"full_address":"贵州省毕节市金沙县鼓场街道工农社区玉屏路一中路口至老养护段出口之间宿舍楼"}},{"type":"Feature","geometry":{"type":"Point","coordinates":[106.220919,27.456048]},"properties":{"full_address":"贵州省毕节市金沙县工农社区新华书店旁龙井巷与河滨路合围"}},{"type":"Feature","geometry":{"type":"Point","coordinates":[106.22797,27.459382]},"properties":{"full_address":"贵州省毕节市金沙县民兴街道金沙义乌商贸城区域"}},{"type":"Feature","geometry":{"type":"Point","coordinates":[106.228704,27.464333]},"properties":{"full_address":"贵州省毕节市金沙县鼓场街道工农社区红凯苑小区及其临街入口旁彩虹便利店左侧第一个巷道处临街建筑区域"}},{"type":"Feature","geometry":{"type":"Point","coordinates":[106.228176,27.465308]},"properties":{"full_address":"贵州省毕节市金沙县红岩社区龙五爷羊肉粉馆至老红岩酱园处沿街建筑区域"}},{"type":"Feature","geometry":{"type":"Point","coordinates":[106.085829,26.644492]},"properties":{"full_address":"贵州省毕节市织金县马场镇鸡场坝村"}},{"type":"Feature","geometry":{"type":"Point","coordinates":[106.07476,26.638348]},"properties":{"full_address":"贵州省毕节市织金县马场镇马家屯村"}},{"type":"Feature","geometry":{"type":"Point","coordinates":[106.085575,26.628254]},"properties":{"full_address":"贵州省毕节市织金县马场镇马场村"}},{"type":"Feature","geometry":{"type":"Point","coordinates":[106.017339,26.534112]},"properties":{"full_address":"贵州省毕节市织金县猫场镇新寨村"}},{"type":"Feature","geometry":{"type":"Point","coordinates":[105.96679,26.526483]},"properties":{"full_address":"贵州省毕节市织金县猫场镇国江村"}},{"type":"Feature","geometry":{"type":"Point","coordinates":[106.04314,26.53954]},"properties":{"full_address":"贵州省毕节市织金县猫场镇和平村"}},{"type":"Feature","geometry":{"type":"Point","coordinates":[106.000776,26.529955]},"properties":{"full_address":"贵州省毕节市织金县猫场镇四甲村"}},{"type":"Feature","geometry":{"type":"Point","coordinates":[106.061251,26.552744]},"properties":{"full_address":"贵州省毕节市织金县猫场镇大水田村"}},{"type":"Feature","geometry":{"type":"Point","coordinates":[106.040025,26.533625]},"properties":{"full_address":"贵州省毕节市织金县猫场镇高克村"}},{"type":"Feature","geometry":{"type":"Point","coordinates":[106.056078,26.566574]},"properties":{"full_address":"贵州省毕节市织金县猫场镇龙潭村"}},{"type":"Feature","geometry":{"type":"Point","coordinates":[106.058853,26.52341]},"properties":{"full_address":"贵州省毕节市织金县猫场镇窑上村"}},{"type":"Feature","geometry":{"type":"Point","coordinates":[105.986785,26.509234]},"properties":{"full_address":"贵州省毕节市织金县猫场镇凤平村"}},{"type":"Feature","geometry":{"type":"Point","coordinates":[105.43595,26.81738]},"properties":{"full_address":"贵州省毕节市纳雍县乐治镇高枧小学"}},{"type":"Feature","geometry":{"type":"Point","coordinates":[102.592934,24.967804]},"properties":{"full_address":"云南省昆明市西山区碧鸡街道长坡社区"}},{"type":"Feature","geometry":{"type":"Point","coordinates":[102.718241,24.956532]},"properties":{"full_address":"云南省昆明市西山区碧鸡社区碧鸡关隧道以西区域"}},{"type":"Feature","geometry":{"type":"Point","coordinates":[102.588402,24.946149]},"properties":{"full_address":"云南省昆明市安宁市太平街道滇和家园小区"}},{"type":"Feature","geometry":{"type":"Point","coordinates":[102.592461,24.952303]},"properties":{"full_address":"云南省昆明市安宁市中冠建材市场"}},{"type":"Feature","geometry":{"type":"Point","coordinates":[102.576637,24.952559]},"properties":{"full_address":"云南省昆明市安宁市时代贸港"}},{"type":"Feature","geometry":{"type":"Point","coordinates":[98.830305,23.759758]},"properties":{"full_address":"云南省临沧市镇康县南伞镇学子路2号"}},{"type":"Feature","geometry":{"type":"Point","coordinates":[103.163702,22.602969]},"properties":{"full_address":"云南省红河哈尼族彝族自治州金平苗族瑶族傣族自治县金水河镇那发街"}},{"type":"Feature","geometry":{"type":"Point","coordinates":[103.084785,22.662339]},"properties":{"full_address":"云南省红河哈尼族彝族自治州金平苗族瑶族傣族自治县勐拉镇供销社农贸市场"}},{"type":"Feature","geometry":{"type":"Point","coordinates":[103.163702,22.602969]},"properties":{"full_address":"云南省红河哈尼族彝族自治州金平苗族瑶族傣族自治县金水河镇曼棚村"}},{"type":"Feature","geometry":{"type":"Point","coordinates":[103.085268,22.6618]},"properties":{"full_address":"云南省红河哈尼族彝族自治州金平苗族瑶族傣族自治县勐拉镇阿刀烧烤店"}},{"type":"Feature","geometry":{"type":"Point","coordinates":[98.06534,24.077361]},"properties":{"full_address":"云南省德宏傣族景颇族自治州瑞丽市畹町镇国防街社区和民主街社区除高风险区外的区域，以及建设路社区部分区域"}},{"type":"Feature","geometry":{"type":"Point","coordinates":[97.85855,23.989484]},"properties":{"full_address":"云南省德宏傣族景颇族自治州瑞丽市勐卯镇团结村委会广拉一社网格A区除高风险区外的区域"}},{"type":"Feature","geometry":{"type":"Point","coordinates":[97.852712,23.990545]},"properties":{"full_address":"云南省德宏傣族景颇族自治州瑞丽市勐卯街道团结村委会滇弄一村民小组南片区除高风险区外的区域"}},{"type":"Feature","geometry":{"type":"Point","coordinates":[97.881141,24.002877]},"properties":{"full_address":"云南省德宏傣族景颇族自治州瑞丽市勐卯街道团结村委会等母村民小组南片区除高风险区以外区域"}},{"type":"Feature","geometry":{"type":"Point","coordinates":[97.87592,24.010125]},"properties":{"full_address":"云南省德宏傣族景颇族自治州瑞丽市勐卯街道勐龙沙社区锦福园小区二期除高风险区以外区域"}},{"type":"Feature","geometry":{"type":"Point","coordinates":[97.86685,24.022424]},"properties":{"full_address":"云南省德宏傣族景颇族自治州瑞丽市勐卯街道目瑙社区捷安商贸城网格G区除高风险区以外区域"}},{"type":"Feature","geometry":{"type":"Point","coordinates":[98.05338,24.073108]},"properties":{"full_address":"云南省德宏傣族景颇族自治州瑞丽市畹町镇建设路社区永安巷除高风险区以外区域"}},{"type":"Feature","geometry":{"type":"Point","coordinates":[97.827503,23.979255]},"properties":{"full_address":"云南省德宏傣族景颇族自治州瑞丽市勐卯街道姐东村委会大等贺村民小组除高风险区以外区域"}},{"type":"Feature","geometry":{"type":"Point","coordinates":[91.061076,29.660182]},"properties":{"full_address":"西藏自治区拉萨市城关区气象局安居苑"}},{"type":"Feature","geometry":{"type":"Point","coordinates":[91.163493,29.653321]},"properties":{"full_address":"西藏自治区拉萨市城关区东郊新安居园"}},{"type":"Feature","geometry":{"type":"Point","coordinates":[91.15665,29.656755]},"properties":{"full_address":"西藏自治区拉萨市城关区如意电梯公寓（藏热南路）"}},{"type":"Feature","geometry":{"type":"Point","coordinates":[91.135594,29.675344]},"properties":{"full_address":"西藏自治区拉萨市城关区色拉北路圣城花园"}},{"type":"Feature","geometry":{"type":"Point","coordinates":[91.140435,29.654792]},"properties":{"full_address":"西藏自治区拉萨市城关区金谷快捷酒店"}},{"type":"Feature","geometry":{"type":"Point","coordinates":[91.212193,29.639188]},"properties":{"full_address":"西藏自治区拉萨市城关区蔡公堂街道蔡村琅赛十一区东区"}},{"type":"Feature","geometry":{"type":"Point","coordinates":[91.134504,29.651852]},"properties":{"full_address":"西藏自治区拉萨市城关区冲赛康社区"}},{"type":"Feature","geometry":{"type":"Point","coordinates":[91.130543,29.65265]},"properties":{"full_address":"西藏自治区拉萨市城关区丹杰林社区（朵森格路中段以东）"}},{"type":"Feature","geometry":{"type":"Point","coordinates":[91.159084,29.655639]},"properties":{"full_address":"西藏自治区拉萨市城关区拉萨市第八中学（宿舍楼）"}},{"type":"Feature","geometry":{"type":"Point","coordinates":[91.13529,29.64676]},"properties":{"full_address":"西藏自治区拉萨市城关区绕赛社区（江苏路以北）"}},{"type":"Feature","geometry":{"type":"Point","coordinates":[91.132813,29.652227]},"properties":{"full_address":"西藏自治区拉萨市城关区夏萨苏社区"}},{"type":"Feature","geometry":{"type":"Point","coordinates":[91.119249,29.694817]},"properties":{"full_address":"西藏自治区拉萨市城关区娘热街道仁钦蔡村"}},{"type":"Feature","geometry":{"type":"Point","coordinates":[91.121675,29.671719]},"properties":{"full_address":"西藏自治区拉萨市城关区娘热路幸福新村"}},{"type":"Feature","geometry":{"type":"Point","coordinates":[91.151791,29.673656]},"properties":{"full_address":"西藏自治区拉萨市城关区扎细街道尼卓林社区尼卓苑及其周边（鑫福地汽修厂）"}},{"type":"Feature","geometry":{"type":"Point","coordinates":[91.153829,29.673625]},"properties":{"full_address":"西藏自治区拉萨市城关区扎细街道尼卓林社区蜀园小区西区"}},{"type":"Feature","geometry":{"type":"Point","coordinates":[91.167001,29.656604]},"properties":{"full_address":"西藏自治区拉萨市城关区嘎玛贡桑街道俄杰塘社区1、2、3、6组"}},{"type":"Feature","geometry":{"type":"Point","coordinates":[91.144379,29.622047]},"properties":{"full_address":"西藏自治区拉萨市城关区文创园区慈觉林村4组"}},{"type":"Feature","geometry":{"type":"Point","coordinates":[91.156486,29.727022]},"properties":{"full_address":"西藏自治区拉萨市城关区夺底街道（嘎贡安居苑、赛康福江家园、维巴村3组47号出租房）"}},{"type":"Feature","geometry":{"type":"Point","coordinates":[91.168402,29.652739]},"properties":{"full_address":"西藏自治区拉萨市城关区幸福家园B区"}},{"type":"Feature","geometry":{"type":"Point","coordinates":[91.129227,29.66972]},"properties":{"full_address":"西藏自治区拉萨市城关区文创园区幸福苑二区"}},{"type":"Feature","geometry":{"type":"Point","coordinates":[91.125242,29.692837]},"properties":{"full_address":"西藏自治区拉萨市城关区娘热街道阿坝林卡社区（除拉萨市卫生职工学校、拉萨市原高等师范专科学校东片区）"}},{"type":"Feature","geometry":{"type":"Point","coordinates":[91.137433,29.641667]},"properties":{"full_address":"西藏自治区拉萨市城关区林廓东路一巷三号水利局小区"}},{"type":"Feature","geometry":{"type":"Point","coordinates":[91.135746,29.657084]},"properties":{"full_address":"西藏自治区拉萨市城关区吉崩岗社区（除西藏自治区气象局、拉萨市第二中学、2号网格一区、2号网格二区、小昭寺路中段、市退役军人服务中心）"}},{"type":"Feature","geometry":{"type":"Point","coordinates":[91.134024,29.653278]},"properties":{"full_address":"西藏自治区拉萨市城关区木如社区（除下密院、吉崩岗小学、赛鑫商场、木如寺）"}},{"type":"Feature","geometry":{"type":"Point","coordinates":[91.137071,29.65134]},"properties":{"full_address":"西藏自治区拉萨市城关区吉日社区（除二号网格）"}},{"type":"Feature","geometry":{"type":"Point","coordinates":[91.097139,29.659272]},"properties":{"full_address":"西藏自治区拉萨市城关区功德林街道加措社区（除伊成检测站、箭达岗公寓、审计厅生活区、西藏革命纪念馆工地、自治区血液中心、拉萨七中、卫健委办公区、拉萨海关、中国石油（当热路）、自治区卫健委、旅游大厦、南方公司、诺迪康药业、自治区科技厅、文居苑（二区）、回族林卡、拉萨消防、西藏银行、自治区编译局、鸿运家具城、财政厅、西藏银行、中国银行、老鱼庄、西藏税务、十三幼儿园、自来水公司、中国人保财险、中国石化、哈达工地、巨龙铜业、生态环境厅、泰和国际、金珠路14号（国保支队）、丰田4S店、110便民支队、第三安居苑、财经学院、农银大学、圣州加气站、锦江之星酒店、自治区卫校、拉萨市农行退休基地、财康青年旅社、甘丹寺招待所、西藏自治区疾控中心第二工作区、拉萨市运管局、尼泊尔领事馆、加措社区居委会、金陵酒店、泽当饭店、环球大厦、区工人疗养院、交警总队、银都宾馆）"}},{"type":"Feature","geometry":{"type":"Point","coordinates":[91.244615,29.646065]},"properties":{"full_address":"西藏自治区拉萨市城关区蔡公堂街道恩惠苑社区（恩惠苑小区、、翰林苑除17栋、拉萨师范高等专科学校、拉萨市第二高级中学）"}},{"type":"Feature","geometry":{"type":"Point","coordinates":[91.129378,29.656709]},"properties":{"full_address":"西藏自治区拉萨市城关区策门林社区（朵森格路北段以东）（除西藏日报、朵森格路北段东侧门店、策门林商场）"}},{"type":"Feature","geometry":{"type":"Point","coordinates":[91.129855,29.657839]},"properties":{"full_address":"西藏自治区拉萨市城关区热木其社区（除温州商贸城、农行退休基地、华清池、康萨强院、江热大院、老幼儿园院、桑珠康萨院、玉卡后院、果热庆姆院、德吉康萨院、卓东瓦院、果热久久院）"}},{"type":"Feature","geometry":{"type":"Point","coordinates":[91.144932,29.649013]},"properties":{"full_address":"西藏自治区拉萨市城关区八朗学社区（除公安五处、李振华出租房、国家电网、城中工商分局、神牛公司、经济委（包含门面）、神牛门面、林聚路林聚小区、市教育局、电力小区、武装部、林聚路巴桑（私房））"}},{"type":"Feature","geometry":{"type":"Point","coordinates":[91.139802,29.643203]},"properties":{"full_address":"西藏自治区拉萨市城关区河坝林社区（林廓东路以西）（除波林卡体育场、拉萨市第一初级中学、林廓东路以西（私房）、西藏自治区体育局）"}},{"type":"Feature","geometry":{"type":"Point","coordinates":[91.140457,29.654531]},"properties":{"full_address":"西藏自治区拉萨市城关区白林社区（江苏路以北）（除白林社区1号网格、白林社区2号网格、生态路嚓荣）"}},{"type":"Feature","geometry":{"type":"Point","coordinates":[91.123908,29.672027]},"properties":{"full_address":"西藏自治区拉萨市城关区功德林街道幸福社区（除娘热南路15号国豪商务宾馆、卓玛医院、布达拉宫退休基地、博物馆退休基地、审计厅办公区、彩泉福利学校、自治区医保局、自治区妇联、宣传部退休基地、自治区药监局、自治区林草局、扎西热旦小区、自治区住建厅及生活区外的其他区域）"}},{"type":"Feature","geometry":{"type":"Point","coordinates":[91.147544,29.673285]},"properties":{"full_address":"西藏自治区拉萨市城关区扎细街道尼卓林社区琅赛9区北区"}},{"type":"Feature","geometry":{"type":"Point","coordinates":[91.128013,29.662633]},"properties":{"full_address":"西藏自治区拉萨市城关区扎细街道团结新村社区（除拉萨市第三小学、拉萨市规划设计院、自治区国资委、自治区藏医院、自治区疾控中心、阜康医院住院部、纳木措宾馆、自治区设计院、农投商贸有限公司、香嘎小区、北郊自来水厂、幸福苑）"}},{"type":"Feature","geometry":{"type":"Point","coordinates":[91.145021,29.674679]},"properties":{"full_address":"西藏自治区拉萨市城关区扎细街道扎细社区（除自治区水利厅、机修厂、军械厂、扎细社区合作社、自治区司法医院、自治区税务周转房）"}},{"type":"Feature","geometry":{"type":"Point","coordinates":[91.13227,29.668685]},"properties":{"full_address":"西藏自治区拉萨市城关区扎细街道扎细新村社区（除娘热路农行、区直工委退休基地、边防小区、拉萨市城市管理局、中央粮食储备库、自治区运管局、国网拉萨供电公司、拉萨市养护处、科技厅生活区、政府一号退休基地、国网西藏超高压公司、一江两河退休基地、城北工商、拉萨市净土、圣美家超市、哈达购物广场）"}},{"type":"Feature","geometry":{"type":"Point","coordinates":[91.136698,29.66346]},"properties":{"full_address":"西藏自治区拉萨市城关区扎细街道雄嘎社区（除自治区乡村振兴局、自治区外事办、童嘎语言学校、拉萨市人社局、自治区电力科学研究院、拉萨支队生活区、众创空间、自治区银监局、拉萨市禁毒支队）"}},{"type":"Feature","geometry":{"type":"Point","coordinates":[91.137567,29.682533]},"properties":{"full_address":"西藏自治区拉萨市城关区夺底街道桑伊社区（除党群服务中心、煜宸公寓、北城新天地广场、圣地天然矿泉水公司、中行退休基地（夺底北路）、凯旋盛世（社区）、拉康小区、生药厂生活区、粮食仓库、那曲发改委退休基地、米琼日山脚仓库、拉萨市就业中心、御品世家、昌都交通局退休基地、金属小区、自治区畜科所、东尊名城、天海仓库、拉萨电信城北分局、高争民爆物资公司生活区、拉萨啤酒厂、拉萨啤酒厂生活区、西农小区、阿里交通退休基地）"}},{"type":"Feature","geometry":{"type":"Point","coordinates":[91.211692,29.64444]},"properties":{"full_address":"西藏自治区拉萨市城关区蔡公堂街道蔡村2组"}},{"type":"Feature","geometry":{"type":"Point","coordinates":[91.116566,29.660247]},"properties":{"full_address":"西藏自治区拉萨市城关区功德林街道雪社区（除天海吉祥花园B区、纪念碑电信大厦、法官学院办公区、拉威国际酒店、兰泽宾馆、农行城西支行、德吉南路15号上海大厦、璟城国际商务酒店、展览中心退休基地、三中教育小区、西郊电信生活区、接待车队、第十二幼儿园、香格里拉大酒店、豪庭酒店、舒尚客观景酒店、浦发银行、滨河公园、自治区四号院、区交通厅路网监测中心、国网电力研究中心、国家电网、自来水退休基地、世纪广场、娟珠茶园、展览中心退休基地、自治区博物馆、自治区图书馆办公区、汽工贸德丹林、天运交通公司、自治区交通厅、自治区公路局、自治区测绘局、自治区法官学院、自治区人大、军区三所居民区、公馆、公德林派出所、自治区税务局、德吉支路教育安居南苑、自治区电化教育馆、蕃瑞大厦、西藏援藏基金会及生活区、德吉北路建行退休基地、自治区教材编译中心、教育厅内安居南苑、中国石油站、西藏交通发展集团、自治区旅游发展委员会、功德林天街、兰泽公寓、中国银行、市公安局刑警支队、第三中学、天海夜市、外运小区）"}},{"type":"Feature","geometry":{"type":"Point","coordinates":[91.057399,29.660478]},"properties":{"full_address":"西藏自治区拉萨市城关区金珠西路街道当巴社区（除北京西路39号西藏自治区烟草公司拉萨市公司、经信厅、文君苑十区、简约公寓、顺通小区、窝家大院、玄鹤公寓、崔宗华出租房、阮氏公寓、志华出租房、鹏曦公寓、德布出租房、文君苑9区、勇耀公寓、西藏自治区人力资源与社会保障厅、人大退休基地、西藏自治区交通综合执法总队、广电032台、镖局集团、拉鲁湿地管理局、天成矿业片区、鲁定小区、青藏公路退休基地、丽都片区、荣信片区、安禾之家、交通安居苑、顺通城市花园、协和片区、电杆厂、吉日仓库、吉日商贸、哲蚌寺集体经济地、地勘实验中心、雷达团、展览馆退休基地、美朵林卡小区、九州片区、人保退休基地、天顺小区、尼威小区）"}},{"type":"Feature","geometry":{"type":"Point","coordinates":[91.133779,29.679983]},"properties":{"full_address":"西藏自治区拉萨市城关区娘热街道慈松塘社区（除惠华公寓、达杰园林、慈松塘扶贫出租房、山河堂、新华印刷厂、水上公园、自治区残疾人康复中心、自治区游泳馆、顺通公司、师范附小、城北消防大队、矿业发展总公司、西藏自治区广播电视局031台、西藏自治区地勘局第二地质大队、西藏自治区工业物资运销公司退休基地、色拉北路37号、沃诺仓大厦、顺通小区、巴尔库大厦、城北暖心公司、矿业生活小区、拉萨市环卫局、顺通大厦、自治区体校）"}},{"type":"Feature","geometry":{"type":"Point","coordinates":[91.192691,29.664723]},"properties":{"full_address":"西藏自治区拉萨市城关区纳金街道纳金村（除宝萨翠湖庄园、彩砖厂、安能西藏公司、碧桂园、琅赛安居苑、拉萨规划建设展览馆、市公交公司东郊总站、市园林局、市气象局、纳金东路7号市公安局、城馨苑、香巴拉豪庭小区、古泽小区、外贸退休基地）"}},{"type":"Feature","geometry":{"type":"Point","coordinates":[91.178559,29.661954]},"properties":{"full_address":"西藏自治区拉萨市城关区纳金街道纳如社区（除未来城小区、城关花园D区、城祥苑、纳如社区安全厅训练基地、纳如社区城投垃圾转运站、纳如社区钢管厂、拉萨市林草局、东城一品、江苏援藏指挥部、纳如老木材市场、纳如社区宏发汽车检测中心、纳如社区奇正藏药用地、纳如综合楼、乐居苑）"}},{"type":"Feature","geometry":{"type":"Point","coordinates":[91.177742,29.643063]},"properties":{"full_address":"西藏自治区拉萨市城关区纳金街道塔玛村（除区水电资源勘测局、区专用通信局、西藏绿办、市外事办、茶马名居、西藏自治区残疾人就业服务中心、文化宫、自治区广播电视拉萨中波转播台、昌都公安工作站小区、政法委退休基地、拉萨市市场监督管理局、城市管理综合执法队、拉萨市网监支队、拉萨市城南交警大队、城关区消防救援大队、拉萨市信访局、吉日派出所、区广电局拉萨监测台、区广电局影视资料库工地、市残疾人就业服务中心、中国人民银行、市税务局生活区、司法局、市妇联、市行政审批和便民服务局、团市委、市总工会、市国资委、自治区广播电视局、经信局、市检察院、城关区市场监督管理局、中国建设银行东城区支行、实验小学东城分校、墨竹办事处、拉萨市旅游局、拉萨市中级人民法院、市宗教事务局、市残疾人康复中心、西藏自然科学博物馆、区科协、国建队分库、市住建局、区自然资源局、暖心公司、市侨务办、城关区检察院、市水利监测中心、自治区残联生活区、城关区第24幼儿园、塔玛村雪山燃气片区、塔玛村歌舞团、宏发小区、藏大东路10号、1号网格滨河路工地、塔玛村委会、东君文化府、阳吉华苑（一期）、东苑小区）"}},{"type":"Feature","geometry":{"type":"Point","coordinates":[91.076627,29.645311]},"properties":{"full_address":"西藏自治区拉萨市城关区金珠西路街道八一社区（除格桑美域小区、世邦城市花园小区、金藏林卡小区、藏游坛城、春天花园小区、解甲园小区、鲲祥苑、八一农场小区、世邦金色时代、城发商厦、鲲泰建设大厦、平安小区、金典大厦、自治区商务厅、红十字会、八一校、老刘出租房、云水谣、城发大厦、当巴小学、城投大厦、藏药博物馆、八一菜市场、厚兰医院、林草局、应急救援中心、自治区农行、拉萨印象、国际花园、藏大西苑、自治区高法、自治区人力资源市场管理服务中心、马蓉出租房、岗培中心、一建司、岗旋出租房、中兴加油站、圣城锦苑、城西交警支队、国家开发银行西藏自治区分行、金珠西路派出所、民航退休基地、农垦大厦、中国邮政储蓄银行（拉萨支行）、中国建设银行金珠西路支行、金珠花苑）"}},{"type":"Feature","geometry":{"type":"Point","coordinates":[91.051911,29.63722]},"properties":{"full_address":"西藏自治区拉萨市城关区金珠西路街道洛堆社区（除第九安居园2、3、5院、中华主题公园、拉萨市自来水公司西郊水厂、西藏地矿物资供销公司、西藏地勘局地热地质大队、康雅花园小区、七一1、2、3小区、西藏自治区农科院、堆龙退休基地片区、康达驾校片区、彩虹湾汽车厂、三医院片区、移动公司、青藏高原研究院、革鑫车院片区、洛堆社区片区、货运总站片区、盛域滨江小区、天一江畔公寓、巴扎小区，第九安居园1号院、4号院、吉曲玉景、荣鑫大院出租房片区）"}},{"type":"Feature","geometry":{"type":"Point","coordinates":[91.155502,29.666065]},"properties":{"full_address":"西藏自治区拉萨市城关区纳金街道加荣社区居委会"}},{"type":"Feature","geometry":{"type":"Point","coordinates":[90.975658,29.655546]},"properties":{"full_address":"西藏自治区拉萨市堆龙德庆区桑木社区1-5组"}},{"type":"Feature","geometry":{"type":"Point","coordinates":[91.068316,29.626199]},"properties":{"full_address":"西藏自治区拉萨市堆龙德庆区拉萨之窗小区"}},{"type":"Feature","geometry":{"type":"Point","coordinates":[91.083277,29.618727]},"properties":{"full_address":"西藏自治区拉萨市堆龙德庆区金马国际及其周边（除桑旦林一期小区、旅游花园外的其他区域）"}},{"type":"Feature","geometry":{"type":"Point","coordinates":[91.081299,29.613887]},"properties":{"full_address":"西藏自治区拉萨市堆龙德庆区祥云华府及其周边（除柳梧新村小区、南岸天都）"}},{"type":"Feature","geometry":{"type":"Point","coordinates":[91.085088,29.616424]},"properties":{"full_address":"西藏自治区拉萨市堆龙德庆区海亮一期及其周边（除海亮颇章小区、响冲小区、亚洲湾水汇度假酒店）"}},{"type":"Feature","geometry":{"type":"Point","coordinates":[108.694916,34.345561]},"properties":{"full_address":"陕西省咸阳市秦都区古渡街道珠泉新城荣具车行及东侧玻璃店、天能电池、精剪发艺，西侧大众诊所、尚峰造型"}},{"type":"Feature","geometry":{"type":"Point","coordinates":[108.696081,34.344326]},"properties":{"full_address":"陕西省咸阳市秦都区古渡街道泉北二巷内眼镜蛋糕店"}},{"type":"Feature","geometry":{"type":"Point","coordinates":[108.714958,34.332953]},"properties":{"full_address":"陕西省咸阳市秦都区人民路街道嘉惠商场"}},{"type":"Feature","geometry":{"type":"Point","coordinates":[108.715429,34.335355]},"properties":{"full_address":"陕西省咸阳市秦都区人民中路世纪金花商场"}},{"type":"Feature","geometry":{"type":"Point","coordinates":[108.714294,34.335882]},"properties":{"full_address":"陕西省咸阳市秦都区人民中路大唐购物中心"}},{"type":"Feature","geometry":{"type":"Point","coordinates":[108.676523,34.311027]},"properties":{"full_address":"陕西省咸阳市秦都区三号桥北口赵氏骨科"}},{"type":"Feature","geometry":{"type":"Point","coordinates":[108.64978,34.310135]},"properties":{"full_address":"陕西省咸阳市秦都区咸阳市高新区高新一中"}},{"type":"Feature","geometry":{"type":"Point","coordinates":[108.706272,34.329567]},"properties":{"full_address":"陕西省咸阳市秦都区汇通十字聚饺天下鲜饺店"}},{"type":"Feature","geometry":{"type":"Point","coordinates":[108.650241,34.275828]},"properties":{"full_address":"陕西省咸阳市秦都区汇通十字老潼关肉夹馍店"}},{"type":"Feature","geometry":{"type":"Point","coordinates":[108.706272,34.329567]},"properties":{"full_address":"陕西省咸阳市秦都区汇通十字钱塘潮麻辣烫店"}},{"type":"Feature","geometry":{"type":"Point","coordinates":[108.722057,34.357404]},"properties":{"full_address":"陕西省咸阳市渭城区纬中路以西、杜家堡路以北、新兴北路以东、文林路以南区域[不含中铁二十局基地家属院（东西院）、美林佳苑、咸阳市第一军干所等3个小区]"}},{"type":"Feature","geometry":{"type":"Point","coordinates":[108.721659,34.357518]},"properties":{"full_address":"陕西省咸阳市渭城区渭阳街道文林路与文科二路东北角新润家美食城"}},{"type":"Feature","geometry":{"type":"Point","coordinates":[108.730168,34.349218]},"properties":{"full_address":"陕西省咸阳市渭城区渭城区西藏民族大学3号学生公寓楼"}},{"type":"Feature","geometry":{"type":"Point","coordinates":[108.720506,34.352258]},"properties":{"full_address":"陕西省咸阳市渭城区毕塬路十字京小盒超市"}},{"type":"Feature","geometry":{"type":"Point","coordinates":[108.7303,34.338199]},"properties":{"full_address":"陕西省咸阳市渭城区北门口华润万家超市"}},{"type":"Feature","geometry":{"type":"Point","coordinates":[108.720292,34.335605]},"properties":{"full_address":"陕西省咸阳市渭城区人民中路中央领域小区"}},{"type":"Feature","geometry":{"type":"Point","coordinates":[104.122085,36.544265]},"properties":{"full_address":"甘肃省白银市白银区京怡家园除4号楼以外区域"}},{"type":"Feature","geometry":{"type":"Point","coordinates":[104.124062,36.544146]},"properties":{"full_address":"甘肃省白银市白银区欣武家园"}},{"type":"Feature","geometry":{"type":"Point","coordinates":[104.122127,36.540819]},"properties":{"full_address":"甘肃省白银市白银区狄家台小区"}},{"type":"Feature","geometry":{"type":"Point","coordinates":[104.124229,36.54113]},"properties":{"full_address":"甘肃省白银市白银区安丽小区"}},{"type":"Feature","geometry":{"type":"Point","coordinates":[104.189361,36.542319]},"properties":{"full_address":"甘肃省白银市白银区馨园小区32号楼"}},{"type":"Feature","geometry":{"type":"Point","coordinates":[104.477596,37.137343]},"properties":{"full_address":"甘肃省白银市靖远县双龙镇双龙村"}},{"type":"Feature","geometry":{"type":"Point","coordinates":[104.467846,37.083251]},"properties":{"full_address":"甘肃省白银市靖远县双龙镇城川村"}},{"type":"Feature","geometry":{"type":"Point","coordinates":[104.97837,37.01552]},"properties":{"full_address":"甘肃省白银市靖远县东升镇除高风险区以外区域"}},{"type":"Feature","geometry":{"type":"Point","coordinates":[105.23213,36.875]},"properties":{"full_address":"甘肃省白银市靖远县靖安乡除高风险区以外区域"}},{"type":"Feature","geometry":{"type":"Point","coordinates":[104.877021,37.029807]},"properties":{"full_address":"甘肃省白银市靖远县北滩镇全域"}},{"type":"Feature","geometry":{"type":"Point","coordinates":[102.817252,36.323733]},"properties":{"full_address":"青海省海东市民和回族土族自治县川口镇丽都庭院小区"}},{"type":"Feature","geometry":{"type":"Point","coordinates":[102.82574,36.320948]},"properties":{"full_address":"青海省海东市民和回族土族自治县馨苑小区"}},{"type":"Feature","geometry":{"type":"Point","coordinates":[102.834441,35.884738]},"properties":{"full_address":"青海省海东市民和回族土族自治县中川乡清一村"}},{"type":"Feature","geometry":{"type":"Point","coordinates":[102.819183,35.908868]},"properties":{"full_address":"青海省海东市民和回族土族自治县河西村"}},{"type":"Feature","geometry":{"type":"Point","coordinates":[102.80316,35.948937]},"properties":{"full_address":"青海省海东市民和回族土族自治县虎狼城村"}},{"type":"Feature","geometry":{"type":"Point","coordinates":[102.840116,35.875961]},"properties":{"full_address":"青海省海东市民和回族土族自治县中川街道"}},{"type":"Feature","geometry":{"type":"Point","coordinates":[102.830854,36.004478]},"properties":{"full_address":"青海省海东市民和回族土族自治县前河乡田家村"}},{"type":"Feature","geometry":{"type":"Point","coordinates":[102.523215,35.905472]},"properties":{"full_address":"青海省海东市化隆回族自治县金源乡旦斗寺"}},{"type":"Feature","geometry":{"type":"Point","coordinates":[94.915916,36.406521]},"properties":{"full_address":"青海省海西蒙古族藏族自治州格尔木市星龙小区二期"}},{"type":"Feature","geometry":{"type":"Point","coordinates":[94.915684,36.403264]},"properties":{"full_address":"青海省海西蒙古族藏族自治州格尔木市宁靓小区及沿街商铺"}},{"type":"Feature","geometry":{"type":"Point","coordinates":[90.80729,38.250777]},"properties":{"full_address":"青海省海西蒙古族藏族自治州茫崖市中铁青藏集团公司花土沟站"}},{"type":"Feature","geometry":{"type":"Point","coordinates":[87.647385,43.763741]},"properties":{"full_address":"新疆维吾尔自治区乌鲁木齐市天山区延安路街道西域轻工社区"}},{"type":"Feature","geometry":{"type":"Point","coordinates":[87.613959,43.779373]},"properties":{"full_address":"新疆维吾尔自治区乌鲁木齐市天山区二道桥街道福寿巷社区除民政厅家属院、经贸厅家属院其他区域"}},{"type":"Feature","geometry":{"type":"Point","coordinates":[87.650056,43.763139]},"properties":{"full_address":"新疆维吾尔自治区乌鲁木齐市天山区红雁街道东大梁社区东大梁和顺三期C区、D区"}},{"type":"Feature","geometry":{"type":"Point","coordinates":[87.627979,43.778191]},"properties":{"full_address":"新疆维吾尔自治区乌鲁木齐市天山区团结路街道后泉路社区后泉路170号家属院"}},{"type":"Feature","geometry":{"type":"Point","coordinates":[87.631479,43.771346]},"properties":{"full_address":"新疆维吾尔自治区乌鲁木齐市天山区南湾街街道波斯坦巷社区波斯坦巷145号波斯坦小区"}},{"type":"Feature","geometry":{"type":"Point","coordinates":[87.61941,43.77687]},"properties":{"full_address":"新疆维吾尔自治区乌鲁木齐市天山区团结路街道团结社区团结路410号十九小家属院"}},{"type":"Feature","geometry":{"type":"Point","coordinates":[87.628351,43.763683]},"properties":{"full_address":"新疆维吾尔自治区乌鲁木齐市天山区赛马场街道大湾南社区延安路南二巷190号琪蔓华庭"}},{"type":"Feature","geometry":{"type":"Point","coordinates":[87.62019,43.788334]},"properties":{"full_address":"新疆维吾尔自治区乌鲁木齐市天山区解放南路街道建中社区建中路87号高层宝亨商务港"}},{"type":"Feature","geometry":{"type":"Point","coordinates":[87.618574,43.796906]},"properties":{"full_address":"新疆维吾尔自治区乌鲁木齐市天山区大小西门街道中山路社区民主路196号电力宾馆家属院"}},{"type":"Feature","geometry":{"type":"Point","coordinates":[87.64333,43.8106]},"properties":{"full_address":"新疆维吾尔自治区乌鲁木齐市天山区碱泉街道青年路东社区青年路北二巷2号优诗美地二期"}},{"type":"Feature","geometry":{"type":"Point","coordinates":[87.616345,43.760603]},"properties":{"full_address":"新疆维吾尔自治区乌鲁木齐市天山区赛马场街道巴哈尔路南社区巴哈尔路98号石化小区"}},{"type":"Feature","geometry":{"type":"Point","coordinates":[87.594788,43.771563]},"properties":{"full_address":"新疆维吾尔自治区乌鲁木齐市沙依巴克区炉院街街道炉院街社区金粮源小区"}},{"type":"Feature","geometry":{"type":"Point","coordinates":[87.594755,43.912997]},"properties":{"full_address":"新疆维吾尔自治区乌鲁木齐市新市区正扬路街道冬融街社区"}},{"type":"Feature","geometry":{"type":"Point","coordinates":[87.592215,43.937276]},"properties":{"full_address":"新疆维吾尔自治区乌鲁木齐市新市区正扬路街道正扬社区"}},{"type":"Feature","geometry":{"type":"Point","coordinates":[87.603421,43.834497]},"properties":{"full_address":"新疆维吾尔自治区乌鲁木齐市新市区正扬路街道东站北社区"}},{"type":"Feature","geometry":{"type":"Point","coordinates":[87.589997,43.969079]},"properties":{"full_address":"新疆维吾尔自治区乌鲁木齐市新市区正扬路街道金藤社区"}},{"type":"Feature","geometry":{"type":"Point","coordinates":[87.591861,43.919315]},"properties":{"full_address":"新疆维吾尔自治区乌鲁木齐市新市区正扬路街道抚顺街社区"}},{"type":"Feature","geometry":{"type":"Point","coordinates":[87.592162,43.900988]},"properties":{"full_address":"新疆维吾尔自治区乌鲁木齐市新市区北京路以东、长春中路以西、喀什路以北、上沙河路以南区域"}},{"type":"Feature","geometry":{"type":"Point","coordinates":[87.599501,43.906901]},"properties":{"full_address":"新疆维吾尔自治区乌鲁木齐市新市区喀什东路街道五建社区东方御景小区"}},{"type":"Feature","geometry":{"type":"Point","coordinates":[87.544108,43.861021]},"properties":{"full_address":"新疆维吾尔自治区乌鲁木齐市新市区石油新村街道阿勒泰路社区天汇世纪花园小区"}},{"type":"Feature","geometry":{"type":"Point","coordinates":[87.601155,43.840283]},"properties":{"full_address":"新疆维吾尔自治区乌鲁木齐市水磨沟区振安街街道鸿园南路东社区鸿和苑小区"}},{"type":"Feature","geometry":{"type":"Point","coordinates":[87.619165,43.923605]},"properties":{"full_address":"新疆维吾尔自治区乌鲁木齐市米东区永祥街片区华丰社区新华凌市场土产区"}},{"type":"Feature","geometry":{"type":"Point","coordinates":[87.629911,43.914593]},"properties":{"full_address":"新疆维吾尔自治区乌鲁木齐市米东区卡子湾片区创业社区弘业路3598号书香雅地小区"}},{"type":"Feature","geometry":{"type":"Point","coordinates":[89.152378,42.962281]},"properties":{"full_address":"新疆维吾尔自治区吐鲁番市高昌区新城片区克孜勒吐尔社区"}},{"type":"Feature","geometry":{"type":"Point","coordinates":[89.179647,42.956609]},"properties":{"full_address":"新疆维吾尔自治区吐鲁番市高昌区南门社区南门小区"}},{"type":"Feature","geometry":{"type":"Point","coordinates":[89.189148,42.944941]},"properties":{"full_address":"新疆维吾尔自治区吐鲁番市高昌区高昌路街道王府里小区"}},{"type":"Feature","geometry":{"type":"Point","coordinates":[86.151581,41.752032]},"properties":{"full_address":"新疆维吾尔自治区巴音郭楞蒙古自治州库尔勒市朝阳街道丰源社区凯旋公馆A区"}},{"type":"Feature","geometry":{"type":"Point","coordinates":[86.16763,41.73811]},"properties":{"full_address":"新疆维吾尔自治区巴音郭楞蒙古自治州库尔勒市朝阳街道华夏名门社区塔河明城小区"}},{"type":"Feature","geometry":{"type":"Point","coordinates":[81.337066,43.905491]},"properties":{"full_address":"新疆维吾尔自治区伊犁哈萨克自治州伊宁市都来提巴格街道都来提巴格社区"}},{"type":"Feature","geometry":{"type":"Point","coordinates":[81.333676,43.900817]},"properties":{"full_address":"新疆维吾尔自治区伊犁哈萨克自治州伊宁市塔什科瑞克乡新路街社区"}},{"type":"Feature","geometry":{"type":"Point","coordinates":[81.34361,43.908089]},"properties":{"full_address":"新疆维吾尔自治区伊犁哈萨克自治州伊宁市喀尔墩乡景苑社区"}},{"type":"Feature","geometry":{"type":"Point","coordinates":[81.367999,43.893707]},"properties":{"full_address":"新疆维吾尔自治区伊犁哈萨克自治州伊宁市喀尔墩乡花果山村"}},{"type":"Feature","geometry":{"type":"Point","coordinates":[81.35067,43.92573]},"properties":{"full_address":"新疆维吾尔自治区伊犁哈萨克自治州伊宁市喀尔墩乡英阿亚提村"}},{"type":"Feature","geometry":{"type":"Point","coordinates":[81.333394,43.913199]},"properties":{"full_address":"新疆维吾尔自治区伊犁哈萨克自治州伊宁市新华东路苏碧怡大厦"}},{"type":"Feature","geometry":{"type":"Point","coordinates":[81.366253,43.915644]},"properties":{"full_address":"新疆维吾尔自治区伊犁哈萨克自治州伊宁市喀尔墩乡伊勒力干也尔社区和谐小区"}},{"type":"Feature","geometry":{"type":"Point","coordinates":[81.354791,43.919115]},"properties":{"full_address":"新疆维吾尔自治区伊犁哈萨克自治州伊宁市喀赞其街道莫伊克社区民生小区"}},{"type":"Feature","geometry":{"type":"Point","coordinates":[81.330127,43.897743]},"properties":{"full_address":"新疆维吾尔自治区伊犁哈萨克自治州伊宁市喀赞其街道托特度康社区果园街十巷"}},{"type":"Feature","geometry":{"type":"Point","coordinates":[81.352093,43.906124]},"properties":{"full_address":"新疆维吾尔自治区伊犁哈萨克自治州伊宁市琼科瑞克街道拜合特社区幸福街三巷"}},{"type":"Feature","geometry":{"type":"Point","coordinates":[81.647593,43.878493]},"properties":{"full_address":"新疆维吾尔自治区伊犁哈萨克自治州伊宁县愉群翁回族乡斯拉木于孜村"}},{"type":"Feature","geometry":{"type":"Point","coordinates":[84.742482,44.398894]},"properties":{"full_address":"新疆维吾尔自治区塔城地区乌苏市奎河街道金穗园小区"}},{"type":"Feature","geometry":{"type":"Point","coordinates":[84.712838,44.442869]},"properties":{"full_address":"新疆维吾尔自治区塔城地区乌苏市八十四户乡"}},{"type":"Feature","geometry":{"type":"Point","coordinates":[84.680958,44.432707]},"properties":{"full_address":"新疆维吾尔自治区塔城地区乌苏市南苑街道安达倾城片区、捷特小区、清华园小区、路园小区、电北小区、春晖巷、技术监督局小区、城建小区、房管局小区、园丁小区、海事局小区、万森花园、邮政小区、监狱及物资局平房区、家和小区、文心巷、长征路沿街商铺、电力南院小区、育才巷"}},{"type":"Feature","geometry":{"type":"Point","coordinates":[84.677572,44.442438]},"properties":{"full_address":"新疆维吾尔自治区塔城地区乌苏市虹桥街道94号院、96号院、幸福小区、博雅小区、和平花园、解放路社区平房区、明珠小区、新华小区、美丽园小区、和谐小区、和平小区、华鑫小区、林场家属楼<含虹桥雅苑>、博馨苑小区、人民医院家属楼、虹桥小区、金盾小区、老政府家属院、水榭名苑小区、水榭名苑小区廉租房、老市委家属楼、宜居小区、团结路社区平房区2区、飞云楼"}}]}