{"type":"FeatureCollection","features":[{"type":"Feature","geometry":{"type":"Point","coordinates":[116.469512,39.882055]},"properties":{"province":"北京市","city":"朝阳区","county":"劲松街道","community":"农光东里社区","full_address":"北京市朝阳区劲松街道农光东里社区","info":""}},{"type":"Feature","geometry":{"type":"Point","coordinates":[116.492067,40.043867]},"properties":{"province":"北京市","city":"朝阳区","county":"南磨房（地区）乡","community":"双龙西社区","full_address":"北京市朝阳区南磨房（地区）乡双龙西社区","info":""}},{"type":"Feature","geometry":{"type":"Point","coordinates":[116.482204,39.851558]},"properties":{"province":"北京市","city":"朝阳区","county":"十八里店（地区）乡","community":"周家庄村","full_address":"北京市朝阳区十八里店（地区）乡周家庄村","info":""}},{"type":"Feature","geometry":{"type":"Point","coordinates":[116.290609,39.844952]},"properties":{"province":"北京市","city":"丰台区","county":"五里店街道","community":"彩虹北社区","full_address":"北京市丰台区五里店街道彩虹北社区","info":""}},{"type":"Feature","geometry":{"type":"Point","coordinates":[116.19704,39.912893]},"properties":{"province":"北京市","city":"海淀区","county":"北太平庄街道","community":"索家坟社区首钢小区","full_address":"北京市海淀区北太平庄街道索家坟社区首钢小区","info":""}},{"type":"Feature","geometry":{"type":"Point","coordinates":[116.039634,39.777311]},"properties":{"province":"北京市","city":"房山区","county":"青龙湖镇","community":"青龙湖村","full_address":"北京市房山区青龙湖镇青龙湖村","info":""}},{"type":"Feature","geometry":{"type":"Point","coordinates":[116.083569,39.72191]},"properties":{"province":"北京市","city":"房山区","county":"阎村镇","community":"大紫草坞村","full_address":"北京市房山区阎村镇大紫草坞村","info":""}},{"type":"Feature","geometry":{"type":"Point","coordinates":[116.08276,39.582331]},"properties":{"province":"北京市","city":"房山区","county":"琉璃河（地区）镇","community":"祖村","full_address":"北京市房山区琉璃河（地区）镇祖村","info":""}},{"type":"Feature","geometry":{"type":"Point","coordinates":[116.037025,39.61904]},"properties":{"province":"北京市","city":"房山区","county":"琉璃河（地区）镇","community":"滨水雅园小区西区","full_address":"北京市房山区琉璃河（地区）镇滨水雅园小区西区","info":""}},{"type":"Feature","geometry":{"type":"Point","coordinates":[116.081557,39.653235]},"properties":{"province":"北京市","city":"房山区","county":"窦店镇","community":"窦店产业园","full_address":"北京市房山区窦店镇窦店产业园","info":""}},{"type":"Feature","geometry":{"type":"Point","coordinates":[116.050693,39.67583]},"properties":{"province":"北京市","city":"房山区","county":"窦店镇","community":"苏村","full_address":"北京市房山区窦店镇苏村","info":""}},{"type":"Feature","geometry":{"type":"Point","coordinates":[116.119923,39.724042]},"properties":{"province":"北京市","city":"房山区","county":"西潞街道","community":"苏庄三里社区","full_address":"北京市房山区西潞街道苏庄三里社区","info":""}},{"type":"Feature","geometry":{"type":"Point","coordinates":[116.179526,39.749742]},"properties":{"province":"北京市","city":"房山区","county":"长阳镇","community":"碧波园小区","full_address":"北京市房山区长阳镇碧波园小区","info":""}},{"type":"Feature","geometry":{"type":"Point","coordinates":[116.163804,39.760771]},"properties":{"province":"北京市","city":"房山区","county":"长阳镇","community":"碧桂园小区","full_address":"北京市房山区长阳镇碧桂园小区","info":""}},{"type":"Feature","geometry":{"type":"Point","coordinates":[116.209175,39.772253]},"properties":{"province":"北京市","city":"房山区","county":"长阳镇","community":"赛木小镇","full_address":"北京市房山区长阳镇赛木小镇","info":""}},{"type":"Feature","geometry":{"type":"Point","coordinates":[116.667146,39.9094]},"properties":{"province":"北京市","city":"通州区","county":"新华街道","community":"如意社区","full_address":"北京市通州区新华街道如意社区","info":""}},{"type":"Feature","geometry":{"type":"Point","coordinates":[116.614664,39.834226]},"properties":{"province":"北京市","city":"通州区","county":"台湖镇","community":"胡家垡村","full_address":"北京市通州区台湖镇胡家垡村","info":""}},{"type":"Feature","geometry":{"type":"Point","coordinates":[124.350231,40.098558]},"properties":{"province":"辽宁省","city":"丹东市","county":"振兴区","community":"知春园小区一期","full_address":"辽宁省丹东市振兴区知春园小区一期","info":""}},{"type":"Feature","geometry":{"type":"Point","coordinates":[124.354849,40.104742]},"properties":{"province":"辽宁省","city":"丹东市","county":"振兴区","community":"丹建锦园93号楼","full_address":"辽宁省丹东市振兴区丹建锦园93号楼","info":""}},{"type":"Feature","geometry":{"type":"Point","coordinates":[124.354174,40.104129]},"properties":{"province":"辽宁省","city":"丹东市","county":"振兴区","community":"丹建锦园95号楼","full_address":"辽宁省丹东市振兴区丹建锦园95号楼","info":""}},{"type":"Feature","geometry":{"type":"Point","coordinates":[124.36721,40.104225]},"properties":{"province":"辽宁省","city":"丹东市","county":"振兴区","community":"福临花园小区","full_address":"辽宁省丹东市振兴区福临花园小区","info":""}},{"type":"Feature","geometry":{"type":"Point","coordinates":[124.348167,40.004713]},"properties":{"province":"辽宁省","city":"丹东市","county":"振兴区","community":"文安新村小区","full_address":"辽宁省丹东市振兴区文安新村小区","info":""}},{"type":"Feature","geometry":{"type":"Point","coordinates":[124.393446,40.12766]},"properties":{"province":"辽宁省","city":"丹东市","county":"振兴区","community":"丹建馨园小区","full_address":"辽宁省丹东市振兴区丹建馨园小区","info":""}},{"type":"Feature","geometry":{"type":"Point","coordinates":[124.349267,40.099887]},"properties":{"province":"辽宁省","city":"丹东市","county":"振兴区","community":"红房新区小区","full_address":"辽宁省丹东市振兴区红房新区小区","info":""}},{"type":"Feature","geometry":{"type":"Point","coordinates":[124.356835,40.111347]},"properties":{"province":"辽宁省","city":"丹东市","county":"振兴区","community":"桃源逸景小区","full_address":"辽宁省丹东市振兴区桃源逸景小区","info":""}},{"type":"Feature","geometry":{"type":"Point","coordinates":[122.51697,40.651202]},"properties":{"province":"辽宁省","city":"营口市","county":"大石桥市","community":"鑫盛家园","full_address":"辽宁省营口市大石桥市鑫盛家园","info":""}},{"type":"Feature","geometry":{"type":"Point","coordinates":[122.625468,40.521745]},"properties":{"province":"辽宁省","city":"营口市","county":"大石桥市","community":"汤池镇二道河村","full_address":"辽宁省营口市大石桥市汤池镇二道河村","info":""}},{"type":"Feature","geometry":{"type":"Point","coordinates":[122.614909,40.547885]},"properties":{"province":"辽宁省","city":"营口市","county":"大石桥市","community":"汤池镇三元井村","full_address":"辽宁省营口市大石桥市汤池镇三元井村","info":""}},{"type":"Feature","geometry":{"type":"Point","coordinates":[122.536534,40.619217]},"properties":{"province":"辽宁省","city":"营口市","county":"大石桥市","community":"百寨街道四季春城小区","full_address":"辽宁省营口市大石桥市百寨街道四季春城小区","info":""}},{"type":"Feature","geometry":{"type":"Point","coordinates":[121.479018,31.211278]},"properties":{"province":"上海市","city":"上海市","county":"黄浦区","community":"打浦桥街道顺昌路612弄20号","full_address":"上海市上海市黄浦区打浦桥街道顺昌路612弄20号","info":""}},{"type":"Feature","geometry":{"type":"Point","coordinates":[121.330245,31.226634]},"properties":{"province":"上海市","city":"上海市","county":"闵行区","community":"华漕镇许浦村三队","full_address":"上海市上海市闵行区华漕镇许浦村三队","info":""}},{"type":"Feature","geometry":{"type":"Point","coordinates":[121.25944,31.40798]},"properties":{"province":"上海市","city":"上海市","county":"嘉定区","community":"菊园新区永靖路898弄（北区）","full_address":"上海市上海市嘉定区菊园新区永靖路898弄（北区）","info":""}},{"type":"Feature","geometry":{"type":"Point","coordinates":[121.258417,31.173229]},"properties":{"province":"上海市","city":"上海市","county":"青浦区","community":"徐泾镇迮庵村（杨巷西区）","full_address":"上海市上海市青浦区徐泾镇迮庵村（杨巷西区）","info":""}},{"type":"Feature","geometry":{"type":"Point","coordinates":[106.922382,30.31672]},"properties":{"province":"四川省","city":"广安市","county":"邻水县","community":"鼎屏镇康佳小区","full_address":"四川省广安市邻水县鼎屏镇康佳小区","info":""}},{"type":"Feature","geometry":{"type":"Point","coordinates":[106.943133,30.336199]},"properties":{"province":"四川省","city":"广安市","county":"邻水县","community":"鼎屏镇延胜村11组（原土垭村1组）","full_address":"四川省广安市邻水县鼎屏镇延胜村11组（原土垭村1组）","info":""}}]}