{"type":"FeatureCollection","features":[{"type":"Feature","geometry":{"type":"Point","coordinates":[116.506247,40.083107]},"properties":{"full_address":"北京市顺义区空港街道龙湾别墅新冠病毒感染者活动轨迹周边区域（龙湾别墅5号门至1号门连线右侧（面对5号门）堂尚社区6B5单元、2033、2601-2617、1901-1912、1917-1928栋别墅；龙湾别墅5号门至1号门连线左侧（面对5号门）7、19、5101、6101-6107、物业楼、会所楼、3101-3115、5501、5521、5601、5621-5623、5701、5703、5721-5723）"}},{"type":"Feature","geometry":{"type":"Point","coordinates":[116.538305,40.102457]},"properties":{"full_address":"北京市顺义区空港街道金地中央世家工作室(金地中央世家别墅裕庆路18号院2-101)"}},{"type":"Feature","geometry":{"type":"Point","coordinates":[116.555759,40.100451]},"properties":{"full_address":"北京市顺义区空港街道双囍烧腊茶餐厅（新国展店）"}},{"type":"Feature","geometry":{"type":"Point","coordinates":[115.901303,40.374294]},"properties":{"full_address":"北京市延庆区康庄镇草原情羊蝎子火锅店"}},{"type":"Feature","geometry":{"type":"Point","coordinates":[115.902105,40.373121]},"properties":{"full_address":"北京市延庆区康庄镇百品尚购物中心"}},{"type":"Feature","geometry":{"type":"Point","coordinates":[115.901358,40.373475]},"properties":{"full_address":"北京市延庆区康庄镇小美好麻辣烫板面店"}},{"type":"Feature","geometry":{"type":"Point","coordinates":[115.970936,40.458857]},"properties":{"full_address":"北京市延庆区儒林街道长青削面馆"}},{"type":"Feature","geometry":{"type":"Point","coordinates":[117.251344,39.077359]},"properties":{"full_address":"天津市天津市河西区陈塘庄街四信里8-11号楼除10号楼1门外"}},{"type":"Feature","geometry":{"type":"Point","coordinates":[117.271834,39.065929]},"properties":{"full_address":"天津市天津市河西区柳林街东江南里"}},{"type":"Feature","geometry":{"type":"Point","coordinates":[117.270281,39.064458]},"properties":{"full_address":"天津市天津市河西区柳林街黄海里19门至20门"}},{"type":"Feature","geometry":{"type":"Point","coordinates":[117.270707,39.064609]},"properties":{"full_address":"天津市天津市河西区柳林街东海里9门至16门"}},{"type":"Feature","geometry":{"type":"Point","coordinates":[117.314289,39.139464]},"properties":{"full_address":"天津市天津市东丽区万新街蔚秀花园（除9、10、11、14、15、22、23、26号楼）"}},{"type":"Feature","geometry":{"type":"Point","coordinates":[117.286701,39.054176]},"properties":{"full_address":"天津市天津市津南区双林街福松源庄7号楼3门"}},{"type":"Feature","geometry":{"type":"Point","coordinates":[117.293936,39.055411]},"properties":{"full_address":"天津市天津市津南区双林街海天馨苑诚勤园13号楼4门"}},{"type":"Feature","geometry":{"type":"Point","coordinates":[108.291363,41.104323]},"properties":{"full_address":"内蒙古自治区巴彦淖尔市五原县隆兴昌镇汽车城顺通车行"}},{"type":"Feature","geometry":{"type":"Point","coordinates":[108.29051,41.102149]},"properties":{"full_address":"内蒙古自治区巴彦淖尔市五原县隆兴昌镇虹亚B区其他楼栋（除29号楼和别墅区）"}},{"type":"Feature","geometry":{"type":"Point","coordinates":[107.57805,42.40261]},"properties":{"full_address":"内蒙古自治区巴彦淖尔市乌拉特中旗甘其毛都镇9公里物流园区"}},{"type":"Feature","geometry":{"type":"Point","coordinates":[108.528083,41.578369]},"properties":{"full_address":"内蒙古自治区巴彦淖尔市乌拉特中旗海流图镇山河湾小区"}},{"type":"Feature","geometry":{"type":"Point","coordinates":[108.529579,41.574065]},"properties":{"full_address":"内蒙古自治区巴彦淖尔市乌拉特中旗海流图镇惠民小区除17号楼以外其他楼栋"}},{"type":"Feature","geometry":{"type":"Point","coordinates":[108.532703,41.573024]},"properties":{"full_address":"内蒙古自治区巴彦淖尔市乌拉特中旗海流图镇春苑新城小区"}},{"type":"Feature","geometry":{"type":"Point","coordinates":[108.532703,41.573024]},"properties":{"full_address":"内蒙古自治区巴彦淖尔市乌拉特中旗海流图镇春苑新城小区门口水泥路以北、生态园油路以南、海流图河槽以东、东山四合院河槽以西平房区"}},{"type":"Feature","geometry":{"type":"Point","coordinates":[121.581931,38.902179]},"properties":{"full_address":"辽宁省大连市沙河口区南沙河口街道幸福e家5期6区其他区域"}},{"type":"Feature","geometry":{"type":"Point","coordinates":[124.359647,40.108628]},"properties":{"full_address":"辽宁省丹东市振兴区帽盔山街道知春园小区5号楼"}},{"type":"Feature","geometry":{"type":"Point","coordinates":[124.357021,40.098048]},"properties":{"full_address":"辽宁省丹东市振兴区纤维街道和谐家园小区10号楼"}},{"type":"Feature","geometry":{"type":"Point","coordinates":[124.285868,40.069241]},"properties":{"full_address":"辽宁省丹东市振兴区汤池镇集环路47号"}},{"type":"Feature","geometry":{"type":"Point","coordinates":[124.303403,40.061903]},"properties":{"full_address":"辽宁省丹东市振兴区汤池镇集贤新村二期"}},{"type":"Feature","geometry":{"type":"Point","coordinates":[124.392431,40.132536]},"properties":{"full_address":"辽宁省丹东市振兴区站前街道三纬路90号/92号/94号/锦山大街58号"}},{"type":"Feature","geometry":{"type":"Point","coordinates":[124.382135,40.12045]},"properties":{"full_address":"辽宁省丹东市振兴区临江街道振四街15号/17号/19号"}},{"type":"Feature","geometry":{"type":"Point","coordinates":[124.36882,40.127717]},"properties":{"full_address":"辽宁省丹东市振兴区永昌街道保利一期B区4号楼"}},{"type":"Feature","geometry":{"type":"Point","coordinates":[124.348383,40.091408]},"properties":{"full_address":"辽宁省丹东市振兴区纤维街道大肚院平房区"}},{"type":"Feature","geometry":{"type":"Point","coordinates":[124.372513,40.123003]},"properties":{"full_address":"辽宁省丹东市振兴区永昌街道振八街28-25号"}},{"type":"Feature","geometry":{"type":"Point","coordinates":[124.493588,40.210176]},"properties":{"full_address":"辽宁省丹东市振安区九连城镇上尖村5组"}},{"type":"Feature","geometry":{"type":"Point","coordinates":[121.47407,31.222666]},"properties":{"full_address":"上海市上海市黄浦区打浦桥街道建国东路391号浅草37度1皮肤管理定制中心（新天地店）"}},{"type":"Feature","geometry":{"type":"Point","coordinates":[121.490619,31.23016]},"properties":{"full_address":"上海市上海市黄浦区外滩街道三和里小区"}},{"type":"Feature","geometry":{"type":"Point","coordinates":[121.476455,31.238168]},"properties":{"full_address":"上海市上海市黄浦区南京东路街道广西北路528号安基商厦"}},{"type":"Feature","geometry":{"type":"Point","coordinates":[121.487693,31.207991]},"properties":{"full_address":"上海市上海市黄浦区半淞园路街道斜土东路197号全季酒店上海斜土东路店"}},{"type":"Feature","geometry":{"type":"Point","coordinates":[121.469691,31.230371]},"properties":{"full_address":"上海市上海市黄浦区南京东路街道成都北路以东、南京西路以南、明天广场以西、江阴路以北的合围地块"}},{"type":"Feature","geometry":{"type":"Point","coordinates":[121.490946,31.201725]},"properties":{"full_address":"上海市上海市黄浦区半淞园路街道中山南路1891-1893号（越纪公寓小区）"}},{"type":"Feature","geometry":{"type":"Point","coordinates":[121.478419,31.233485]},"properties":{"full_address":"上海市上海市黄浦区南京东路街道百米香榭商业街"}},{"type":"Feature","geometry":{"type":"Point","coordinates":[121.50048,31.212613]},"properties":{"full_address":"上海市上海市黄浦区小东门街道陆家浜路305弄（阳光公寓小区）"}},{"type":"Feature","geometry":{"type":"Point","coordinates":[121.443323,31.16008]},"properties":{"full_address":"上海市上海市徐汇区漕河泾街道融水路99弄石龙春晓C区"}},{"type":"Feature","geometry":{"type":"Point","coordinates":[121.45532,31.198513]},"properties":{"full_address":"上海市上海市徐汇区枫林街道医学院路110弄中山新村"}},{"type":"Feature","geometry":{"type":"Point","coordinates":[121.463108,31.191463]},"properties":{"full_address":"上海市上海市徐汇区斜土街道大木桥路600弄江南新村"}},{"type":"Feature","geometry":{"type":"Point","coordinates":[121.459,31.194036]},"properties":{"full_address":"上海市上海市徐汇区枫林街道小木桥路440弄"}},{"type":"Feature","geometry":{"type":"Point","coordinates":[121.457948,31.201476]},"properties":{"full_address":"上海市上海市徐汇区斜土路街道肇嘉浜路407号"}},{"type":"Feature","geometry":{"type":"Point","coordinates":[121.42939,31.19955]},"properties":{"full_address":"上海市上海市徐汇区徐家汇街道番禺路650弄"}},{"type":"Feature","geometry":{"type":"Point","coordinates":[121.42922,31.189546]},"properties":{"full_address":"上海市上海市徐汇区徐家汇街道柿子湾小区（宜山路250弄14-28号、宜山路220弄1-4号、徐虹北路28弄1-4号）"}},{"type":"Feature","geometry":{"type":"Point","coordinates":[121.4292,31.212724]},"properties":{"full_address":"上海市上海市长宁区华阳路街道昭化路55弄"}},{"type":"Feature","geometry":{"type":"Point","coordinates":[121.429738,31.201053]},"properties":{"full_address":"上海市上海市长宁区新华路街道番禺路508号"}},{"type":"Feature","geometry":{"type":"Point","coordinates":[121.405512,31.212747]},"properties":{"full_address":"上海市上海市长宁区天山路街道娄山关路810弄1-25号"}},{"type":"Feature","geometry":{"type":"Point","coordinates":[121.429608,31.292083]},"properties":{"full_address":"上海市上海市静安区彭浦镇永和二村"}},{"type":"Feature","geometry":{"type":"Point","coordinates":[121.42304,31.28493]},"properties":{"full_address":"上海市上海市静安区彭浦镇阳城路388弄"}},{"type":"Feature","geometry":{"type":"Point","coordinates":[121.42828,31.225775]},"properties":{"full_address":"上海市上海市静安区曹家渡街道长宁路189号、177号"}},{"type":"Feature","geometry":{"type":"Point","coordinates":[121.459005,31.234572]},"properties":{"full_address":"上海市上海市静安区曹家渡街道新闸路1990弄、金家巷西弄"}},{"type":"Feature","geometry":{"type":"Point","coordinates":[121.449221,31.271442]},"properties":{"full_address":"上海市上海市静安区大宁路街道大宁路660弄"}},{"type":"Feature","geometry":{"type":"Point","coordinates":[121.42384,31.282093]},"properties":{"full_address":"上海市上海市静安区彭浦镇沪太路1329弄"}},{"type":"Feature","geometry":{"type":"Point","coordinates":[121.465019,31.225598]},"properties":{"full_address":"上海市上海市静安区南京西路街道大沽路422号"}},{"type":"Feature","geometry":{"type":"Point","coordinates":[121.429979,31.286862]},"properties":{"full_address":"上海市上海市静安区彭浦镇永和路880弄"}},{"type":"Feature","geometry":{"type":"Point","coordinates":[121.45607,31.254824]},"properties":{"full_address":"上海市上海市静安区天目西路街道普善路128弄（中华新路939弄）"}},{"type":"Feature","geometry":{"type":"Point","coordinates":[121.459575,31.2566]},"properties":{"full_address":"上海市上海市静安区芷江西路街道大统路1033弄6-8号"}},{"type":"Feature","geometry":{"type":"Point","coordinates":[121.455792,31.278378]},"properties":{"full_address":"上海市上海市静安区大宁路街道广延路415号"}},{"type":"Feature","geometry":{"type":"Point","coordinates":[121.430025,31.283038]},"properties":{"full_address":"上海市上海市静安区彭浦镇永灵小区"}},{"type":"Feature","geometry":{"type":"Point","coordinates":[121.470859,31.260733]},"properties":{"full_address":"上海市上海市静安区宝山路街道通阁路200弄1-2号"}},{"type":"Feature","geometry":{"type":"Point","coordinates":[121.404917,31.239925]},"properties":{"full_address":"上海市上海市普陀区曹杨新村街道兰溪路148号耕耘茶室"}},{"type":"Feature","geometry":{"type":"Point","coordinates":[121.448042,31.239022]},"properties":{"full_address":"上海市上海市普陀区长寿路街道长寿路393号如家精选酒店"}},{"type":"Feature","geometry":{"type":"Point","coordinates":[121.425687,31.269086]},"properties":{"full_address":"上海市上海市普陀区甘泉路街道西乡路91弄"}},{"type":"Feature","geometry":{"type":"Point","coordinates":[121.423142,31.245686]},"properties":{"full_address":"上海市上海市普陀区石泉路街道中山北路2451弄200支弄"}},{"type":"Feature","geometry":{"type":"Point","coordinates":[121.401206,31.248351]},"properties":{"full_address":"上海市上海市普陀区石泉路街道曹杨路1208号智尚酒店"}},{"type":"Feature","geometry":{"type":"Point","coordinates":[121.42603,31.258412]},"properties":{"full_address":"上海市上海市普陀区石泉路街道管弄路61弄"}},{"type":"Feature","geometry":{"type":"Point","coordinates":[121.398267,31.247333]},"properties":{"full_address":"上海市上海市普陀区真如镇街道真如西村116-119号文艺小院"}},{"type":"Feature","geometry":{"type":"Point","coordinates":[121.424106,31.260671]},"properties":{"full_address":"上海市上海市普陀区甘泉路街道双山小区"}},{"type":"Feature","geometry":{"type":"Point","coordinates":[121.386521,31.252084]},"properties":{"full_address":"上海市上海市普陀区真如镇街道铜川路1781弄"}},{"type":"Feature","geometry":{"type":"Point","coordinates":[121.432365,31.23577]},"properties":{"full_address":"上海市上海市普陀区长寿路街道长寿路777号西部俊园"}},{"type":"Feature","geometry":{"type":"Point","coordinates":[121.429101,31.245283]},"properties":{"full_address":"上海市上海市普陀区长寿路街道光复西路211弄"}},{"type":"Feature","geometry":{"type":"Point","coordinates":[121.4223,31.251737]},"properties":{"full_address":"上海市上海市普陀区石泉路街道石岚三村（37-50号）"}},{"type":"Feature","geometry":{"type":"Point","coordinates":[121.42296,31.256664]},"properties":{"full_address":"上海市上海市普陀区石泉路街道管弄路251弄"}},{"type":"Feature","geometry":{"type":"Point","coordinates":[121.388892,31.261297]},"properties":{"full_address":"上海市上海市普陀区真如镇街道清涧路39弄"}},{"type":"Feature","geometry":{"type":"Point","coordinates":[121.381141,31.250997]},"properties":{"full_address":"上海市上海市普陀区真如镇街道金汤路353弄"}},{"type":"Feature","geometry":{"type":"Point","coordinates":[121.402133,31.249995]},"properties":{"full_address":"上海市上海市普陀区真如镇街道兰溪路436号F1精品酒店"}},{"type":"Feature","geometry":{"type":"Point","coordinates":[121.406582,31.259938]},"properties":{"full_address":"上海市上海市普陀区真如镇街道曹杨路2170弄恒力锦沧花园"}},{"type":"Feature","geometry":{"type":"Point","coordinates":[121.402045,31.272909]},"properties":{"full_address":"上海市上海市普陀区万里街道紫颐园公寓"}},{"type":"Feature","geometry":{"type":"Point","coordinates":[121.436112,31.243904]},"properties":{"full_address":"上海市上海市普陀区长寿路街道西康路1369号澳门大厦A栋"}},{"type":"Feature","geometry":{"type":"Point","coordinates":[121.412816,31.245641]},"properties":{"full_address":"上海市上海市普陀区石泉路街道武宁路864号一楼-2聚茗轩茶庄"}},{"type":"Feature","geometry":{"type":"Point","coordinates":[121.43723,31.258564]},"properties":{"full_address":"上海市上海市普陀区宜川路街道宜川六村76号、77号、86号底层陈记便利店"}},{"type":"Feature","geometry":{"type":"Point","coordinates":[121.399277,31.251518]},"properties":{"full_address":"上海市上海市普陀区真如镇街道铜川路1168弄"}},{"type":"Feature","geometry":{"type":"Point","coordinates":[121.403046,31.249677]},"properties":{"full_address":"上海市上海市普陀区真如镇街道铜川路999弄"}},{"type":"Feature","geometry":{"type":"Point","coordinates":[121.438457,31.267635]},"properties":{"full_address":"上海市上海市普陀区甘泉路街道新村路39弄"}},{"type":"Feature","geometry":{"type":"Point","coordinates":[121.411411,31.25604]},"properties":{"full_address":"上海市上海市普陀区石泉路街道礼泉路300弄"}},{"type":"Feature","geometry":{"type":"Point","coordinates":[121.42193,31.246306]},"properties":{"full_address":"上海市上海市普陀区石泉路街道新兰田小区"}},{"type":"Feature","geometry":{"type":"Point","coordinates":[121.347474,31.285304]},"properties":{"full_address":"上海市上海市普陀区桃浦镇绿杨路51弄"}},{"type":"Feature","geometry":{"type":"Point","coordinates":[121.419,31.232425]},"properties":{"full_address":"上海市上海市普陀区长风新村街道宁夏路353弄"}},{"type":"Feature","geometry":{"type":"Point","coordinates":[121.374934,31.237455]},"properties":{"full_address":"上海市上海市普陀区长征镇清峪路81弄41-55幢"}},{"type":"Feature","geometry":{"type":"Point","coordinates":[121.475892,31.267809]},"properties":{"full_address":"上海市上海市虹口区广中路街道西江湾路122号白领公寓"}},{"type":"Feature","geometry":{"type":"Point","coordinates":[121.468781,31.269425]},"properties":{"full_address":"上海市上海市虹口区广中路街道西宝兴路949弄（1-6号、7号甲、乙、丙）"}},{"type":"Feature","geometry":{"type":"Point","coordinates":[121.481779,31.274365]},"properties":{"full_address":"上海市上海市虹口区欧阳路街道东体育会路100弄1号华兴商厦"}},{"type":"Feature","geometry":{"type":"Point","coordinates":[121.473375,31.297366]},"properties":{"full_address":"上海市上海市虹口区凉城新村街道车站北路500弄（20-22号）"}},{"type":"Feature","geometry":{"type":"Point","coordinates":[121.470929,31.28661]},"properties":{"full_address":"上海市上海市虹口区凉城新村街道广灵四路365弄（4-5号、9-10号）"}},{"type":"Feature","geometry":{"type":"Point","coordinates":[121.514711,31.255577]},"properties":{"full_address":"上海市上海市虹口区嘉兴路街道胡家木桥路35弄（3-4号）"}},{"type":"Feature","geometry":{"type":"Point","coordinates":[121.496114,31.25992]},"properties":{"full_address":"上海市上海市虹口区嘉兴路街道物华路246弄小区"}},{"type":"Feature","geometry":{"type":"Point","coordinates":[121.545857,31.271618]},"properties":{"full_address":"上海市上海市杨浦区定海路街道隆昌路394号"}},{"type":"Feature","geometry":{"type":"Point","coordinates":[121.508966,31.271013]},"properties":{"full_address":"上海市上海市杨浦区江浦路街道打虎山路15弄"}},{"type":"Feature","geometry":{"type":"Point","coordinates":[121.511289,31.26892]},"properties":{"full_address":"上海市上海市杨浦区江浦路街道打虎山路6弄"}},{"type":"Feature","geometry":{"type":"Point","coordinates":[121.518423,31.28098]},"properties":{"full_address":"上海市上海市杨浦区控江路街道长岭路60弄"}},{"type":"Feature","geometry":{"type":"Point","coordinates":[121.524898,31.28513]},"properties":{"full_address":"上海市上海市杨浦区控江路街道控江四村（欣辉部分）"}},{"type":"Feature","geometry":{"type":"Point","coordinates":[121.391298,31.108241]},"properties":{"full_address":"上海市上海市闵行区莘庄镇名都路20弄名都城三期小区"}},{"type":"Feature","geometry":{"type":"Point","coordinates":[121.41739,31.022398]},"properties":{"full_address":"上海市上海市闵行区江川路街道景谷中路58弄凤凰景苑小区"}},{"type":"Feature","geometry":{"type":"Point","coordinates":[121.493598,31.096089]},"properties":{"full_address":"上海市上海市闵行区浦锦街道浦驰路1335弄浦江华侨城四期小区"}},{"type":"Feature","geometry":{"type":"Point","coordinates":[121.364157,31.184628]},"properties":{"full_address":"上海市上海市闵行区虹桥镇黄桦路85弄龙柏城市花园小区"}},{"type":"Feature","geometry":{"type":"Point","coordinates":[121.384317,31.171629]},"properties":{"full_address":"上海市上海市闵行区虹桥镇万源路2289弄万源新城三期小区"}},{"type":"Feature","geometry":{"type":"Point","coordinates":[121.392136,31.179909]},"properties":{"full_address":"上海市上海市闵行区虹桥镇吴中路830弄小区"}},{"type":"Feature","geometry":{"type":"Point","coordinates":[121.394098,31.095493]},"properties":{"full_address":"上海市上海市闵行区颛桥镇银都路3118弄银都苑小区"}},{"type":"Feature","geometry":{"type":"Point","coordinates":[121.390501,31.152204]},"properties":{"full_address":"上海市上海市闵行区古美路街道万源路1185弄平南三四村小区"}},{"type":"Feature","geometry":{"type":"Point","coordinates":[121.412611,31.186768]},"properties":{"full_address":"上海市上海市闵行区虹桥镇张虹路135弄、吴中路380弄海联花苑小区"}},{"type":"Feature","geometry":{"type":"Point","coordinates":[121.539134,31.039784]},"properties":{"full_address":"上海市上海市闵行区浦江镇江航南路801弄瑞和华苑小区"}},{"type":"Feature","geometry":{"type":"Point","coordinates":[121.401199,31.082521]},"properties":{"full_address":"上海市上海市闵行区颛桥镇丰顺路500弄、都市路3635弄、金都路3019弄贵都新村小区"}},{"type":"Feature","geometry":{"type":"Point","coordinates":[121.401333,31.148903]},"properties":{"full_address":"上海市上海市闵行区古美路街道古龙路287弄新时代景庭小区"}},{"type":"Feature","geometry":{"type":"Point","coordinates":[121.399326,31.165242]},"properties":{"full_address":"上海市上海市闵行区虹桥镇虹井路120弄创客空间1A栋"}},{"type":"Feature","geometry":{"type":"Point","coordinates":[121.404534,31.191163]},"properties":{"full_address":"上海市上海市闵行区虹桥镇伊犁南路34弄东航明珠公寓"}},{"type":"Feature","geometry":{"type":"Point","coordinates":[121.398334,31.109496]},"properties":{"full_address":"上海市上海市闵行区莘庄镇畹町路513弄莘南花苑二村"}},{"type":"Feature","geometry":{"type":"Point","coordinates":[121.30741,31.215509]},"properties":{"full_address":"上海市上海市闵行区新虹街道天山西路4178弄爱博五村小区"}},{"type":"Feature","geometry":{"type":"Point","coordinates":[121.403743,31.073749]},"properties":{"full_address":"上海市上海市闵行区颛桥镇都市路2890号领铸教育"}},{"type":"Feature","geometry":{"type":"Point","coordinates":[121.472901,31.320807]},"properties":{"full_address":"上海市上海市宝山区高境镇殷高西路333号长江国际生活广场东区二楼老炉家木炭烤肉店"}},{"type":"Feature","geometry":{"type":"Point","coordinates":[121.345142,31.414547]},"properties":{"full_address":"上海市上海市宝山区罗店镇市一路231-233号"}},{"type":"Feature","geometry":{"type":"Point","coordinates":[121.347879,31.413142]},"properties":{"full_address":"上海市上海市宝山区罗店镇竹巷街95弄"}},{"type":"Feature","geometry":{"type":"Point","coordinates":[121.419305,31.361913]},"properties":{"full_address":"上海市上海市宝山区杨行镇红林路576弄和家欣苑B区东区（1号-31号楼）"}},{"type":"Feature","geometry":{"type":"Point","coordinates":[121.423735,31.34867]},"properties":{"full_address":"上海市上海市宝山区顾村镇共富路379弄富成园"}},{"type":"Feature","geometry":{"type":"Point","coordinates":[121.433627,31.377968]},"properties":{"full_address":"上海市上海市宝山区杨行镇月城路299弄同盛嘉园西区"}},{"type":"Feature","geometry":{"type":"Point","coordinates":[121.419454,31.281683]},"properties":{"full_address":"上海市上海市宝山区大场镇华灵路1225弄华欣苑A区"}},{"type":"Feature","geometry":{"type":"Point","coordinates":[121.346426,31.345353]},"properties":{"full_address":"上海市上海市宝山区顾村镇菊太路1755弄菊华苑"}},{"type":"Feature","geometry":{"type":"Point","coordinates":[121.491959,31.380304]},"properties":{"full_address":"上海市上海市宝山区吴淞街道海滨二村南区"}},{"type":"Feature","geometry":{"type":"Point","coordinates":[121.370219,31.344472]},"properties":{"full_address":"上海市上海市宝山区顾村镇宝菊路22弄保利叶语一期"}},{"type":"Feature","geometry":{"type":"Point","coordinates":[121.48507,31.339085]},"properties":{"full_address":"上海市上海市宝山区淞南镇淞南五村一居西片区（194号-256号、280号-332号）"}},{"type":"Feature","geometry":{"type":"Point","coordinates":[121.403526,31.278229]},"properties":{"full_address":"上海市上海市宝山区大场镇华灵路1900弄金鑫花园D地块"}},{"type":"Feature","geometry":{"type":"Point","coordinates":[121.491966,31.327917]},"properties":{"full_address":"上海市上海市宝山区高境镇国权北路828 弄美岸栖庭北区"}},{"type":"Feature","geometry":{"type":"Point","coordinates":[121.469401,31.385459]},"properties":{"full_address":"上海市上海市宝山区罗店镇罗芬路1288弄远洋七号北区（5-30号）"}},{"type":"Feature","geometry":{"type":"Point","coordinates":[121.438277,31.32235]},"properties":{"full_address":"上海市上海市宝山区庙行镇共康五村C区（32-51号，124-153号）"}},{"type":"Feature","geometry":{"type":"Point","coordinates":[121.472097,31.406698]},"properties":{"full_address":"上海市上海市宝山区友谊街道盘古路689弄同济公寓"}},{"type":"Feature","geometry":{"type":"Point","coordinates":[121.388362,31.295555]},"properties":{"full_address":"上海市上海市宝山区大场镇鄂尔多斯路67弄祁秀雅苑"}},{"type":"Feature","geometry":{"type":"Point","coordinates":[121.476897,31.327163]},"properties":{"full_address":"上海市上海市宝山区高境镇新二路999弄四季绿城南区"}},{"type":"Feature","geometry":{"type":"Point","coordinates":[121.343568,31.428287]},"properties":{"full_address":"上海市上海市宝山区罗店镇四方花苑（罗溪路1079弄）"}},{"type":"Feature","geometry":{"type":"Point","coordinates":[121.43982,31.324901]},"properties":{"full_address":"上海市上海市宝山区庙行镇场北路54号素柏云酒店"}},{"type":"Feature","geometry":{"type":"Point","coordinates":[121.49098,31.376272]},"properties":{"full_address":"上海市上海市宝山区吴淞街道水产路友间公寓（永清二村店）"}},{"type":"Feature","geometry":{"type":"Point","coordinates":[121.215501,31.267986]},"properties":{"full_address":"上海市上海市嘉定区安亭镇绿苑路82弄绿苑二邨"}},{"type":"Feature","geometry":{"type":"Point","coordinates":[121.318182,31.321435]},"properties":{"full_address":"上海市上海市嘉定区南翔镇蕰北公路2371弄浏翔花苑三区小区"}},{"type":"Feature","geometry":{"type":"Point","coordinates":[121.368474,31.251068]},"properties":{"full_address":"上海市上海市嘉定区真新街道曹安公路1611号5楼e族公寓"}},{"type":"Feature","geometry":{"type":"Point","coordinates":[121.308796,31.239789]},"properties":{"full_address":"上海市上海市嘉定区江桥镇鹤旋路500弄30号水岸秀苑"}},{"type":"Feature","geometry":{"type":"Point","coordinates":[121.33185,31.235645]},"properties":{"full_address":"上海市上海市嘉定区江桥镇金沙江西路1555弄31、33、35、37号慧创C2园区"}},{"type":"Feature","geometry":{"type":"Point","coordinates":[121.305142,31.269798]},"properties":{"full_address":"上海市上海市嘉定区江桥镇吴杨东路333弄221号城市岸泊"}},{"type":"Feature","geometry":{"type":"Point","coordinates":[121.32537,31.30525]},"properties":{"full_address":"上海市上海市嘉定区南翔镇宝翔路188弄三湘海尚名邸"}},{"type":"Feature","geometry":{"type":"Point","coordinates":[121.55949,31.25913]},"properties":{"full_address":"上海市上海市浦东新区金杨新村街道浦东大道2511弄19号城市e族公寓"}},{"type":"Feature","geometry":{"type":"Point","coordinates":[121.586674,31.247609]},"properties":{"full_address":"上海市上海市浦东新区金杨新村街道金杨新村十一街坊"}},{"type":"Feature","geometry":{"type":"Point","coordinates":[121.598806,31.251504]},"properties":{"full_address":"上海市上海市浦东新区金桥镇浙桥路99号悦樘公寓"}},{"type":"Feature","geometry":{"type":"Point","coordinates":[121.517219,31.237259]},"properties":{"full_address":"上海市上海市浦东新区陆家嘴街道崂山五村小区"}},{"type":"Feature","geometry":{"type":"Point","coordinates":[121.516407,31.225244]},"properties":{"full_address":"上海市上海市浦东新区潍坊新村街道东南新村小区"}},{"type":"Feature","geometry":{"type":"Point","coordinates":[121.583173,31.275461]},"properties":{"full_address":"上海市上海市浦东新区曹路镇上川路1755号"}},{"type":"Feature","geometry":{"type":"Point","coordinates":[121.54477,31.208064]},"properties":{"full_address":"上海市上海市浦东新区花木街道牡丹路145弄"}},{"type":"Feature","geometry":{"type":"Point","coordinates":[121.583173,31.275461]},"properties":{"full_address":"上海市上海市浦东新区祝桥镇星火村（东至星学路，西至南祝路，南至星勤路，北至星火二组支路）"}},{"type":"Feature","geometry":{"type":"Point","coordinates":[121.581767,31.272654]},"properties":{"full_address":"上海市上海市浦东新区沪东新村街道沪新小区"}},{"type":"Feature","geometry":{"type":"Point","coordinates":[121.544611,31.183259]},"properties":{"full_address":"上海市上海市浦东新区北蔡镇博华路237弄文化馨苑小区"}},{"type":"Feature","geometry":{"type":"Point","coordinates":[121.689143,31.193505]},"properties":{"full_address":"上海市上海市浦东新区川沙新镇城丰路15弄小区"}},{"type":"Feature","geometry":{"type":"Point","coordinates":[121.543376,31.210132]},"properties":{"full_address":"上海市上海市浦东新区花木街道花木路500弄花木苑小区"}},{"type":"Feature","geometry":{"type":"Point","coordinates":[121.528831,31.210572]},"properties":{"full_address":"上海市上海市浦东新区花木街道严杨路60弄小区"}},{"type":"Feature","geometry":{"type":"Point","coordinates":[121.499429,31.235551]},"properties":{"full_address":"上海市上海市浦东新区陆家嘴街道富城路33号浦江楼"}},{"type":"Feature","geometry":{"type":"Point","coordinates":[121.517647,31.242284]},"properties":{"full_address":"上海市上海市浦东新区陆家嘴街道荣成路9弄荣城花苑小区"}},{"type":"Feature","geometry":{"type":"Point","coordinates":[121.670806,31.27611]},"properties":{"full_address":"上海市上海市浦东新区曹路镇川沙路669号暖暖花园公寓"}},{"type":"Feature","geometry":{"type":"Point","coordinates":[121.705902,31.195977]},"properties":{"full_address":"上海市上海市浦东新区川沙新镇乔港路27、29、31、33号区域"}},{"type":"Feature","geometry":{"type":"Point","coordinates":[121.529765,31.139706]},"properties":{"full_address":"上海市上海市浦东新区东明路街道环林东路879弄衫林新月家园第一居民区"}},{"type":"Feature","geometry":{"type":"Point","coordinates":[121.563032,31.345629]},"properties":{"full_address":"上海市上海市浦东新区高桥镇陆凌村一组"}},{"type":"Feature","geometry":{"type":"Point","coordinates":[121.56045,31.227231]},"properties":{"full_address":"上海市上海市浦东新区花木街道明月路199弄小区"}},{"type":"Feature","geometry":{"type":"Point","coordinates":[121.566614,31.240892]},"properties":{"full_address":"上海市上海市浦东新区金杨新村街道香山新村西北街坊"}},{"type":"Feature","geometry":{"type":"Point","coordinates":[121.50825,31.229811]},"properties":{"full_address":"上海市上海市浦东新区陆家嘴街道浦城路99弄仁恒滨江园"}},{"type":"Feature","geometry":{"type":"Point","coordinates":[121.653992,31.208672]},"properties":{"full_address":"上海市上海市浦东新区唐镇东唐苑南区"}},{"type":"Feature","geometry":{"type":"Point","coordinates":[121.512775,31.222802]},"properties":{"full_address":"上海市上海市浦东新区潍坊新村街道潍坊西路1弄世茂滨江花园（北区）"}},{"type":"Feature","geometry":{"type":"Point","coordinates":[121.533817,31.230156]},"properties":{"full_address":"上海市上海市浦东新区潍坊新村街道源竹小区"}},{"type":"Feature","geometry":{"type":"Point","coordinates":[121.528219,31.225812]},"properties":{"full_address":"上海市上海市浦东新区潍坊新村街道竹南小区"}},{"type":"Feature","geometry":{"type":"Point","coordinates":[121.312613,31.146769]},"properties":{"full_address":"上海市上海市松江区九里亭街道涞寅路658弄绿庭尚城"}},{"type":"Feature","geometry":{"type":"Point","coordinates":[121.319089,31.129091]},"properties":{"full_address":"上海市上海市松江区九亭镇九新公路180弄云润家园"}},{"type":"Feature","geometry":{"type":"Point","coordinates":[121.251497,31.225011]},"properties":{"full_address":"上海市上海市青浦区华新镇纪秀路158弄1-375号"}},{"type":"Feature","geometry":{"type":"Point","coordinates":[121.512244,30.962256]},"properties":{"full_address":"上海市上海市奉贤区金汇镇沿港河路350弄"}},{"type":"Feature","geometry":{"type":"Point","coordinates":[120.449167,31.666255]},"properties":{"full_address":"江苏省无锡市锡山区锡北镇江苏倍特电动车有限公司（泾石路10号）"}},{"type":"Feature","geometry":{"type":"Point","coordinates":[120.284452,31.645038]},"properties":{"full_address":"江苏省无锡市惠山区堰桥街道阳光100阿尔勒二期"}},{"type":"Feature","geometry":{"type":"Point","coordinates":[120.298643,31.629063]},"properties":{"full_address":"江苏省无锡市惠山区堰桥街道林陆苑"}},{"type":"Feature","geometry":{"type":"Point","coordinates":[120.294726,31.679193]},"properties":{"full_address":"江苏省无锡市惠山区长安街道锦绣商业广场小区（时代公馆）"}},{"type":"Feature","geometry":{"type":"Point","coordinates":[120.242807,31.557039]},"properties":{"full_address":"江苏省无锡市滨湖区荣巷街道集景花园东北片区"}},{"type":"Feature","geometry":{"type":"Point","coordinates":[120.259474,31.552415]},"properties":{"full_address":"江苏省无锡市滨湖区蠡园街道隐秀苑线泾浜东侧"}},{"type":"Feature","geometry":{"type":"Point","coordinates":[120.27681,31.562104]},"properties":{"full_address":"江苏省无锡市滨湖区河埒街道幸福里（华润悦府）"}},{"type":"Feature","geometry":{"type":"Point","coordinates":[120.340177,31.595122]},"properties":{"full_address":"江苏省无锡市梁溪区广益街道广益星苑"}},{"type":"Feature","geometry":{"type":"Point","coordinates":[120.284087,31.597541]},"properties":{"full_address":"江苏省无锡市梁溪区北大街街道凤宾家园"}},{"type":"Feature","geometry":{"type":"Point","coordinates":[120.272386,31.585396]},"properties":{"full_address":"江苏省无锡市梁溪区惠山街道锡园"}},{"type":"Feature","geometry":{"type":"Point","coordinates":[120.268272,31.595037]},"properties":{"full_address":"江苏省无锡市梁溪区山北街道二泉东园"}},{"type":"Feature","geometry":{"type":"Point","coordinates":[120.316331,31.529784]},"properties":{"full_address":"江苏省无锡市梁溪区扬名街道芦村新村"}},{"type":"Feature","geometry":{"type":"Point","coordinates":[120.341672,31.591596]},"properties":{"full_address":"江苏省无锡市梁溪区广益街道金科东方水榭"}},{"type":"Feature","geometry":{"type":"Point","coordinates":[120.289508,31.569092]},"properties":{"full_address":"江苏省无锡市梁溪区惠山街道小木桥北"}},{"type":"Feature","geometry":{"type":"Point","coordinates":[120.363266,31.550681]},"properties":{"full_address":"江苏省无锡市新吴区旺庄街道春潮花园一区"}},{"type":"Feature","geometry":{"type":"Point","coordinates":[120.336503,31.569748]},"properties":{"full_address":"江苏省无锡市新吴区江溪街道中海海雅锦园一期"}},{"type":"Feature","geometry":{"type":"Point","coordinates":[120.448983,31.488633]},"properties":{"full_address":"江苏省无锡市新吴区硕放街道吉祥花园"}},{"type":"Feature","geometry":{"type":"Point","coordinates":[120.448036,31.482023]},"properties":{"full_address":"江苏省无锡市新吴区硕放街道如家公寓"}},{"type":"Feature","geometry":{"type":"Point","coordinates":[120.466402,31.476335]},"properties":{"full_address":"江苏省无锡市新吴区梅村街道金捷公寓"}},{"type":"Feature","geometry":{"type":"Point","coordinates":[120.44296,31.545238]},"properties":{"full_address":"江苏省无锡市新吴区梅村街道阿瓦山寨风情食街（五洲国际店）"}},{"type":"Feature","geometry":{"type":"Point","coordinates":[120.446124,31.476841]},"properties":{"full_address":"江苏省无锡市新吴区梅村街道呈湘·湖南口味菜(梅村店)"}},{"type":"Feature","geometry":{"type":"Point","coordinates":[120.437977,31.548388]},"properties":{"full_address":"江苏省无锡市新吴区梅村街道香梅二社区锡梅花园（金白领）小区"}},{"type":"Feature","geometry":{"type":"Point","coordinates":[120.447926,31.543923]},"properties":{"full_address":"江苏省无锡市新吴区梅村街道泰伯三社区泰伯五区"}},{"type":"Feature","geometry":{"type":"Point","coordinates":[120.437341,31.545786]},"properties":{"full_address":"江苏省无锡市新吴区梅村街道泰伯一社区泰伯一期"}},{"type":"Feature","geometry":{"type":"Point","coordinates":[120.44498,31.535324]},"properties":{"full_address":"江苏省无锡市新吴区梅村街道梅荆花苑6期"}},{"type":"Feature","geometry":{"type":"Point","coordinates":[120.476344,31.465904]},"properties":{"full_address":"江苏省无锡市新吴区硕放街道丽富社区片区（北至新农路，东至丽富社区东围墙，南至长江东路，西至里夫泾浜）"}},{"type":"Feature","geometry":{"type":"Point","coordinates":[120.440406,31.476547]},"properties":{"full_address":"江苏省无锡市新吴区硕放街道锦硕苑二期片区（东北至锦硕苑二期工地，西至南星路，南至墙宅路）"}},{"type":"Feature","geometry":{"type":"Point","coordinates":[120.496226,31.488959]},"properties":{"full_address":"江苏省无锡市新吴区鸿山街道一品旺快餐店"}},{"type":"Feature","geometry":{"type":"Point","coordinates":[120.452335,31.548511]},"properties":{"full_address":"江苏省无锡市新吴区梅村街道紫郡花园"}},{"type":"Feature","geometry":{"type":"Point","coordinates":[120.408769,31.492593]},"properties":{"full_address":"江苏省无锡市新吴区硕放街道长江南路生命科技园"}},{"type":"Feature","geometry":{"type":"Point","coordinates":[117.150239,34.299143]},"properties":{"full_address":"江苏省徐州市鼓楼区九里街道万科公园里54号楼"}},{"type":"Feature","geometry":{"type":"Point","coordinates":[117.157803,34.306589]},"properties":{"full_address":"江苏省徐州市鼓楼区万科城A2和A3区"}},{"type":"Feature","geometry":{"type":"Point","coordinates":[117.253233,34.240639]},"properties":{"full_address":"江苏省徐州市云龙区大郭庄街道如意社区"}},{"type":"Feature","geometry":{"type":"Point","coordinates":[117.204248,34.261343]},"properties":{"full_address":"江苏省徐州市云龙区子房街道梁庄社区利群小区"}},{"type":"Feature","geometry":{"type":"Point","coordinates":[117.314004,34.193471]},"properties":{"full_address":"江苏省徐州市云龙区大龙湖街道六堡村4组"}},{"type":"Feature","geometry":{"type":"Point","coordinates":[117.229678,34.208557]},"properties":{"full_address":"江苏省徐州市泉山区翟山街道御景湾社区"}},{"type":"Feature","geometry":{"type":"Point","coordinates":[117.172753,34.259261]},"properties":{"full_address":"江苏省徐州市泉山区翟山街道姚庄社区昆仑御小区"}},{"type":"Feature","geometry":{"type":"Point","coordinates":[117.226155,34.205719]},"properties":{"full_address":"江苏省徐州市泉山区翟山街道东南郡二期"}},{"type":"Feature","geometry":{"type":"Point","coordinates":[117.216496,34.200684]},"properties":{"full_address":"江苏省徐州市泉山区翟山街道恒大滨河左岸"}},{"type":"Feature","geometry":{"type":"Point","coordinates":[117.172926,34.211364]},"properties":{"full_address":"江苏省徐州市泉山区金山街道碧水湾一期"}},{"type":"Feature","geometry":{"type":"Point","coordinates":[117.274153,34.473117]},"properties":{"full_address":"江苏省徐州市铜山区柳泉镇铙山村"}},{"type":"Feature","geometry":{"type":"Point","coordinates":[117.191527,34.189999]},"properties":{"full_address":"江苏省徐州市铜山区铜山街道玉泉河社区万科新都会小区"}},{"type":"Feature","geometry":{"type":"Point","coordinates":[117.21399,34.185711]},"properties":{"full_address":"江苏省徐州市铜山区新区街道驿城村"}},{"type":"Feature","geometry":{"type":"Point","coordinates":[117.566461,33.543859]},"properties":{"full_address":"安徽省宿州市灵璧县东蔬社区除高风险区外的其他区域"}},{"type":"Feature","geometry":{"type":"Point","coordinates":[117.556626,33.541613]},"properties":{"full_address":"安徽省宿州市灵璧县山南社区除高风险区外的其他区域"}},{"type":"Feature","geometry":{"type":"Point","coordinates":[117.5568,33.542145]},"properties":{"full_address":"安徽省宿州市灵璧县太平社区除高风险区外的其他区域"}},{"type":"Feature","geometry":{"type":"Point","coordinates":[117.553181,33.527932]},"properties":{"full_address":"安徽省宿州市灵璧县滨河社区除高风险区外的其他区域"}},{"type":"Feature","geometry":{"type":"Point","coordinates":[117.557722,33.391376]},"properties":{"full_address":"安徽省宿州市灵璧县韦集镇除高风险区外的其他区域"}},{"type":"Feature","geometry":{"type":"Point","coordinates":[117.58245,33.464007]},"properties":{"full_address":"安徽省宿州市灵璧县向阳镇除高风险区外的其他区域"}},{"type":"Feature","geometry":{"type":"Point","coordinates":[117.505892,33.543213]},"properties":{"full_address":"安徽省宿州市灵璧县灵城镇刘赵村除高风险区外的其他区域"}},{"type":"Feature","geometry":{"type":"Point","coordinates":[117.542295,33.543493]},"properties":{"full_address":"安徽省宿州市灵璧县西关社区除高风险区外的其他区域"}},{"type":"Feature","geometry":{"type":"Point","coordinates":[117.567992,33.535907]},"properties":{"full_address":"安徽省宿州市灵璧县罗河社区除高风险区外的其他区域"}},{"type":"Feature","geometry":{"type":"Point","coordinates":[117.627478,33.526294]},"properties":{"full_address":"安徽省宿州市灵璧县虞姬镇除高风险区外的其他区域"}},{"type":"Feature","geometry":{"type":"Point","coordinates":[117.409204,33.561231]},"properties":{"full_address":"安徽省宿州市灵璧县娄庄镇除高风险区外的其他区域"}},{"type":"Feature","geometry":{"type":"Point","coordinates":[117.845016,33.655993]},"properties":{"full_address":"安徽省宿州市泗县大庄镇朝阳村"}},{"type":"Feature","geometry":{"type":"Point","coordinates":[117.940904,33.378137]},"properties":{"full_address":"安徽省宿州市泗县墩集镇霸王村"}},{"type":"Feature","geometry":{"type":"Point","coordinates":[117.870834,33.722613]},"properties":{"full_address":"安徽省宿州市泗县大庄镇王官村"}},{"type":"Feature","geometry":{"type":"Point","coordinates":[118.008995,33.388568]},"properties":{"full_address":"安徽省宿州市泗县墩集镇界牌张村"}},{"type":"Feature","geometry":{"type":"Point","coordinates":[117.947524,33.342471]},"properties":{"full_address":"安徽省宿州市泗县墩集镇石龙岗村"}},{"type":"Feature","geometry":{"type":"Point","coordinates":[117.882936,33.478012]},"properties":{"full_address":"安徽省宿州市泗县运河街道除高风险区外的其他区域"}},{"type":"Feature","geometry":{"type":"Point","coordinates":[117.882936,33.478012]},"properties":{"full_address":"安徽省宿州市泗县虹城街道除高风险区外的其他区域"}},{"type":"Feature","geometry":{"type":"Point","coordinates":[117.882936,33.478012]},"properties":{"full_address":"安徽省宿州市泗县泗水街道除高风险区外的其他区域"}},{"type":"Feature","geometry":{"type":"Point","coordinates":[117.877551,33.486382]},"properties":{"full_address":"安徽省宿州市泗县泗城镇除高风险区外的其他区域"}},{"type":"Feature","geometry":{"type":"Point","coordinates":[117.894231,33.384838]},"properties":{"full_address":"安徽省宿州市泗县大路口镇除高风险区外的其他区域"}},{"type":"Feature","geometry":{"type":"Point","coordinates":[117.722861,33.368532]},"properties":{"full_address":"安徽省宿州市泗县草沟镇除高风险区外的其他区域"}},{"type":"Feature","geometry":{"type":"Point","coordinates":[117.824432,33.363866]},"properties":{"full_address":"安徽省宿州市泗县丁湖镇除高风险区外的其他区域"}},{"type":"Feature","geometry":{"type":"Point","coordinates":[117.865704,33.564974]},"properties":{"full_address":"安徽省宿州市泗县屏山镇除高风险区外的其他区域"}},{"type":"Feature","geometry":{"type":"Point","coordinates":[117.713639,33.509679]},"properties":{"full_address":"安徽省宿州市泗县长沟镇除高风险区外的其他区域"}},{"type":"Feature","geometry":{"type":"Point","coordinates":[117.607902,24.626923]},"properties":{"full_address":"福建省漳州市芗城区浦南镇布坑村（除龙前社26-1号4幢、布坑新村外）"}},{"type":"Feature","geometry":{"type":"Point","coordinates":[119.996815,26.876574]},"properties":{"full_address":"福建省宁德市霞浦县松城街道彩虹社区"}},{"type":"Feature","geometry":{"type":"Point","coordinates":[119.999102,26.880331]},"properties":{"full_address":"福建省宁德市霞浦县松城街道俊星社区"}},{"type":"Feature","geometry":{"type":"Point","coordinates":[119.99669,26.88174]},"properties":{"full_address":"福建省宁德市霞浦县松城街道西关社区"}},{"type":"Feature","geometry":{"type":"Point","coordinates":[120.009354,26.887289]},"properties":{"full_address":"福建省宁德市霞浦县松城街道万贤社区"}},{"type":"Feature","geometry":{"type":"Point","coordinates":[120.008377,26.879877]},"properties":{"full_address":"福建省宁德市霞浦县松城街道龙贤社区"}},{"type":"Feature","geometry":{"type":"Point","coordinates":[120.003015,26.884743]},"properties":{"full_address":"福建省宁德市霞浦县松城街道松兴社区"}},{"type":"Feature","geometry":{"type":"Point","coordinates":[120.002248,26.87752]},"properties":{"full_address":"福建省宁德市霞浦县松城街道俊贤社区"}},{"type":"Feature","geometry":{"type":"Point","coordinates":[120.005319,26.878397]},"properties":{"full_address":"福建省宁德市霞浦县松城街道兴贤社区"}},{"type":"Feature","geometry":{"type":"Point","coordinates":[119.984562,26.865271]},"properties":{"full_address":"福建省宁德市霞浦县松城街道玉旺新村"}},{"type":"Feature","geometry":{"type":"Point","coordinates":[119.936094,26.945086]},"properties":{"full_address":"福建省宁德市霞浦县崇儒乡杨沙溪村"}},{"type":"Feature","geometry":{"type":"Point","coordinates":[119.857975,26.777514]},"properties":{"full_address":"福建省宁德市霞浦县沙江镇坡头村（除渔民沃自然村外）"}},{"type":"Feature","geometry":{"type":"Point","coordinates":[120.018583,26.892098]},"properties":{"full_address":"福建省宁德市霞浦县松港街道东关社区"}},{"type":"Feature","geometry":{"type":"Point","coordinates":[120.026719,26.885113]},"properties":{"full_address":"福建省宁德市霞浦县松港街道东昇社区"}},{"type":"Feature","geometry":{"type":"Point","coordinates":[120.002294,26.884986]},"properties":{"full_address":"福建省宁德市霞浦县松港街道东景社区"}},{"type":"Feature","geometry":{"type":"Point","coordinates":[120.023117,26.887386]},"properties":{"full_address":"福建省宁德市霞浦县松港街道东兴社区"}},{"type":"Feature","geometry":{"type":"Point","coordinates":[120.002294,26.884986]},"properties":{"full_address":"福建省宁德市霞浦县松港街道东阳社区"}},{"type":"Feature","geometry":{"type":"Point","coordinates":[120.043048,26.892402]},"properties":{"full_address":"福建省宁德市霞浦县松港街道后港村"}},{"type":"Feature","geometry":{"type":"Point","coordinates":[120.014034,26.882229]},"properties":{"full_address":"福建省宁德市霞浦县松山街道世邦三千府小区"}},{"type":"Feature","geometry":{"type":"Point","coordinates":[119.995897,26.882219]},"properties":{"full_address":"福建省宁德市霞浦县松城街道龙津社区"}},{"type":"Feature","geometry":{"type":"Point","coordinates":[120.004488,26.887446]},"properties":{"full_address":"福建省宁德市霞浦县松城街道城北社区"}},{"type":"Feature","geometry":{"type":"Point","coordinates":[120.006353,26.882759]},"properties":{"full_address":"福建省宁德市霞浦县松城街道集贤社区"}},{"type":"Feature","geometry":{"type":"Point","coordinates":[120.025845,26.904393]},"properties":{"full_address":"福建省宁德市霞浦县松港街道桥头村"}},{"type":"Feature","geometry":{"type":"Point","coordinates":[120.039572,26.883611]},"properties":{"full_address":"福建省宁德市霞浦县松港街道利埕村"}},{"type":"Feature","geometry":{"type":"Point","coordinates":[120.003756,26.883719]},"properties":{"full_address":"福建省宁德市霞浦县松城街道中乘社区"}},{"type":"Feature","geometry":{"type":"Point","coordinates":[120.085749,26.887649]},"properties":{"full_address":"福建省宁德市霞浦县松城街道后岐村"}},{"type":"Feature","geometry":{"type":"Point","coordinates":[120.082181,26.88288]},"properties":{"full_address":"福建省宁德市霞浦县松城街道青岐村"}},{"type":"Feature","geometry":{"type":"Point","coordinates":[120.173559,35.979118]},"properties":{"full_address":"山东省青岛市黄岛区江山南路541号车家岭卫生室"}},{"type":"Feature","geometry":{"type":"Point","coordinates":[120.183292,35.975908]},"properties":{"full_address":"山东省青岛市黄岛区太行山一支路77号众家惠超市"}},{"type":"Feature","geometry":{"type":"Point","coordinates":[118.230639,35.129288]},"properties":{"full_address":"山东省临沂市兰山区义堂镇堰东村其他区域"}},{"type":"Feature","geometry":{"type":"Point","coordinates":[118.301255,35.05206]},"properties":{"full_address":"山东省临沂市兰山区银雀山街道银雀华府小区"}},{"type":"Feature","geometry":{"type":"Point","coordinates":[118.305452,35.116443]},"properties":{"full_address":"山东省临沂市兰山区兰山街道二十里堡社区"}},{"type":"Feature","geometry":{"type":"Point","coordinates":[118.201807,35.176369]},"properties":{"full_address":"山东省临沂市兰山区义堂镇小葛庄村"}},{"type":"Feature","geometry":{"type":"Point","coordinates":[117.856554,34.743484]},"properties":{"full_address":"山东省临沂市兰陵县兰陵镇高风险地区之外的区域"}},{"type":"Feature","geometry":{"type":"Point","coordinates":[113.486419,32.957184]},"properties":{"full_address":"河南省驻马店市泌阳县付庄乡除高风险区之外的所有区域"}},{"type":"Feature","geometry":{"type":"Point","coordinates":[113.274339,23.07748]},"properties":{"full_address":"广东省广州市海珠区南石头街道顺意花园（除高风险区外）"}},{"type":"Feature","geometry":{"type":"Point","coordinates":[114.144897,22.564463]},"properties":{"full_address":"广东省深圳市罗湖区黄贝街道东深大院（除高风险区外）"}},{"type":"Feature","geometry":{"type":"Point","coordinates":[114.120258,22.534455]},"properties":{"full_address":"广东省深圳市罗湖区南湖街道罗湖新村（除高风险区外）"}},{"type":"Feature","geometry":{"type":"Point","coordinates":[114.127666,22.549546]},"properties":{"full_address":"广东省深圳市罗湖区东门街道一品雅园东门168南座"}},{"type":"Feature","geometry":{"type":"Point","coordinates":[114.141061,22.549772]},"properties":{"full_address":"广东省深圳市罗湖区黄贝街道黄贝岭中村1栋至88栋（除高风险区外）"}},{"type":"Feature","geometry":{"type":"Point","coordinates":[114.156623,22.552786]},"properties":{"full_address":"广东省深圳市罗湖区莲塘街道兰亭国际一座（6楼至50楼）"}},{"type":"Feature","geometry":{"type":"Point","coordinates":[114.061507,22.521955]},"properties":{"full_address":"广东省深圳市福田区福田街道皇岗新村一期（除高风险区外）"}},{"type":"Feature","geometry":{"type":"Point","coordinates":[113.969281,22.532188]},"properties":{"full_address":"广东省深圳市南山区沙河街道白石洲村（除高风险区外）"}},{"type":"Feature","geometry":{"type":"Point","coordinates":[110.335245,20.050287]},"properties":{"full_address":"海南省海口市美兰区人民大道以西、海甸一西路以北、海甸三西路以南的合围区域"}},{"type":"Feature","geometry":{"type":"Point","coordinates":[110.313852,20.055984]},"properties":{"full_address":"海南省海口市美兰区华彩·海口湾广场工地生活区"}},{"type":"Feature","geometry":{"type":"Point","coordinates":[110.361991,20.062432]},"properties":{"full_address":"海南省海口市美兰区海口湾6号驿站"}},{"type":"Feature","geometry":{"type":"Point","coordinates":[109.035422,34.23808]},"properties":{"full_address":"陕西省西安市雁塔区等驾坡街道白杨寨村"}},{"type":"Feature","geometry":{"type":"Point","coordinates":[108.989032,34.185265]},"properties":{"full_address":"陕西省西安市雁塔区羊头镇社区"}},{"type":"Feature","geometry":{"type":"Point","coordinates":[108.929031,34.206541]},"properties":{"full_address":"陕西省西安市雁塔区长延堡街道阳光丽都小区（含商铺）"}},{"type":"Feature","geometry":{"type":"Point","coordinates":[109.012922,34.177592]},"properties":{"full_address":"陕西省西安市长安区韦曲街道简王井村陕西朝辉再生资源交易集散市场（大风尚再生艺术馆）"}},{"type":"Feature","geometry":{"type":"Point","coordinates":[109.009112,34.207903]},"properties":{"full_address":"陕西省西安市曲江新区中铁国际社区龙邸小区"}},{"type":"Feature","geometry":{"type":"Point","coordinates":[108.973439,34.191396]},"properties":{"full_address":"陕西省西安市曲江新区金地天境社区春晓苑小区"}},{"type":"Feature","geometry":{"type":"Point","coordinates":[108.984699,34.184887]},"properties":{"full_address":"陕西省西安市曲江新区曲江香都社区香都东岸小区"}},{"type":"Feature","geometry":{"type":"Point","coordinates":[108.963468,34.174148]},"properties":{"full_address":"陕西省西安市曲江新区雁南路曲江金辉小学"}},{"type":"Feature","geometry":{"type":"Point","coordinates":[108.954903,34.162919]},"properties":{"full_address":"陕西省西安市航天基地上元郡社区泓景云尚小区"}},{"type":"Feature","geometry":{"type":"Point","coordinates":[108.954484,34.162941]},"properties":{"full_address":"陕西省西安市航天基地农行小区"}},{"type":"Feature","geometry":{"type":"Point","coordinates":[103.814877,36.095057]},"properties":{"full_address":"甘肃省兰州市城关区靖远路街道九州东环路宇泰嘉园小区"}},{"type":"Feature","geometry":{"type":"Point","coordinates":[103.722396,36.083987]},"properties":{"full_address":"甘肃省兰州市七里河区兰州老街（7188号路<银滩路>以西、金豪庭以东、西津西路以北、马滩路以南区域）"}}]}