{"type":"FeatureCollection","features":[{"type":"Feature","geometry":{"type":"Point","coordinates":[116.280447,39.778869]},"properties":{"full_address":"北京市大兴区黄村（地区）镇狼垡一村除高风险区外的其他区域"}},{"type":"Feature","geometry":{"type":"Point","coordinates":[117.259269,39.10488]},"properties":{"full_address":"天津市天津市河东区中山门街道中山门西里21号楼独院"}},{"type":"Feature","geometry":{"type":"Point","coordinates":[117.262074,39.155391]},"properties":{"full_address":"天津市天津市河东区常州道街道东惠家园9号楼"}},{"type":"Feature","geometry":{"type":"Point","coordinates":[117.202719,39.101268]},"properties":{"full_address":"天津市天津市河西区马场街四化里单号院"}},{"type":"Feature","geometry":{"type":"Point","coordinates":[117.202719,39.101268]},"properties":{"full_address":"天津市天津市河西区河西区马场街四化里双号院"}},{"type":"Feature","geometry":{"type":"Point","coordinates":[117.200109,39.101836]},"properties":{"full_address":"天津市天津市河西区佟卫里小区全域"}},{"type":"Feature","geometry":{"type":"Point","coordinates":[117.310786,39.08625]},"properties":{"full_address":"天津市天津市东丽区张贵庄街津门里小区增12号楼"}},{"type":"Feature","geometry":{"type":"Point","coordinates":[117.277164,39.111013]},"properties":{"full_address":"天津市天津市东丽区万新街增兴家园小区15号楼"}},{"type":"Feature","geometry":{"type":"Point","coordinates":[117.024596,39.392551]},"properties":{"full_address":"天津市天津市武清区东蒲洼街光明道金都花园（29号楼除外）"}},{"type":"Feature","geometry":{"type":"Point","coordinates":[117.059761,39.410327]},"properties":{"full_address":"天津市天津市武清区杨村街尚清湾A区（27号楼1单元除外）"}},{"type":"Feature","geometry":{"type":"Point","coordinates":[117.697477,39.043479]},"properties":{"full_address":"天津市天津市滨海新区经开区鸿发公寓B栋"}},{"type":"Feature","geometry":{"type":"Point","coordinates":[117.658569,39.064724]},"properties":{"full_address":"天津市天津市滨海新区新北街贻成尚北1号楼、8号楼、13号楼、16号楼、17号楼"}},{"type":"Feature","geometry":{"type":"Point","coordinates":[117.657219,39.058901]},"properties":{"full_address":"天津市天津市滨海新区新北街河北路70号"}},{"type":"Feature","geometry":{"type":"Point","coordinates":[117.663899,39.060074]},"properties":{"full_address":"天津市天津市滨海新区新北街贻正嘉合16号楼"}},{"type":"Feature","geometry":{"type":"Point","coordinates":[117.655548,39.053362]},"properties":{"full_address":"天津市天津市滨海新区新北街迎年里10号楼"}},{"type":"Feature","geometry":{"type":"Point","coordinates":[117.649876,39.069829]},"properties":{"full_address":"天津市天津市滨海新区新北街贻成豪庭3号楼"}},{"type":"Feature","geometry":{"type":"Point","coordinates":[117.660281,39.039062]},"properties":{"full_address":"天津市天津市滨海新区杭州道街广州道37、39、41、43号"}},{"type":"Feature","geometry":{"type":"Point","coordinates":[117.679804,39.040525]},"properties":{"full_address":"天津市天津市滨海新区杭州道街智谛山18号楼、22号楼"}},{"type":"Feature","geometry":{"type":"Point","coordinates":[117.657498,39.042663]},"properties":{"full_address":"天津市天津市滨海新区杭州道街城市名居2号楼"}},{"type":"Feature","geometry":{"type":"Point","coordinates":[117.66866,39.04325]},"properties":{"full_address":"天津市天津市滨海新区杭州道街贻和花园11号楼"}},{"type":"Feature","geometry":{"type":"Point","coordinates":[117.663917,39.034761]},"properties":{"full_address":"天津市天津市滨海新区杭州道街美景园7号楼"}},{"type":"Feature","geometry":{"type":"Point","coordinates":[117.644618,39.042574]},"properties":{"full_address":"天津市天津市滨海新区新河街湘江里12号楼"}},{"type":"Feature","geometry":{"type":"Point","coordinates":[117.628505,39.051276]},"properties":{"full_address":"天津市天津市滨海新区新河街南益名士华庭14号楼"}},{"type":"Feature","geometry":{"type":"Point","coordinates":[117.636666,39.034648]},"properties":{"full_address":"天津市天津市滨海新区新河街百兴里5号楼"}},{"type":"Feature","geometry":{"type":"Point","coordinates":[117.644466,39.044297]},"properties":{"full_address":"天津市天津市滨海新区新河街漓江里14号楼"}},{"type":"Feature","geometry":{"type":"Point","coordinates":[117.635883,39.13196]},"properties":{"full_address":"天津市天津市滨海新区北塘街欣康苑8号楼"}},{"type":"Feature","geometry":{"type":"Point","coordinates":[117.71707,39.106827]},"properties":{"full_address":"天津市天津市滨海新区北塘街欣平苑6号楼"}},{"type":"Feature","geometry":{"type":"Point","coordinates":[117.657937,39.103517]},"properties":{"full_address":"天津市天津市滨海新区北塘街中建幸福城64号楼"}},{"type":"Feature","geometry":{"type":"Point","coordinates":[117.687186,39.037389]},"properties":{"full_address":"天津市天津市滨海新区泰达街捷达园B栋"}},{"type":"Feature","geometry":{"type":"Point","coordinates":[117.639848,39.042094]},"properties":{"full_address":"天津市天津市滨海新区新河街西江里11号楼"}},{"type":"Feature","geometry":{"type":"Point","coordinates":[117.73193,39.02126]},"properties":{"full_address":"天津市天津市滨海新区泰达街朗月轩2号楼"}},{"type":"Feature","geometry":{"type":"Point","coordinates":[117.721736,39.086567]},"properties":{"full_address":"天津市天津市滨海新区泰达街尚德园1号楼"}},{"type":"Feature","geometry":{"type":"Point","coordinates":[117.726231,39.035263]},"properties":{"full_address":"天津市天津市滨海新区泰达街万通新城国际10号楼"}},{"type":"Feature","geometry":{"type":"Point","coordinates":[117.643016,39.062748]},"properties":{"full_address":"天津市天津市滨海新区新北街盛星东海岸6号楼"}},{"type":"Feature","geometry":{"type":"Point","coordinates":[117.652508,39.056072]},"properties":{"full_address":"天津市天津市滨海新区新北街堰宾里5号楼、21号楼"}},{"type":"Feature","geometry":{"type":"Point","coordinates":[117.668117,39.048794]},"properties":{"full_address":"天津市天津市滨海新区新北街晓镇家园3号楼"}},{"type":"Feature","geometry":{"type":"Point","coordinates":[117.657227,39.064575]},"properties":{"full_address":"天津市天津市滨海新区新北街贻成尚北4号楼"}},{"type":"Feature","geometry":{"type":"Point","coordinates":[117.666329,39.055599]},"properties":{"full_address":"天津市天津市滨海新区新北街蓝山花园东区2号楼"}},{"type":"Feature","geometry":{"type":"Point","coordinates":[117.66214,39.062144]},"properties":{"full_address":"天津市天津市滨海新区新北街紫荆花园1号楼"}},{"type":"Feature","geometry":{"type":"Point","coordinates":[117.658958,39.052973]},"properties":{"full_address":"天津市天津市滨海新区新北街首创国际城4号楼、33号楼"}},{"type":"Feature","geometry":{"type":"Point","coordinates":[117.67117,39.044761]},"properties":{"full_address":"天津市天津市滨海新区杭州道街贻和花园26号楼"}},{"type":"Feature","geometry":{"type":"Point","coordinates":[117.700591,39.093209]},"properties":{"full_address":"天津市天津市滨海新区北塘街御澜名邸6号楼"}},{"type":"Feature","geometry":{"type":"Point","coordinates":[117.657442,38.992905]},"properties":{"full_address":"天津市天津市滨海新区大沽街海昌天澜9号楼"}},{"type":"Feature","geometry":{"type":"Point","coordinates":[117.65476,39.057615]},"properties":{"full_address":"天津市天津市滨海新区新北街迎宾园8号楼、9号楼"}},{"type":"Feature","geometry":{"type":"Point","coordinates":[117.65533,39.055055]},"properties":{"full_address":"天津市天津市滨海新区新北街裕川家园1号楼"}},{"type":"Feature","geometry":{"type":"Point","coordinates":[117.672598,39.04773]},"properties":{"full_address":"天津市天津市滨海新区新北街晓镇家园19号楼"}},{"type":"Feature","geometry":{"type":"Point","coordinates":[117.671471,39.051396]},"properties":{"full_address":"天津市天津市滨海新区新北街晴景家园9号楼"}},{"type":"Feature","geometry":{"type":"Point","coordinates":[117.641707,39.055993]},"properties":{"full_address":"天津市天津市滨海新区新北街融科心贻湾3号楼"}},{"type":"Feature","geometry":{"type":"Point","coordinates":[117.652542,39.063978]},"properties":{"full_address":"天津市天津市滨海新区新北街中铁诺德名苑20号楼"}},{"type":"Feature","geometry":{"type":"Point","coordinates":[117.673618,39.052444]},"properties":{"full_address":"天津市天津市滨海新区新北街天津中建万里石石材有限公司宿舍楼"}},{"type":"Feature","geometry":{"type":"Point","coordinates":[117.644192,39.042368]},"properties":{"full_address":"天津市天津市滨海新区新河街湘江里11号楼"}},{"type":"Feature","geometry":{"type":"Point","coordinates":[117.641646,39.040124]},"properties":{"full_address":"天津市天津市滨海新区新河街珠江里13号楼"}},{"type":"Feature","geometry":{"type":"Point","coordinates":[117.638251,39.045624]},"properties":{"full_address":"天津市天津市滨海新区新河街岷江西里1号楼"}},{"type":"Feature","geometry":{"type":"Point","coordinates":[117.558128,39.133826]},"properties":{"full_address":"天津市天津市滨海新区北塘街绅湖公馆2号楼"}},{"type":"Feature","geometry":{"type":"Point","coordinates":[117.71707,39.106827]},"properties":{"full_address":"天津市天津市滨海新区北塘街欣昌苑11号楼"}},{"type":"Feature","geometry":{"type":"Point","coordinates":[117.655606,39.044946]},"properties":{"full_address":"天津市天津市滨海新区杭州道街贻成奥林花园9号楼"}},{"type":"Feature","geometry":{"type":"Point","coordinates":[117.65731,39.04211]},"properties":{"full_address":"天津市天津市滨海新区杭州道街城市名居1号楼"}},{"type":"Feature","geometry":{"type":"Point","coordinates":[117.700273,39.009044]},"properties":{"full_address":"天津市天津市滨海新区塘沽街紫云园6号楼"}},{"type":"Feature","geometry":{"type":"Point","coordinates":[117.700539,38.982061]},"properties":{"full_address":"天津市天津市滨海新区大沽街和荣苑3号楼"}},{"type":"Feature","geometry":{"type":"Point","coordinates":[117.740677,39.033304]},"properties":{"full_address":"天津市天津市滨海新区新港街启航嘉园1号楼、2号楼"}},{"type":"Feature","geometry":{"type":"Point","coordinates":[117.599733,39.035423]},"properties":{"full_address":"天津市天津市滨海新区胡家园街滨尚花园7号楼"}},{"type":"Feature","geometry":{"type":"Point","coordinates":[117.555539,39.089626]},"properties":{"full_address":"天津市天津市滨海新区经开区天渤公寓2号楼"}},{"type":"Feature","geometry":{"type":"Point","coordinates":[117.722927,39.075827]},"properties":{"full_address":"天津市天津市滨海新区经开区天润公寓2号楼、3号楼"}},{"type":"Feature","geometry":{"type":"Point","coordinates":[117.731094,39.073357]},"properties":{"full_address":"天津市天津市滨海新区经开区天泽公寓1号楼"}},{"type":"Feature","geometry":{"type":"Point","coordinates":[117.651915,39.05681]},"properties":{"full_address":"天津市天津市滨海新区新北街堰宾里1号楼"}},{"type":"Feature","geometry":{"type":"Point","coordinates":[117.656243,39.055326]},"properties":{"full_address":"天津市天津市滨海新区新北街裕川家园3号楼"}},{"type":"Feature","geometry":{"type":"Point","coordinates":[117.641383,39.064569]},"properties":{"full_address":"天津市天津市滨海新区新北街盛星东海岸17号楼"}},{"type":"Feature","geometry":{"type":"Point","coordinates":[117.653372,39.056831]},"properties":{"full_address":"天津市天津市滨海新区新北街堰宾里6号楼、16号楼"}},{"type":"Feature","geometry":{"type":"Point","coordinates":[117.646402,39.065342]},"properties":{"full_address":"天津市天津市滨海新区新北街万通上北新新家园62号楼"}},{"type":"Feature","geometry":{"type":"Point","coordinates":[116.95784,38.93465]},"properties":{"full_address":"天津市天津市静海区朝阳街道喆啡酒店（海馨园店）周边合围底商"}},{"type":"Feature","geometry":{"type":"Point","coordinates":[119.57846,39.958187]},"properties":{"full_address":"河北省秦皇岛市海港区华盾凤凰城一期"}},{"type":"Feature","geometry":{"type":"Point","coordinates":[119.577556,39.949355]},"properties":{"full_address":"河北省秦皇岛市海港区铁庄新村"}},{"type":"Feature","geometry":{"type":"Point","coordinates":[119.255445,39.86681]},"properties":{"full_address":"河北省秦皇岛市抚宁区骊城街道紫金湾景尚小区除13号楼以外的区域"}},{"type":"Feature","geometry":{"type":"Point","coordinates":[115.564716,38.881583]},"properties":{"full_address":"河北省保定市莲池区河北大学七一路校区（七一东路2666号）"}},{"type":"Feature","geometry":{"type":"Point","coordinates":[114.894222,40.806233]},"properties":{"full_address":"河北省张家口市桥东区胜利北路街道汉桥北街社区除南口国税局家属院2号楼以外的区域"}},{"type":"Feature","geometry":{"type":"Point","coordinates":[114.888088,40.788294]},"properties":{"full_address":"河北省张家口市桥东区胜利北路街道德胜街社区"}},{"type":"Feature","geometry":{"type":"Point","coordinates":[114.892206,40.814157]},"properties":{"full_address":"河北省张家口市桥东区陆军第81集团军医院（含院内家属区）"}},{"type":"Feature","geometry":{"type":"Point","coordinates":[114.879394,40.78465]},"properties":{"full_address":"河北省张家口市桥东区红旗楼街道汉桥南街社区"}},{"type":"Feature","geometry":{"type":"Point","coordinates":[114.897231,40.819728]},"properties":{"full_address":"河北省张家口市桥东区五一路街道五一路社区陆军第81集团军医院北院家属区。"}},{"type":"Feature","geometry":{"type":"Point","coordinates":[114.887173,40.827186]},"properties":{"full_address":"河北省张家口市桥西区公园路综合市场（下东营路店）"}},{"type":"Feature","geometry":{"type":"Point","coordinates":[114.881646,40.818232]},"properties":{"full_address":"河北省张家口市桥西区武城街社区除武城街步行街以外的区域"}},{"type":"Feature","geometry":{"type":"Point","coordinates":[114.876503,40.819398]},"properties":{"full_address":"河北省张家口市桥西区鼓楼西街社区"}},{"type":"Feature","geometry":{"type":"Point","coordinates":[114.878339,40.820924]},"properties":{"full_address":"河北省张家口市桥西区北关街社区"}},{"type":"Feature","geometry":{"type":"Point","coordinates":[115.09951,40.608726]},"properties":{"full_address":"河北省张家口市宣化区义圣宫青云美术班所在楼栋"}},{"type":"Feature","geometry":{"type":"Point","coordinates":[115.064389,40.606121]},"properties":{"full_address":"河北省张家口市宣化区万字会南路"}},{"type":"Feature","geometry":{"type":"Point","coordinates":[115.09951,40.608726]},"properties":{"full_address":"河北省张家口市宣化区宣钢设备能源部气化作业区"}},{"type":"Feature","geometry":{"type":"Point","coordinates":[115.061134,40.604462]},"properties":{"full_address":"河北省张家口市宣化区东草市街"}},{"type":"Feature","geometry":{"type":"Point","coordinates":[115.063843,40.605628]},"properties":{"full_address":"河北省张家口市宣化区东二道巷"}},{"type":"Feature","geometry":{"type":"Point","coordinates":[115.066071,40.609918]},"properties":{"full_address":"河北省张家口市宣化区武庙街"}},{"type":"Feature","geometry":{"type":"Point","coordinates":[115.063766,40.616113]},"properties":{"full_address":"河北省张家口市宣化区钟楼大街（钟楼至花巷段）"}},{"type":"Feature","geometry":{"type":"Point","coordinates":[115.09951,40.608726]},"properties":{"full_address":"河北省张家口市宣化区双盛批发大市场"}},{"type":"Feature","geometry":{"type":"Point","coordinates":[115.063774,40.61261]},"properties":{"full_address":"河北省张家口市宣化区灵官庙街精英口语培训班所在楼栋"}},{"type":"Feature","geometry":{"type":"Point","coordinates":[113.986087,41.080042]},"properties":{"full_address":"河北省张家口市尚义县滨河新城住宅小区南区"}},{"type":"Feature","geometry":{"type":"Point","coordinates":[113.980144,41.075618]},"properties":{"full_address":"河北省张家口市尚义县太平南路新县医院对面华佗药房"}},{"type":"Feature","geometry":{"type":"Point","coordinates":[113.986087,41.080042]},"properties":{"full_address":"河北省张家口市尚义县滨河新城住宅小区底商万德福超市"}},{"type":"Feature","geometry":{"type":"Point","coordinates":[114.91194,40.762419]},"properties":{"full_address":"河北省张家口市经开区马路东街道办事处福源里社区茶榆云顶小区8号楼"}},{"type":"Feature","geometry":{"type":"Point","coordinates":[114.878049,40.770992]},"properties":{"full_address":"河北省张家口市经开区南站街道学府路社区河北北方学院西校区"}},{"type":"Feature","geometry":{"type":"Point","coordinates":[114.925178,40.66847]},"properties":{"full_address":"河北省张家口市经开区沙岭子镇二里半村河北北方学院南校区"}},{"type":"Feature","geometry":{"type":"Point","coordinates":[114.929788,40.690771]},"properties":{"full_address":"河北省张家口市经开区沙岭子镇全域屈家庄村以外的其他区域"}},{"type":"Feature","geometry":{"type":"Point","coordinates":[117.078295,39.982718]},"properties":{"full_address":"河北省廊坊市三河市京贸物联农副产品市场"}},{"type":"Feature","geometry":{"type":"Point","coordinates":[116.84276,39.970769]},"properties":{"full_address":"河北省廊坊市三河市燕郊镇发盖子村"}},{"type":"Feature","geometry":{"type":"Point","coordinates":[112.597103,37.827988]},"properties":{"full_address":"山西省太原市小店区白云小区（不含5号楼）"}},{"type":"Feature","geometry":{"type":"Point","coordinates":[112.564678,37.960443]},"properties":{"full_address":"山西省太原市尖草坪区山西屯汇果蔬交易中心"}},{"type":"Feature","geometry":{"type":"Point","coordinates":[112.567307,37.953909]},"properties":{"full_address":"山西省太原市尖草坪区新店村"}},{"type":"Feature","geometry":{"type":"Point","coordinates":[112.5164,37.82637]},"properties":{"full_address":"山西省太原市万柏林区融创长风壹号小区"}},{"type":"Feature","geometry":{"type":"Point","coordinates":[112.497141,37.859454]},"properties":{"full_address":"山西省太原市万柏林区华清苑-东区"}},{"type":"Feature","geometry":{"type":"Point","coordinates":[112.51402,37.823326]},"properties":{"full_address":"山西省太原市万柏林区南上庄西街小区"}},{"type":"Feature","geometry":{"type":"Point","coordinates":[112.49018,37.78044]},"properties":{"full_address":"山西省太原市晋源区德恒世府苑小区"}},{"type":"Feature","geometry":{"type":"Point","coordinates":[112.50806,37.81446]},"properties":{"full_address":"山西省太原市晋源区东至晋源区与万柏林区交界，南至长兴南街，西至西中环路，北至义井南三巷新光六小区北界"}},{"type":"Feature","geometry":{"type":"Point","coordinates":[112.521793,37.804889]},"properties":{"full_address":"山西省太原市晋源区东至晋源区与万柏林区交界，南至长兴南街，西至晋源区与万柏林区交界，北至晋源区与万柏林区交界"}},{"type":"Feature","geometry":{"type":"Point","coordinates":[112.452325,37.724689]},"properties":{"full_address":"山西省太原市晋源区晋祠镇西镇村"}},{"type":"Feature","geometry":{"type":"Point","coordinates":[113.612496,40.040156]},"properties":{"full_address":"山西省大同市云州区第三小学附近平房出租屋"}},{"type":"Feature","geometry":{"type":"Point","coordinates":[113.613149,40.042811]},"properties":{"full_address":"山西省大同市云州区城镇小学"}},{"type":"Feature","geometry":{"type":"Point","coordinates":[113.612496,40.040156]},"properties":{"full_address":"山西省大同市云州区星光商场"}},{"type":"Feature","geometry":{"type":"Point","coordinates":[113.61015,40.044508]},"properties":{"full_address":"山西省大同市云州区西坪镇东梁平房 66 排 3 号院"}},{"type":"Feature","geometry":{"type":"Point","coordinates":[113.606001,40.045048]},"properties":{"full_address":"山西省大同市云州区西坪镇水头村及附近平房"}},{"type":"Feature","geometry":{"type":"Point","coordinates":[112.43226,39.298977]},"properties":{"full_address":"山西省朔州市朔城区清华园小区全域"}},{"type":"Feature","geometry":{"type":"Point","coordinates":[112.470691,39.332834]},"properties":{"full_address":"山西省朔州市朔城区七里河村全域"}},{"type":"Feature","geometry":{"type":"Point","coordinates":[112.409103,39.312408]},"properties":{"full_address":"山西省朔州市朔城区家和苑中心社区所辖区域"}},{"type":"Feature","geometry":{"type":"Point","coordinates":[112.414,39.311935]},"properties":{"full_address":"山西省朔州市朔城区西关街中心社区所辖区域"}},{"type":"Feature","geometry":{"type":"Point","coordinates":[112.403376,39.321192]},"properties":{"full_address":"山西省朔州市朔城区怡家苑小区全域"}},{"type":"Feature","geometry":{"type":"Point","coordinates":[112.42215,39.305061]},"properties":{"full_address":"山西省朔州市朔城区城南中心社区、南关村所辖区域"}},{"type":"Feature","geometry":{"type":"Point","coordinates":[112.398351,37.316384]},"properties":{"full_address":"山西省晋中市祁县除下古县村外的古县镇全域"}},{"type":"Feature","geometry":{"type":"Point","coordinates":[112.331611,37.379279]},"properties":{"full_address":"山西省晋中市祁县昭馀镇丰泽村（含金半苑小区）"}},{"type":"Feature","geometry":{"type":"Point","coordinates":[112.341316,37.356289]},"properties":{"full_address":"山西省晋中市祁县县城区昌源路社区南酒厂宿舍小区"}},{"type":"Feature","geometry":{"type":"Point","coordinates":[111.034621,35.103434]},"properties":{"full_address":"山西省运城市盐湖区学府名都小区"}},{"type":"Feature","geometry":{"type":"Point","coordinates":[110.985939,35.01157]},"properties":{"full_address":"山西省运城市盐湖区华都佳苑小区"}},{"type":"Feature","geometry":{"type":"Point","coordinates":[110.963202,35.094384]},"properties":{"full_address":"山西省运城市盐湖区高速小区"}},{"type":"Feature","geometry":{"type":"Point","coordinates":[110.981047,35.047247]},"properties":{"full_address":"山西省运城市盐湖区北城印象小区"}},{"type":"Feature","geometry":{"type":"Point","coordinates":[110.975293,35.050836]},"properties":{"full_address":"山西省运城市盐湖区时代嘉园小区"}},{"type":"Feature","geometry":{"type":"Point","coordinates":[110.999996,35.055899]},"properties":{"full_address":"山西省运城市盐湖区幸福里·铂郡小区"}},{"type":"Feature","geometry":{"type":"Point","coordinates":[111.014596,35.056925]},"properties":{"full_address":"山西省运城市盐湖区泰森华林逸墅小区"}},{"type":"Feature","geometry":{"type":"Point","coordinates":[110.998192,35.011582]},"properties":{"full_address":"山西省运城市盐湖区盐化社区日化小区"}},{"type":"Feature","geometry":{"type":"Point","coordinates":[111.003008,35.064357]},"properties":{"full_address":"山西省运城市盐湖区华源豪庭小区"}},{"type":"Feature","geometry":{"type":"Point","coordinates":[111.013356,35.065137]},"properties":{"full_address":"山西省运城市盐湖区港府名都小区"}},{"type":"Feature","geometry":{"type":"Point","coordinates":[111.01664,35.044284]},"properties":{"full_address":"山西省运城市盐湖区东星向上广场B座"}},{"type":"Feature","geometry":{"type":"Point","coordinates":[110.975016,35.074]},"properties":{"full_address":"山西省运城市盐湖区安得公寓"}},{"type":"Feature","geometry":{"type":"Point","coordinates":[110.977695,35.078827]},"properties":{"full_address":"山西省运城市盐湖区运城第一医院"}},{"type":"Feature","geometry":{"type":"Point","coordinates":[110.984009,35.099079]},"properties":{"full_address":"山西省运城市盐湖区太原铁路公安局临汾公安处运城北车站派出所"}},{"type":"Feature","geometry":{"type":"Point","coordinates":[111.004349,35.060791]},"properties":{"full_address":"山西省运城市盐湖区涑水教育集团涑水联合双语校区"}},{"type":"Feature","geometry":{"type":"Point","coordinates":[111.001822,35.034215]},"properties":{"full_address":"山西省运城市盐湖区运城市盐湖区烟草专卖局"}},{"type":"Feature","geometry":{"type":"Point","coordinates":[110.970939,35.078929]},"properties":{"full_address":"山西省运城市盐湖区姚孟村"}},{"type":"Feature","geometry":{"type":"Point","coordinates":[110.871152,34.973498]},"properties":{"full_address":"山西省运城市盐湖区三庄村"}},{"type":"Feature","geometry":{"type":"Point","coordinates":[110.989134,35.083359]},"properties":{"full_address":"山西省运城市盐湖区吕儒村"}},{"type":"Feature","geometry":{"type":"Point","coordinates":[111.022663,35.086735]},"properties":{"full_address":"山西省运城市盐湖区军屯村"}},{"type":"Feature","geometry":{"type":"Point","coordinates":[110.97406,34.999992]},"properties":{"full_address":"山西省运城市盐湖区杜家村"}},{"type":"Feature","geometry":{"type":"Point","coordinates":[110.849327,35.034427]},"properties":{"full_address":"山西省运城市盐湖区小张坞村"}},{"type":"Feature","geometry":{"type":"Point","coordinates":[110.838024,35.415254]},"properties":{"full_address":"山西省运城市万荣县医华小区"}},{"type":"Feature","geometry":{"type":"Point","coordinates":[110.851242,35.423893]},"properties":{"full_address":"山西省运城市万荣县龙润庭二期工地"}},{"type":"Feature","geometry":{"type":"Point","coordinates":[110.843116,35.417716]},"properties":{"full_address":"山西省运城市万荣县锦绣华庭小区"}},{"type":"Feature","geometry":{"type":"Point","coordinates":[110.851117,35.423717]},"properties":{"full_address":"山西省运城市万荣县龙润庭小区"}},{"type":"Feature","geometry":{"type":"Point","coordinates":[110.846495,35.419044]},"properties":{"full_address":"山西省运城市万荣县宝鼎新城小区"}},{"type":"Feature","geometry":{"type":"Point","coordinates":[110.848385,35.400452]},"properties":{"full_address":"山西省运城市万荣县恒泰花苑小区"}},{"type":"Feature","geometry":{"type":"Point","coordinates":[110.849247,35.421459]},"properties":{"full_address":"山西省运城市万荣县恒盛花园小区"}},{"type":"Feature","geometry":{"type":"Point","coordinates":[110.83781,35.41534]},"properties":{"full_address":"山西省运城市万荣县学府城小区"}},{"type":"Feature","geometry":{"type":"Point","coordinates":[110.845144,35.421862]},"properties":{"full_address":"山西省运城市万荣县幸福小镇小区"}},{"type":"Feature","geometry":{"type":"Point","coordinates":[110.848223,35.4145]},"properties":{"full_address":"山西省运城市万荣县银华小区"}},{"type":"Feature","geometry":{"type":"Point","coordinates":[110.838024,35.415254]},"properties":{"full_address":"山西省运城市万荣县朝阳胡同"}},{"type":"Feature","geometry":{"type":"Point","coordinates":[110.838024,35.415254]},"properties":{"full_address":"山西省运城市万荣县铁厂胡同"}},{"type":"Feature","geometry":{"type":"Point","coordinates":[110.555256,35.403981]},"properties":{"full_address":"山西省运城市万荣县罗池村"}},{"type":"Feature","geometry":{"type":"Point","coordinates":[110.828308,35.406521]},"properties":{"full_address":"山西省运城市万荣县西解村"}},{"type":"Feature","geometry":{"type":"Point","coordinates":[110.840454,35.44305]},"properties":{"full_address":"山西省运城市万荣县太贾村"}},{"type":"Feature","geometry":{"type":"Point","coordinates":[110.832538,35.420272]},"properties":{"full_address":"山西省运城市万荣县新城村"}},{"type":"Feature","geometry":{"type":"Point","coordinates":[110.862826,35.431342]},"properties":{"full_address":"山西省运城市万荣县南张户村"}},{"type":"Feature","geometry":{"type":"Point","coordinates":[110.866524,35.397209]},"properties":{"full_address":"山西省运城市万荣县七庄村"}},{"type":"Feature","geometry":{"type":"Point","coordinates":[110.84762,35.409135]},"properties":{"full_address":"山西省运城市万荣县北解村"}},{"type":"Feature","geometry":{"type":"Point","coordinates":[110.675306,35.405963]},"properties":{"full_address":"山西省运城市万荣县南张乡范村"}},{"type":"Feature","geometry":{"type":"Point","coordinates":[112.317096,39.013056]},"properties":{"full_address":"山西省忻州市宁武县龙凤公馆除C座以外的其他区域（含门面房）"}},{"type":"Feature","geometry":{"type":"Point","coordinates":[112.304722,39.001524]},"properties":{"full_address":"山西省忻州市宁武县宁武县教科局办公楼"}},{"type":"Feature","geometry":{"type":"Point","coordinates":[112.313771,39.007458]},"properties":{"full_address":"山西省忻州市宁武县北大英语培训机构（县财政局对面）"}},{"type":"Feature","geometry":{"type":"Point","coordinates":[112.306017,38.998557]},"properties":{"full_address":"山西省忻州市宁武县张秀清西内诊所"}},{"type":"Feature","geometry":{"type":"Point","coordinates":[112.307303,39.002892]},"properties":{"full_address":"山西省忻州市宁武县黑鸭卤味斋"}},{"type":"Feature","geometry":{"type":"Point","coordinates":[111.084123,39.020519]},"properties":{"full_address":"山西省忻州市保德县保德县东关镇康乐社区"}},{"type":"Feature","geometry":{"type":"Point","coordinates":[111.06282,39.018075]},"properties":{"full_address":"山西省忻州市保德县保德县东关镇马家滩村"}},{"type":"Feature","geometry":{"type":"Point","coordinates":[111.077015,39.02065]},"properties":{"full_address":"山西省忻州市保德县保德县东关镇前湾社区"}},{"type":"Feature","geometry":{"type":"Point","coordinates":[111.35931,35.95225]},"properties":{"full_address":"山西省临汾市襄汾县南辛店乡三贾村"}},{"type":"Feature","geometry":{"type":"Point","coordinates":[111.324095,35.964256]},"properties":{"full_address":"山西省临汾市襄汾县北关村"}},{"type":"Feature","geometry":{"type":"Point","coordinates":[111.639143,40.848443]},"properties":{"full_address":"内蒙古自治区呼和浩特市回民区塔布板村（除塔布板住宅小区外的其他区域）"}},{"type":"Feature","geometry":{"type":"Point","coordinates":[111.730701,40.818926]},"properties":{"full_address":"内蒙古自治区呼和浩特市赛罕区丰泽园小区"}},{"type":"Feature","geometry":{"type":"Point","coordinates":[111.388417,40.145674]},"properties":{"full_address":"内蒙古自治区呼和浩特市托克托县西浩赖村"}},{"type":"Feature","geometry":{"type":"Point","coordinates":[110.042042,40.593826]},"properties":{"full_address":"内蒙古自治区包头市东河区福瑞瓦东瓦西小区（含瓦窑沟路）北至小区北端，南至东门大街路口"}},{"type":"Feature","geometry":{"type":"Point","coordinates":[110.061028,40.567384]},"properties":{"full_address":"内蒙古自治区包头市东河区杨圪塄街道办事处北梁新区南五区"}},{"type":"Feature","geometry":{"type":"Point","coordinates":[110.031248,40.594462]},"properties":{"full_address":"内蒙古自治区包头市东河区东站街道办事处维多利新天地小区"}},{"type":"Feature","geometry":{"type":"Point","coordinates":[109.990158,40.598271]},"properties":{"full_address":"内蒙古自治区包头市东河区铁西街道办事处部分小区（居然警苑小区北墙以北，井坪路以南，铁西路以东，芳草路以西））"}},{"type":"Feature","geometry":{"type":"Point","coordinates":[109.819377,40.656732]},"properties":{"full_address":"内蒙古自治区包头市昆都仑区阿尔丁大街街道青七社区苏宁雅悦A座、B座及和悦公寓"}},{"type":"Feature","geometry":{"type":"Point","coordinates":[109.820207,40.624883]},"properties":{"full_address":"内蒙古自治区包头市昆都仑区黄河西路街道金帝社区帝景小区6号楼"}},{"type":"Feature","geometry":{"type":"Point","coordinates":[109.80153,40.680087]},"properties":{"full_address":"内蒙古自治区包头市昆都仑区昆河镇天赐新城小区"}},{"type":"Feature","geometry":{"type":"Point","coordinates":[109.813531,40.688869]},"properties":{"full_address":"内蒙古自治区包头市昆都仑区昆河镇南排四组新村致富路北35栋-44栋、52栋-55栋"}},{"type":"Feature","geometry":{"type":"Point","coordinates":[109.825106,40.660182]},"properties":{"full_address":"内蒙古自治区包头市昆都仑区鞍山街道团13街坊包钢院小区"}},{"type":"Feature","geometry":{"type":"Point","coordinates":[109.804066,40.672909]},"properties":{"full_address":"内蒙古自治区包头市昆都仑区昆河镇胜利佳苑小区"}},{"type":"Feature","geometry":{"type":"Point","coordinates":[109.834019,40.640803]},"properties":{"full_address":"内蒙古自治区包头市昆都仑区少先街道友谊南小区"}},{"type":"Feature","geometry":{"type":"Point","coordinates":[109.818746,40.633407]},"properties":{"full_address":"内蒙古自治区包头市昆都仑区黄河西路街道馨合佳园小区"}},{"type":"Feature","geometry":{"type":"Point","coordinates":[109.872398,40.674324]},"properties":{"full_address":"内蒙古自治区包头市青山区富强路街道4号街坊"}},{"type":"Feature","geometry":{"type":"Point","coordinates":[109.860981,40.665164]},"properties":{"full_address":"内蒙古自治区包头市青山区富强路街道9号街坊二委院"}},{"type":"Feature","geometry":{"type":"Point","coordinates":[109.881192,40.644714]},"properties":{"full_address":"内蒙古自治区包头市青山区万青路街道安泰华庭小区和相邻的赛汗郡庭小区及周边商铺"}},{"type":"Feature","geometry":{"type":"Point","coordinates":[109.954095,40.601773]},"properties":{"full_address":"内蒙古自治区包头市九原区沙河街道黄金小区"}},{"type":"Feature","geometry":{"type":"Point","coordinates":[109.970291,40.601711]},"properties":{"full_address":"内蒙古自治区包头市九原区沙河街道万达小区"}},{"type":"Feature","geometry":{"type":"Point","coordinates":[109.975705,40.600296]},"properties":{"full_address":"内蒙古自治区包头市九原区沙河街道花园小区"}},{"type":"Feature","geometry":{"type":"Point","coordinates":[109.96619,40.602527]},"properties":{"full_address":"内蒙古自治区包头市九原区沙河街道融茂第一城C区"}},{"type":"Feature","geometry":{"type":"Point","coordinates":[109.931297,40.615509]},"properties":{"full_address":"内蒙古自治区包头市九原区赛汗街道御融观邸"}},{"type":"Feature","geometry":{"type":"Point","coordinates":[109.961906,40.626339]},"properties":{"full_address":"内蒙古自治区包头市九原区白音席勒街道远洲国际城小区"}},{"type":"Feature","geometry":{"type":"Point","coordinates":[109.926473,40.619158]},"properties":{"full_address":"内蒙古自治区包头市九原区赛汗街道富力城2期"}},{"type":"Feature","geometry":{"type":"Point","coordinates":[110.52003,40.57364]},"properties":{"full_address":"内蒙古自治区包头市土默特右旗萨拉齐镇绿苑小区西区13号楼、15号楼、17号楼"}},{"type":"Feature","geometry":{"type":"Point","coordinates":[110.532882,40.573233]},"properties":{"full_address":"内蒙古自治区包头市土默特右旗萨拉齐镇花苑园三区23号楼、25号楼、27号楼"}},{"type":"Feature","geometry":{"type":"Point","coordinates":[110.556914,40.585464]},"properties":{"full_address":"内蒙古自治区包头市土默特右旗沟门镇北只图村昌昊宾馆"}},{"type":"Feature","geometry":{"type":"Point","coordinates":[110.55022,40.58651]},"properties":{"full_address":"内蒙古自治区包头市土默特右旗沟门镇北只图村逸达宾馆"}},{"type":"Feature","geometry":{"type":"Point","coordinates":[118.927184,42.323939]},"properties":{"full_address":"内蒙古自治区赤峰市红山区朝阳路以西、万商街以北、火花北路以东、查干沐伦大街以南（除朝阳路65号外）所有区域"}},{"type":"Feature","geometry":{"type":"Point","coordinates":[118.941948,42.314403]},"properties":{"full_address":"内蒙古自治区赤峰市红山区赤峰商贸物流服务园区朝阳路26号楼"}},{"type":"Feature","geometry":{"type":"Point","coordinates":[118.934253,42.328694]},"properties":{"full_address":"内蒙古自治区赤峰市红山区赤峰商贸物流服务园区万商街东段金融物流港K区1号楼"}},{"type":"Feature","geometry":{"type":"Point","coordinates":[118.960232,42.257986]},"properties":{"full_address":"内蒙古自治区赤峰市红山区站前街道站前综合楼"}},{"type":"Feature","geometry":{"type":"Point","coordinates":[118.956072,42.25745]},"properties":{"full_address":"内蒙古自治区赤峰市红山区站前街道铁北小区"}},{"type":"Feature","geometry":{"type":"Point","coordinates":[118.949461,42.25982]},"properties":{"full_address":"内蒙古自治区赤峰市红山区站前街道金百合东区（除1号楼外）"}},{"type":"Feature","geometry":{"type":"Point","coordinates":[118.954358,42.272331]},"properties":{"full_address":"内蒙古自治区赤峰市红山区哈达街道万悦城B座、C座、D座"}},{"type":"Feature","geometry":{"type":"Point","coordinates":[118.9584,42.266654]},"properties":{"full_address":"内蒙古自治区赤峰市红山区西城街道百合和苑小区"}},{"type":"Feature","geometry":{"type":"Point","coordinates":[118.954603,42.262226]},"properties":{"full_address":"内蒙古自治区赤峰市红山区站前街道昭乌达社区便民市场以东、钢铁街以南、昭乌达路以西、昭乌达社区东西主路以北区域"}},{"type":"Feature","geometry":{"type":"Point","coordinates":[118.936737,42.28458]},"properties":{"full_address":"内蒙古自治区赤峰市松山区向阳街道天和朗苑小区"}},{"type":"Feature","geometry":{"type":"Point","coordinates":[118.911352,42.285075]},"properties":{"full_address":"内蒙古自治区赤峰市松山区铁东街道晨曦花苑小区（含临街商厅）"}},{"type":"Feature","geometry":{"type":"Point","coordinates":[120.071705,43.870001]},"properties":{"full_address":"内蒙古自治区赤峰市阿鲁科尔沁旗天元小区四期（21号楼除外）"}},{"type":"Feature","geometry":{"type":"Point","coordinates":[120.296266,44.322129]},"properties":{"full_address":"内蒙古自治区赤峰市阿鲁科尔沁旗赛罕塔拉苏木查干花嘎查"}},{"type":"Feature","geometry":{"type":"Point","coordinates":[118.061508,43.608667]},"properties":{"full_address":"内蒙古自治区赤峰市林西县冷山街以南、饶州大街以北、林西大道以东、兴林路以西（尚品天成小区除外）"}},{"type":"Feature","geometry":{"type":"Point","coordinates":[118.05545,43.61812]},"properties":{"full_address":"内蒙古自治区赤峰市林西县农行小区"}},{"type":"Feature","geometry":{"type":"Point","coordinates":[118.05305,43.59329]},"properties":{"full_address":"内蒙古自治区赤峰市林西县城南街道学府社区学府花园小区除高风险区域外其他区域"}},{"type":"Feature","geometry":{"type":"Point","coordinates":[118.055654,43.607366]},"properties":{"full_address":"内蒙古自治区赤峰市林西县城北街道北街社区百合园小区"}},{"type":"Feature","geometry":{"type":"Point","coordinates":[118.083444,43.611492]},"properties":{"full_address":"内蒙古自治区赤峰市林西县林西镇东风村东风十组"}},{"type":"Feature","geometry":{"type":"Point","coordinates":[118.041814,43.619528]},"properties":{"full_address":"内蒙古自治区赤峰市林西县林西大道以东、新兴街以南、兴林路以西、金城公司以北所在区域范围"}},{"type":"Feature","geometry":{"type":"Point","coordinates":[118.498183,41.834931]},"properties":{"full_address":"内蒙古自治区赤峰市喀喇沁旗王爷府镇大庙村1组"}},{"type":"Feature","geometry":{"type":"Point","coordinates":[118.507824,41.839027]},"properties":{"full_address":"内蒙古自治区赤峰市喀喇沁旗王爷府镇王爷府村4组"}},{"type":"Feature","geometry":{"type":"Point","coordinates":[109.984973,39.81422]},"properties":{"full_address":"内蒙古自治区鄂尔多斯市东胜区交通街道辖区颐和小区6号楼"}},{"type":"Feature","geometry":{"type":"Point","coordinates":[109.973516,39.809286]},"properties":{"full_address":"内蒙古自治区鄂尔多斯市东胜区天骄街道辖区响沙弘源盛宴酒店（鄂尔多斯旅游大厦）整栋楼"}},{"type":"Feature","geometry":{"type":"Point","coordinates":[110.049571,40.405601]},"properties":{"full_address":"内蒙古自治区鄂尔多斯市达拉特旗锡尼街道长胜社区恒悦酒店"}},{"type":"Feature","geometry":{"type":"Point","coordinates":[110.011173,40.396885]},"properties":{"full_address":"内蒙古自治区鄂尔多斯市达拉特旗白塔街道白塔社区金帝牵手音乐会所（牵手KTV）"}},{"type":"Feature","geometry":{"type":"Point","coordinates":[108.72981,39.831739]},"properties":{"full_address":"内蒙古自治区鄂尔多斯市杭锦旗金地佳苑1号楼一、二、四单元"}},{"type":"Feature","geometry":{"type":"Point","coordinates":[109.99475,39.820781]},"properties":{"full_address":"内蒙古自治区鄂尔多斯市杭锦旗邮电小区整体"}},{"type":"Feature","geometry":{"type":"Point","coordinates":[109.755318,39.582256]},"properties":{"full_address":"内蒙古自治区鄂尔多斯市伊金霍洛旗阿勒腾席热镇景宏天清酒店"}},{"type":"Feature","geometry":{"type":"Point","coordinates":[109.757744,39.565461]},"properties":{"full_address":"内蒙古自治区鄂尔多斯市伊金霍洛旗太阳城V—show KTV"}},{"type":"Feature","geometry":{"type":"Point","coordinates":[110.100979,39.441849]},"properties":{"full_address":"内蒙古自治区鄂尔多斯市伊金霍洛旗乌兰木伦镇乌兰木伦社区老干区第三栋第四排1、2、3、4号房"}},{"type":"Feature","geometry":{"type":"Point","coordinates":[110.100979,39.441849]},"properties":{"full_address":"内蒙古自治区鄂尔多斯市伊金霍洛旗乌兰木伦镇乌兰木伦社区老干区第三栋第五排1、2、3号房"}},{"type":"Feature","geometry":{"type":"Point","coordinates":[110.100979,39.441849]},"properties":{"full_address":"内蒙古自治区鄂尔多斯市伊金霍洛旗乌兰木伦镇乌兰木伦社区老干区第三栋第六排1、2、3、4号房"}},{"type":"Feature","geometry":{"type":"Point","coordinates":[110.100979,39.441849]},"properties":{"full_address":"内蒙古自治区鄂尔多斯市伊金霍洛旗乌兰木伦社区老干区第三栋第七排1、2、3号房"}},{"type":"Feature","geometry":{"type":"Point","coordinates":[119.759222,49.138477]},"properties":{"full_address":"内蒙古自治区呼伦贝尔市鄂温克族自治旗巴彦托海镇伊敏嘉园三期2号楼"}},{"type":"Feature","geometry":{"type":"Point","coordinates":[116.825532,48.66974]},"properties":{"full_address":"内蒙古自治区呼伦贝尔市新巴尔虎右旗盛世家园"}},{"type":"Feature","geometry":{"type":"Point","coordinates":[116.826088,48.667624]},"properties":{"full_address":"内蒙古自治区呼伦贝尔市新巴尔虎右旗育才小区"}},{"type":"Feature","geometry":{"type":"Point","coordinates":[117.451623,49.576365]},"properties":{"full_address":"内蒙古自治区呼伦贝尔市满洲里市满城新世界A区（不包含31号楼）"}},{"type":"Feature","geometry":{"type":"Point","coordinates":[112.582628,40.895173]},"properties":{"full_address":"内蒙古自治区乌兰察布市卓资县卓资山镇人民北路丑妞化妆品店"}},{"type":"Feature","geometry":{"type":"Point","coordinates":[112.576023,40.895814]},"properties":{"full_address":"内蒙古自治区乌兰察布市卓资县卓资山镇人民北路康恩大药房"}},{"type":"Feature","geometry":{"type":"Point","coordinates":[112.576538,40.895173]},"properties":{"full_address":"内蒙古自治区乌兰察布市卓资县卓资山镇人民北路利达灯具店"}},{"type":"Feature","geometry":{"type":"Point","coordinates":[112.580641,40.901212]},"properties":{"full_address":"内蒙古自治区乌兰察布市卓资县卓资山镇龙胜路馨雅窗帘店"}},{"type":"Feature","geometry":{"type":"Point","coordinates":[112.556219,40.903069]},"properties":{"full_address":"内蒙古自治区乌兰察布市卓资县卓资山镇爱民街海平超市"}},{"type":"Feature","geometry":{"type":"Point","coordinates":[112.159332,40.980658]},"properties":{"full_address":"内蒙古自治区乌兰察布市卓资县旗下营镇后汽路（S105）小王轮胎店旁贾培花店铺"}},{"type":"Feature","geometry":{"type":"Point","coordinates":[112.172054,40.995636]},"properties":{"full_address":"内蒙古自治区乌兰察布市卓资县旗下营镇一间房物流园区修车店"}},{"type":"Feature","geometry":{"type":"Point","coordinates":[112.20723,40.895012]},"properties":{"full_address":"内蒙古自治区乌兰察布市卓资县旗下营镇蓿麻湾砂厂装卸货点"}},{"type":"Feature","geometry":{"type":"Point","coordinates":[122.448757,40.969433]},"properties":{"full_address":"辽宁省鞍山市海城市西四镇（除高风险区以外其他区域）"}},{"type":"Feature","geometry":{"type":"Point","coordinates":[122.536227,40.948704]},"properties":{"full_address":"辽宁省鞍山市海城市牛庄镇（除高风险区以外其他区域）"}},{"type":"Feature","geometry":{"type":"Point","coordinates":[119.426407,41.242356]},"properties":{"full_address":"辽宁省朝阳市凌源市东城街道颐安家园小区（除高风险区外）其他区域"}},{"type":"Feature","geometry":{"type":"Point","coordinates":[119.393634,41.240369]},"properties":{"full_address":"辽宁省朝阳市凌源市北街街道（凌源市妇女儿童医院）"}},{"type":"Feature","geometry":{"type":"Point","coordinates":[126.616348,45.682288]},"properties":{"full_address":"黑龙江省哈尔滨市南岗区哈达村"}},{"type":"Feature","geometry":{"type":"Point","coordinates":[126.638526,45.648956]},"properties":{"full_address":"黑龙江省哈尔滨市香坊区龙运物流园区（学府东路1号）"}},{"type":"Feature","geometry":{"type":"Point","coordinates":[130.261502,47.282211]},"properties":{"full_address":"黑龙江省鹤岗市兴安区光宇小区环宇路以东，安兴街以南，安国街以西，安中街以北，合围区域(除光宇小区C8号楼外)"}},{"type":"Feature","geometry":{"type":"Point","coordinates":[130.263908,47.280519]},"properties":{"full_address":"黑龙江省鹤岗市兴安区光宇小区B区A5号楼"}},{"type":"Feature","geometry":{"type":"Point","coordinates":[125.197974,46.450017]},"properties":{"full_address":"黑龙江省大庆市龙凤区乙烯一区1-18号楼、1-19号楼、1-20号楼、1-22号楼、1-23号楼、1-44号楼、1-45号楼、1-46号楼"}},{"type":"Feature","geometry":{"type":"Point","coordinates":[130.364488,46.803734]},"properties":{"full_address":"黑龙江省佳木斯市向阳区杏湖嘉苑"}},{"type":"Feature","geometry":{"type":"Point","coordinates":[130.361901,46.805448]},"properties":{"full_address":"黑龙江省佳木斯市向阳区世水花园一期至三期"}},{"type":"Feature","geometry":{"type":"Point","coordinates":[130.361178,46.810688]},"properties":{"full_address":"黑龙江省佳木斯市向阳区幸福家园独栋楼"}},{"type":"Feature","geometry":{"type":"Point","coordinates":[130.362701,46.801549]},"properties":{"full_address":"黑龙江省佳木斯市向阳区杏湖壹品A栋"}},{"type":"Feature","geometry":{"type":"Point","coordinates":[130.370926,46.802545]},"properties":{"full_address":"黑龙江省佳木斯市向阳区圣泰嘉苑A楼"}},{"type":"Feature","geometry":{"type":"Point","coordinates":[130.363291,46.811364]},"properties":{"full_address":"黑龙江省佳木斯市向阳区铭诗苑"}},{"type":"Feature","geometry":{"type":"Point","coordinates":[130.360553,46.79095]},"properties":{"full_address":"黑龙江省佳木斯市向阳区学府嘉园F栋"}},{"type":"Feature","geometry":{"type":"Point","coordinates":[130.374282,46.791514]},"properties":{"full_address":"黑龙江省佳木斯市向阳区佳大尚都九栋洋房G栋"}},{"type":"Feature","geometry":{"type":"Point","coordinates":[130.361504,46.813472]},"properties":{"full_address":"黑龙江省佳木斯市向阳区新宜社区公企1号楼（老文化大楼后面）"}},{"type":"Feature","geometry":{"type":"Point","coordinates":[130.328536,46.804932]},"properties":{"full_address":"黑龙江省佳木斯市郊区英伦尚城D区12C栋"}},{"type":"Feature","geometry":{"type":"Point","coordinates":[130.336172,46.803211]},"properties":{"full_address":"黑龙江省佳木斯市郊区长安新城30栋"}},{"type":"Feature","geometry":{"type":"Point","coordinates":[130.320609,46.803399]},"properties":{"full_address":"黑龙江省佳木斯市郊区荷兰城观湖29号楼"}},{"type":"Feature","geometry":{"type":"Point","coordinates":[130.329663,46.788699]},"properties":{"full_address":"黑龙江省佳木斯市郊区胜利华城J13栋"}},{"type":"Feature","geometry":{"type":"Point","coordinates":[130.365386,46.812909]},"properties":{"full_address":"黑龙江省佳木斯市郊区物价小区B座"}},{"type":"Feature","geometry":{"type":"Point","coordinates":[132.033289,47.258872]},"properties":{"full_address":"黑龙江省佳木斯市富锦市临江社区江畔小区"}},{"type":"Feature","geometry":{"type":"Point","coordinates":[132.033943,47.252416]},"properties":{"full_address":"黑龙江省佳木斯市富锦市新开社区世纪家园A区7号楼门市"}},{"type":"Feature","geometry":{"type":"Point","coordinates":[132.043967,47.256459]},"properties":{"full_address":"黑龙江省佳木斯市富锦市向阳社区星语新苑C区6号楼门市"}},{"type":"Feature","geometry":{"type":"Point","coordinates":[132.028412,47.243538]},"properties":{"full_address":"黑龙江省佳木斯市富锦市富锦市幸福社区时代鑫城小区"}},{"type":"Feature","geometry":{"type":"Point","coordinates":[132.050198,47.254354]},"properties":{"full_address":"黑龙江省佳木斯市富锦市富锦市文化社区东平小区1号楼"}},{"type":"Feature","geometry":{"type":"Point","coordinates":[130.563659,45.747325]},"properties":{"full_address":"黑龙江省七台河市勃利县城西街润育华庭小区内3栋区域"}},{"type":"Feature","geometry":{"type":"Point","coordinates":[127.478895,50.244896]},"properties":{"full_address":"黑龙江省黑河市爱辉区海兰街道温馨社区北国明珠小区7号楼1单元及1单元附属车库、18号楼2单元及2单元附属车库"}},{"type":"Feature","geometry":{"type":"Point","coordinates":[127.489122,50.246789]},"properties":{"full_address":"黑龙江省黑河市爱辉区海兰街道鹿源春社区金达之家小区民航家属楼6单元及6单元附属门市、国际公司改造楼2单元及2单元附属门市"}},{"type":"Feature","geometry":{"type":"Point","coordinates":[127.489122,50.246789]},"properties":{"full_address":"黑龙江省黑河市爱辉区海兰街道鹿源春社区金达之家小区及附属门市（不含民航家属楼6单元及6单元附属门市、国际公司改造楼2单元及2单元附属门市）"}},{"type":"Feature","geometry":{"type":"Point","coordinates":[127.489956,50.249542]},"properties":{"full_address":"黑龙江省黑河市爱辉区西兴街道福龙社区益民二区17区11号楼6单元及6单元附属车库"}},{"type":"Feature","geometry":{"type":"Point","coordinates":[127.489956,50.249542]},"properties":{"full_address":"黑龙江省黑河市爱辉区西兴街道福龙社区益民二区17区9号楼及附属车库和门市、10号楼及附属车库、11号楼及附属车库（不含6单元及6单元附属车库）"}},{"type":"Feature","geometry":{"type":"Point","coordinates":[127.497957,50.252053]},"properties":{"full_address":"黑龙江省黑河市爱辉区海兰街道鹿源春社区江滨楼及附属门市车库"}},{"type":"Feature","geometry":{"type":"Point","coordinates":[127.530011,50.239083]},"properties":{"full_address":"黑龙江省黑河市爱辉区花园街道武庙屯社区大公馆小区7号楼2单元及2单元附属门市"}},{"type":"Feature","geometry":{"type":"Point","coordinates":[127.482375,50.256592]},"properties":{"full_address":"黑龙江省黑河市爱辉区西兴街道人保财险社区水岸华府小区1号楼及附属门市、2号楼及附属门市（不含1单元及1单元附属门市）、3号楼及附属门市、4号楼及附属门市车库、5号楼及附属门市车库"}},{"type":"Feature","geometry":{"type":"Point","coordinates":[127.498237,50.239974]},"properties":{"full_address":"黑龙江省黑河市爱辉区花园街道长海社区天丝小区及附属门市（不含D座8号楼及附属门市）"}},{"type":"Feature","geometry":{"type":"Point","coordinates":[127.499882,50.236724]},"properties":{"full_address":"黑龙江省黑河市爱辉区兴安街道热电社区惠民11号地小区6号楼及附属门市车库"}},{"type":"Feature","geometry":{"type":"Point","coordinates":[127.499882,50.236724]},"properties":{"full_address":"黑龙江省黑河市爱辉区兴安街道热电社区铁路家属楼小区及附属门市（不含1号楼及附属门市）"}},{"type":"Feature","geometry":{"type":"Point","coordinates":[127.491541,50.244766]},"properties":{"full_address":"黑龙江省黑河市爱辉区兴安街道热电社区和谐家园小区及附属门市（不含1号楼及附属门市）"}},{"type":"Feature","geometry":{"type":"Point","coordinates":[127.481801,50.238572]},"properties":{"full_address":"黑龙江省黑河市爱辉区兴安街道热电社区阳光家园小区及附属门市（不含8号楼及附属门市）"}},{"type":"Feature","geometry":{"type":"Point","coordinates":[127.473538,50.25155]},"properties":{"full_address":"黑龙江省黑河市爱辉区西兴街道向阳社区幸福佳苑小区及附属门市车库（不含4号楼及附属车库）"}},{"type":"Feature","geometry":{"type":"Point","coordinates":[127.504605,50.238491]},"properties":{"full_address":"黑龙江省黑河市爱辉区花园街道长海社区龙滨嘉苑小区6号楼及附属车库"}},{"type":"Feature","geometry":{"type":"Point","coordinates":[125.224774,49.179048]},"properties":{"full_address":"黑龙江省黑河市嫩江市邮政社区金地家园2号楼10号车库"}},{"type":"Feature","geometry":{"type":"Point","coordinates":[125.217245,49.184217]},"properties":{"full_address":"黑龙江省黑河市嫩江市嫩水社区龙门小区3号楼7单元"}},{"type":"Feature","geometry":{"type":"Point","coordinates":[126.088789,46.684153]},"properties":{"full_address":"黑龙江省绥化市青冈县电业局老家属楼"}},{"type":"Feature","geometry":{"type":"Point","coordinates":[121.466306,31.223069]},"properties":{"full_address":"上海市上海市黄浦区瑞金二路街道巨鹿路158-168号"}},{"type":"Feature","geometry":{"type":"Point","coordinates":[121.47127,31.204745]},"properties":{"full_address":"上海市上海市黄浦区打浦桥街道打浦路15号低区斯格威铂尔曼大酒店"}},{"type":"Feature","geometry":{"type":"Point","coordinates":[121.436683,31.217415]},"properties":{"full_address":"上海市上海市长宁区江苏路街道延安西路488号"}},{"type":"Feature","geometry":{"type":"Point","coordinates":[121.423613,31.209653]},"properties":{"full_address":"上海市上海市长宁区新华路街道定西路以西、延安西路以南、安顺路以北、凯旋路以东的区域"}},{"type":"Feature","geometry":{"type":"Point","coordinates":[121.432193,31.201327]},"properties":{"full_address":"上海市上海市长宁区新华路街道新华路24号（秋果酒店）"}},{"type":"Feature","geometry":{"type":"Point","coordinates":[121.404776,31.240023]},"properties":{"full_address":"上海市上海市普陀区曹杨新村街道兰溪路锐思特酒店"}},{"type":"Feature","geometry":{"type":"Point","coordinates":[121.531552,31.298922]},"properties":{"full_address":"上海市上海市杨浦区长海路街道营口路789弄"}},{"type":"Feature","geometry":{"type":"Point","coordinates":[121.434737,31.018084]},"properties":{"full_address":"上海市上海市闵行区江川路街道东川路811弄35号盒子空间酒店（上海交大店）"}},{"type":"Feature","geometry":{"type":"Point","coordinates":[121.434796,31.012112]},"properties":{"full_address":"上海市上海市闵行区江川路街道永平南路198弄东苑佳和园小区"}},{"type":"Feature","geometry":{"type":"Point","coordinates":[121.388482,31.320961]},"properties":{"full_address":"上海市上海市宝山区大场镇锦秋路743号智尚酒店"}},{"type":"Feature","geometry":{"type":"Point","coordinates":[121.411561,31.352852]},"properties":{"full_address":"上海市上海市宝山区顾村镇盛宅一村（富联路128弄、富联路130弄）"}},{"type":"Feature","geometry":{"type":"Point","coordinates":[121.309013,31.237155]},"properties":{"full_address":"上海市上海市嘉定区江桥镇金耀南路299弄绿地新江桥城西区"}},{"type":"Feature","geometry":{"type":"Point","coordinates":[121.317605,31.241474]},"properties":{"full_address":"上海市上海市嘉定区江桥镇金园一路1359弄缘圆宝邸北区（37号-63号）"}},{"type":"Feature","geometry":{"type":"Point","coordinates":[121.593735,31.041226]},"properties":{"full_address":"上海市上海市浦东新区航头镇沪南公路5298号浦航5298文创园"}},{"type":"Feature","geometry":{"type":"Point","coordinates":[121.51869,31.209266]},"properties":{"full_address":"上海市上海市浦东新区塘桥街道浦建路38号"}},{"type":"Feature","geometry":{"type":"Point","coordinates":[121.583173,31.275461]},"properties":{"full_address":"上海市上海市浦东新区川沙新镇东河浜路10号26栋自在居酒店式服务公寓"}},{"type":"Feature","geometry":{"type":"Point","coordinates":[121.583173,31.275461]},"properties":{"full_address":"上海市上海市浦东新区北蔡镇沪南路1097号如家精选酒店"}},{"type":"Feature","geometry":{"type":"Point","coordinates":[121.55988,31.249668]},"properties":{"full_address":"上海市上海市浦东新区金杨新村街道罗山四村南区（德平路76弄、德平路80弄、博山东路81弄、万德路51弄、万德路67弄）"}},{"type":"Feature","geometry":{"type":"Point","coordinates":[121.588139,31.243889]},"properties":{"full_address":"上海市上海市浦东新区金桥镇红枫路108弄3-9号"}},{"type":"Feature","geometry":{"type":"Point","coordinates":[121.185151,31.211705]},"properties":{"full_address":"上海市上海市青浦区重固镇中新村陈家浜以东、华重公路以南、中新艾祁港以西、洞口泾以北的区域"}},{"type":"Feature","geometry":{"type":"Point","coordinates":[121.182121,31.192229]},"properties":{"full_address":"上海市上海市青浦区重固镇大街518弄逸皓华庭"}},{"type":"Feature","geometry":{"type":"Point","coordinates":[121.506659,30.827765]},"properties":{"full_address":"上海市上海市奉贤区海湾旅游区奉柘公路以南、海湾路以东、海泉路以南、南海公路以东、海思路以北、奉炮公路以西的区域（不包括海尚墅林苑小区、泰禾海上院子）"}},{"type":"Feature","geometry":{"type":"Point","coordinates":[118.860082,31.968827]},"properties":{"full_address":"江苏省南京市江宁区东山街道景祥佳园"}},{"type":"Feature","geometry":{"type":"Point","coordinates":[118.860355,31.970488]},"properties":{"full_address":"江苏省南京市江宁区东山街道安和家园"}},{"type":"Feature","geometry":{"type":"Point","coordinates":[119.155685,34.839447]},"properties":{"full_address":"江苏省连云港市赣榆区青口镇飞尔世纪花园其他区域"}},{"type":"Feature","geometry":{"type":"Point","coordinates":[118.963738,34.78946]},"properties":{"full_address":"江苏省连云港市赣榆区城头镇季瓦沟村"}},{"type":"Feature","geometry":{"type":"Point","coordinates":[119.47007,32.368572]},"properties":{"full_address":"江苏省扬州市广陵区江苏亚联农副产品有限公司（广陵区连运东路59号）"}},{"type":"Feature","geometry":{"type":"Point","coordinates":[119.471087,32.372848]},"properties":{"full_address":"江苏省扬州市广陵区万程连锁酒店（广陵区开发东路1号）"}},{"type":"Feature","geometry":{"type":"Point","coordinates":[119.462873,32.363313]},"properties":{"full_address":"江苏省扬州市广陵区百家购生活连锁购物超市（广陵区汤汪花园梅花苑13幢）"}},{"type":"Feature","geometry":{"type":"Point","coordinates":[119.454945,32.395314]},"properties":{"full_address":"江苏省扬州市广陵区清香园中国兰州拉面店（广陵区解放南路119号）"}},{"type":"Feature","geometry":{"type":"Point","coordinates":[119.447719,32.364688]},"properties":{"full_address":"江苏省扬州市广陵区兰州拉面连运店（广陵区渡江南路杉湾东苑146号）"}},{"type":"Feature","geometry":{"type":"Point","coordinates":[114.927449,25.37874]},"properties":{"full_address":"江西省赣州市信丰县县城北起建设路、南至南山西路、东起阳明路、西至迎宾大道合围区域"}},{"type":"Feature","geometry":{"type":"Point","coordinates":[114.915734,25.351907]},"properties":{"full_address":"江西省赣州市信丰县嘉定镇游州村游州大酒店"}},{"type":"Feature","geometry":{"type":"Point","coordinates":[114.929459,25.172877]},"properties":{"full_address":"江西省赣州市信丰县铁石口镇除高风险外的其他区域"}},{"type":"Feature","geometry":{"type":"Point","coordinates":[116.981734,36.671853]},"properties":{"full_address":"山东省济南市天桥区宝华街道宝华街66号文庭雅苑（包括底商）"}},{"type":"Feature","geometry":{"type":"Point","coordinates":[117.038158,36.695754]},"properties":{"full_address":"山东省济南市天桥区北园街道大明湖火车站"}},{"type":"Feature","geometry":{"type":"Point","coordinates":[118.636998,37.437952]},"properties":{"full_address":"山东省东营市东营区金盾大道1号（东至金盾大道，西至胜大星创农业综合体东界，南至油井生产路，北至广蒲路）"}},{"type":"Feature","geometry":{"type":"Point","coordinates":[118.534942,37.450611]},"properties":{"full_address":"山东省东营市东营区宁阳路257号新区维也纳酒店"}},{"type":"Feature","geometry":{"type":"Point","coordinates":[118.600688,37.239428]},"properties":{"full_address":"山东省东营市山东省黄河三角洲农业高新技术产业示范区丁庄街道首集市场合围区域（北至丁庄街道育英路，南至清河路，西至昂坤城市广场中心路，东至聚财路）"}},{"type":"Feature","geometry":{"type":"Point","coordinates":[118.641276,37.428834]},"properties":{"full_address":"山东省东营市经济技术开发区东城街道运河路663号融创V公馆片区除高风险区以外的其他楼宇"}},{"type":"Feature","geometry":{"type":"Point","coordinates":[116.574154,35.403782]},"properties":{"full_address":"山东省济宁市任城区李营街道培文社区苗营西区小区"}},{"type":"Feature","geometry":{"type":"Point","coordinates":[116.580785,35.404176]},"properties":{"full_address":"山东省济宁市任城区长沟镇蔡前村片区（包含：蔡前村、蔡北村、李北村、季庙村）"}},{"type":"Feature","geometry":{"type":"Point","coordinates":[116.575073,35.414836]},"properties":{"full_address":"山东省济宁市任城区南张街道经典院子项目工地（南至中海城北墙，西至瀚香名邸东墙，北至红星西路北沿街商铺（包含），东至电化厂路东沿街商铺（包含））"}},{"type":"Feature","geometry":{"type":"Point","coordinates":[116.738325,36.182436]},"properties":{"full_address":"山东省泰安市肥城市新城街道特钢小区（除10号楼以外的其他区域）"}},{"type":"Feature","geometry":{"type":"Point","coordinates":[116.750704,36.18448]},"properties":{"full_address":"山东省泰安市肥城市肥城信业商厦（新城街道西城店）"}},{"type":"Feature","geometry":{"type":"Point","coordinates":[116.542084,36.219631]},"properties":{"full_address":"山东省泰安市肥城市石横镇查庄社区（除2号楼以外的其他区域）"}},{"type":"Feature","geometry":{"type":"Point","coordinates":[116.835238,36.216447]},"properties":{"full_address":"山东省泰安市肥城市湖屯镇钱三社区10号楼"}},{"type":"Feature","geometry":{"type":"Point","coordinates":[112.836924,28.314617]},"properties":{"full_address":"湖南省长沙市望城区白沙洲街道同心花园4栋、5栋"}},{"type":"Feature","geometry":{"type":"Point","coordinates":[113.009046,27.904568]},"properties":{"full_address":"湖南省湘潭市岳塘区荷塘街道金阳城大酒店"}},{"type":"Feature","geometry":{"type":"Point","coordinates":[112.632265,27.404976]},"properties":{"full_address":"湖南省衡阳市衡山县白果镇楚南桥社区河西区域"}},{"type":"Feature","geometry":{"type":"Point","coordinates":[112.570453,26.575799]},"properties":{"full_address":"湖南省衡阳市常宁市水口山镇山水苑小区、湘洲小区"}},{"type":"Feature","geometry":{"type":"Point","coordinates":[111.336902,27.525013]},"properties":{"full_address":"湖南省邵阳市新邵县龙溪铺镇田心村、古田村、双桥村三村交界处的南起Y081乡道 、北至大桥岔路口、东起竹子山—贺家山—魏家山、西至龙溪河的合围区域（S236省道除外）"}},{"type":"Feature","geometry":{"type":"Point","coordinates":[112.635943,29.187345]},"properties":{"full_address":"湖南省益阳市大通湖区河坝镇常信广场1栋2单元和3单元"}},{"type":"Feature","geometry":{"type":"Point","coordinates":[112.644718,29.185056]},"properties":{"full_address":"湖南省益阳市大通湖区河坝镇喜洋洋洗车行"}},{"type":"Feature","geometry":{"type":"Point","coordinates":[112.644718,29.185056]},"properties":{"full_address":"湖南省益阳市大通湖区河坝镇辉哥家菜馆"}},{"type":"Feature","geometry":{"type":"Point","coordinates":[112.644718,29.185056]},"properties":{"full_address":"湖南省益阳市大通湖区河坝镇云云生活超市"}},{"type":"Feature","geometry":{"type":"Point","coordinates":[112.644718,29.185056]},"properties":{"full_address":"湖南省益阳市大通湖区河坝镇君临天下酒店"}},{"type":"Feature","geometry":{"type":"Point","coordinates":[111.289129,26.401849]},"properties":{"full_address":"湖南省永州市东安县鹿马桥镇泉水社区"}},{"type":"Feature","geometry":{"type":"Point","coordinates":[109.619157,27.942654]},"properties":{"full_address":"湖南省湘西土家族苗族自治州凤凰县沱江镇杜田村雾桥以东、棉寨大桥及棉寨村以西、棉寨大道两侧以南、凤木路两侧以北合围区域"}},{"type":"Feature","geometry":{"type":"Point","coordinates":[109.443425,29.451575]},"properties":{"full_address":"湖南省湘西土家族苗族自治州龙山县龙山地下商业步行街"}},{"type":"Feature","geometry":{"type":"Point","coordinates":[109.444981,29.452444]},"properties":{"full_address":"湖南省湘西土家族苗族自治州龙山县衣世界服装批发城"}},{"type":"Feature","geometry":{"type":"Point","coordinates":[109.440676,29.446533]},"properties":{"full_address":"湖南省湘西土家族苗族自治州龙山县桃园灌汤包店（回龙路店）"}},{"type":"Feature","geometry":{"type":"Point","coordinates":[109.444197,29.442412]},"properties":{"full_address":"湖南省湘西土家族苗族自治州龙山县团结南路231号1栋"}},{"type":"Feature","geometry":{"type":"Point","coordinates":[109.436222,29.4453]},"properties":{"full_address":"湖南省湘西土家族苗族自治州龙山县民安街道红泥湾路50-1"}},{"type":"Feature","geometry":{"type":"Point","coordinates":[109.445986,29.450005]},"properties":{"full_address":"湖南省湘西土家族苗族自治州龙山县民安街道一建公司宿舍E栋"}},{"type":"Feature","geometry":{"type":"Point","coordinates":[109.468941,29.456557]},"properties":{"full_address":"湖南省湘西土家族苗族自治州龙山县兴隆街道刘家坝安置区第一消防道靠河边第一栋"}},{"type":"Feature","geometry":{"type":"Point","coordinates":[109.43625,29.435859]},"properties":{"full_address":"湖南省湘西土家族苗族自治州龙山县土城坝安置区10栋"}},{"type":"Feature","geometry":{"type":"Point","coordinates":[113.522071,24.756736]},"properties":{"full_address":"广东省韶关市武江区西联镇恒大城2期（除38、39栋外）"}},{"type":"Feature","geometry":{"type":"Point","coordinates":[113.586818,24.788555]},"properties":{"full_address":"广东省韶关市武江区新华街道沙洲尾华园新村8、9、10、11栋"}},{"type":"Feature","geometry":{"type":"Point","coordinates":[113.586966,24.788029]},"properties":{"full_address":"广东省韶关市武江区新华街道沙洲尾粤海花园B、C、D、E栋"}},{"type":"Feature","geometry":{"type":"Point","coordinates":[113.58777,24.772831]},"properties":{"full_address":"广东省韶关市浈江区乐园镇北江中路68号三江紫园车库入口南侧汇景苑及沙梨园224号住宅楼"}},{"type":"Feature","geometry":{"type":"Point","coordinates":[113.58429,24.7596]},"properties":{"full_address":"广东省韶关市浈江区乐园镇北江中路33号南枫碧水园东区K3-K10、K12"}},{"type":"Feature","geometry":{"type":"Point","coordinates":[113.603597,24.785193]},"properties":{"full_address":"广东省韶关市浈江区车站街道莲花北路72号林语阳光雅苑南区和北区1、2、3、4、5、6、7、8、9、11、12栋"}},{"type":"Feature","geometry":{"type":"Point","coordinates":[113.5276,24.672285]},"properties":{"full_address":"广东省韶关市曲江区白土镇白土大桥往北至友联新苑至城口新村路口至白土路口(除白土镇财政所、曲江经济开发区管委会)"}},{"type":"Feature","geometry":{"type":"Point","coordinates":[114.145887,22.54816]},"properties":{"full_address":"广东省深圳市罗湖区黄贝街道新秀社区新秀村北区7栋"}},{"type":"Feature","geometry":{"type":"Point","coordinates":[114.137671,22.566016]},"properties":{"full_address":"广东省深圳市罗湖区翠竹街道新村社区水库新村统建楼7栋、8栋，水库新村340号、341号、345号围合区域（除高风险区外）"}},{"type":"Feature","geometry":{"type":"Point","coordinates":[114.14672,22.54466]},"properties":{"full_address":"广东省深圳市罗湖区黄贝街道新兴社区靖轩花园2栋2单元（除底商外）"}},{"type":"Feature","geometry":{"type":"Point","coordinates":[114.127871,22.567302]},"properties":{"full_address":"广东省深圳市罗湖区翠竹街道翠锦社区阳光天地明星阁、明月阁（除底商外）"}},{"type":"Feature","geometry":{"type":"Point","coordinates":[114.13559,22.560635]},"properties":{"full_address":"广东省深圳市罗湖区翠竹街道翠竹社区东门北路2075号（29号大院）二栋一单元、二单元"}},{"type":"Feature","geometry":{"type":"Point","coordinates":[114.136266,22.571332]},"properties":{"full_address":"广东省深圳市罗湖区翠竹街道翠达社区东晓综合市场南楼商铺和东晓综合市场北楼"}},{"type":"Feature","geometry":{"type":"Point","coordinates":[114.139204,22.56539]},"properties":{"full_address":"广东省深圳市罗湖区翠竹街道新村社区水库新村全域围合区域（除原中、高风险区，现高风险区，水库新村工业区11栋外）"}},{"type":"Feature","geometry":{"type":"Point","coordinates":[114.117275,22.581032]},"properties":{"full_address":"广东省深圳市罗湖区东晓街道兰花社区布吉农批海鲜市场临时安置区A座75号"}},{"type":"Feature","geometry":{"type":"Point","coordinates":[114.114865,22.583328]},"properties":{"full_address":"广东省深圳市罗湖区清水河街道草埔西社区清水河村108栋C座、D座"}},{"type":"Feature","geometry":{"type":"Point","coordinates":[114.136012,22.573259]},"properties":{"full_address":"广东省深圳市罗湖区翠竹街道翠达社区粤海新村5栋2单元"}},{"type":"Feature","geometry":{"type":"Point","coordinates":[114.138257,22.567587]},"properties":{"full_address":"广东省深圳市罗湖区翠竹街道新村社区水库新村工业区11栋B座"}},{"type":"Feature","geometry":{"type":"Point","coordinates":[114.145642,22.546175]},"properties":{"full_address":"广东省深圳市罗湖区黄贝街道新秀社区新秀村南区5栋1单元"}},{"type":"Feature","geometry":{"type":"Point","coordinates":[114.142833,22.543954]},"properties":{"full_address":"广东省深圳市罗湖区黄贝街道新秀社区新秀工业区内东乐大院2栋4楼"}},{"type":"Feature","geometry":{"type":"Point","coordinates":[114.138264,22.567928]},"properties":{"full_address":"广东省深圳市罗湖区翠竹街道新村社区水库新村工业区11栋"}},{"type":"Feature","geometry":{"type":"Point","coordinates":[114.135792,22.568687]},"properties":{"full_address":"广东省深圳市罗湖区翠竹街道翠岭社区万事达名苑明山阁"}},{"type":"Feature","geometry":{"type":"Point","coordinates":[114.13285,22.56635]},"properties":{"full_address":"广东省深圳市罗湖区翠竹街道翠岭社区美思苑小区1栋"}},{"type":"Feature","geometry":{"type":"Point","coordinates":[114.127942,22.566477]},"properties":{"full_address":"广东省深圳市罗湖区翠竹街道愉天社区愉天小区1栋一单元"}},{"type":"Feature","geometry":{"type":"Point","coordinates":[114.136088,22.571752]},"properties":{"full_address":"广东省深圳市罗湖区翠竹街道翠达社区百仕达花园二期15栋"}},{"type":"Feature","geometry":{"type":"Point","coordinates":[114.115947,22.574401]},"properties":{"full_address":"广东省深圳市罗湖区清水河街道清水河社区金豪花园5栋4单元"}},{"type":"Feature","geometry":{"type":"Point","coordinates":[114.142415,22.587516]},"properties":{"full_address":"广东省深圳市罗湖区东湖街道金湖社区淘金山湖景花园12栋A座、13栋A座、13栋B座"}},{"type":"Feature","geometry":{"type":"Point","coordinates":[114.138497,22.563523]},"properties":{"full_address":"广东省深圳市罗湖区翠竹街道新村社区水库新村124栋"}},{"type":"Feature","geometry":{"type":"Point","coordinates":[114.138137,22.564342]},"properties":{"full_address":"广东省深圳市罗湖区翠竹街道新村社区水库新村163栋"}},{"type":"Feature","geometry":{"type":"Point","coordinates":[114.143283,22.586919]},"properties":{"full_address":"广东省深圳市罗湖区东湖街道金湖社区淘金山湖景花园（除原中、高风险区，现高风险区外）"}},{"type":"Feature","geometry":{"type":"Point","coordinates":[114.167446,22.562098]},"properties":{"full_address":"广东省深圳市罗湖区莲塘街道鹏兴社区鹏兴花园3期围合区域（除高风险区外）"}},{"type":"Feature","geometry":{"type":"Point","coordinates":[114.126292,22.541868]},"properties":{"full_address":"广东省深圳市罗湖区南湖街道向西社区向西村东区10-12栋、22栋-24栋、37-39栋围合区域（除高风险区外）"}},{"type":"Feature","geometry":{"type":"Point","coordinates":[114.153527,22.541977]},"properties":{"full_address":"广东省深圳市罗湖区黄贝街道罗芳社区安业馨园（除高风险区外）"}},{"type":"Feature","geometry":{"type":"Point","coordinates":[114.13986,22.566942]},"properties":{"full_address":"广东省深圳市罗湖区翠竹街道新村社区水库新村统建楼8栋、12栋，水库新村23-26栋、31-32栋、290栋、298栋、13栋、183栋、241栋、346栋，泰宁小区1栋B座、2栋A座1楼"}},{"type":"Feature","geometry":{"type":"Point","coordinates":[114.138328,22.562595]},"properties":{"full_address":"广东省深圳市罗湖区翠竹街道新村社区水库新村91栋、261栋"}},{"type":"Feature","geometry":{"type":"Point","coordinates":[114.122361,22.549538]},"properties":{"full_address":"广东省深圳市罗湖区东门街道花场社区东门中路东门天地大厦住宅（除高风险区外）"}},{"type":"Feature","geometry":{"type":"Point","coordinates":[114.125668,22.544902]},"properties":{"full_address":"广东省深圳市罗湖区东门街道东门中路以东、晒布路以南、兴湖路以西、湖贝路以北围合区域（除城东街33号、35号、41-42号、48号、55号、57号围合区域和保证城市基本运行场所外）"}},{"type":"Feature","geometry":{"type":"Point","coordinates":[114.12287,22.54649]},"properties":{"full_address":"广东省深圳市罗湖区东门街道城东社区城东街41-42号二楼宿舍"}},{"type":"Feature","geometry":{"type":"Point","coordinates":[114.053306,22.512658]},"properties":{"full_address":"广东省深圳市福田区福保街道益田村第6栋"}},{"type":"Feature","geometry":{"type":"Point","coordinates":[114.057588,22.528034]},"properties":{"full_address":"广东省深圳市福田区福田街道皇都广场B座和裙楼"}},{"type":"Feature","geometry":{"type":"Point","coordinates":[114.09313,22.55479]},"properties":{"full_address":"广东省深圳市福田区园岭街道长城社区长城一花园第1栋-第2栋"}},{"type":"Feature","geometry":{"type":"Point","coordinates":[113.914879,22.51862]},"properties":{"full_address":"广东省深圳市南山区南山街道南园村西一坊5、6、7、8、9、10、11、13、14、15、16、17号，西二坊5号，西街21、22、23、24、27号"}},{"type":"Feature","geometry":{"type":"Point","coordinates":[113.896349,22.568012]},"properties":{"full_address":"广东省深圳市宝安区新安街道宝民社区宝豪华庭（除高风险区域以外）"}},{"type":"Feature","geometry":{"type":"Point","coordinates":[114.110923,22.610946]},"properties":{"full_address":"广东省深圳市龙岗区吉华街道翠湖社区龙翔花园瑞龙轩二期"}},{"type":"Feature","geometry":{"type":"Point","coordinates":[114.123968,22.630673]},"properties":{"full_address":"广东省深圳市龙岗区吉华街道三联社区浙新工业城宿舍5D栋、5E栋"}},{"type":"Feature","geometry":{"type":"Point","coordinates":[114.164891,22.612284]},"properties":{"full_address":"广东省深圳市龙岗区南湾街道厦村社区国香山翡翠华庭1栋"}},{"type":"Feature","geometry":{"type":"Point","coordinates":[114.118205,22.6101]},"properties":{"full_address":"广东省深圳市龙岗区布吉街道南三社区新三村西区九巷1栋、2栋、9栋，十巷1栋、2栋、3栋、8栋，新民路31号、33号，长吉路40号"}},{"type":"Feature","geometry":{"type":"Point","coordinates":[114.111006,22.598072]},"properties":{"full_address":"广东省深圳市龙岗区布吉街道布吉社区莲花路135号B、C栋"}},{"type":"Feature","geometry":{"type":"Point","coordinates":[114.016977,22.741396]},"properties":{"full_address":"广东省深圳市龙华区福城街道章阁社区塘前西区22号启点公寓"}},{"type":"Feature","geometry":{"type":"Point","coordinates":[114.035596,22.600682]},"properties":{"full_address":"广东省深圳市龙华区民治街道白石龙社区逸秀新村第4至12栋、第5A栋、第3栋旁花店"}},{"type":"Feature","geometry":{"type":"Point","coordinates":[114.483392,22.59589]},"properties":{"full_address":"广东省深圳市大鹏新区大鹏办事处朝飞路下沙新村山海苑2栋2单元"}},{"type":"Feature","geometry":{"type":"Point","coordinates":[114.426876,22.6299]},"properties":{"full_address":"广东省深圳市大鹏新区葵涌办事处欧新小区四巷10-12号"}},{"type":"Feature","geometry":{"type":"Point","coordinates":[114.472605,22.598918]},"properties":{"full_address":"广东省深圳市大鹏新区大鹏办事处旱塘仔（除高风险区外）"}},{"type":"Feature","geometry":{"type":"Point","coordinates":[114.530125,22.5942]},"properties":{"full_address":"广东省深圳市大鹏新区大鹏街道鹏飞路与李白路交界鹏海小区1-4栋"}},{"type":"Feature","geometry":{"type":"Point","coordinates":[114.467074,23.185564]},"properties":{"full_address":"广东省惠州市惠城区广惠高速汝湖出口至东江边以西，三环北路以北，惠博大道至小金河大道以东，广惠高速以南区域（高风险区除外）"}},{"type":"Feature","geometry":{"type":"Point","coordinates":[114.42962,23.073671]},"properties":{"full_address":"广东省惠州市惠城区河南岸街道方直城市时代小区除8栋-9栋以外其他10栋楼宇"}},{"type":"Feature","geometry":{"type":"Point","coordinates":[114.562053,23.101858]},"properties":{"full_address":"广东省惠州市惠城区水口街道三联村及姚村全域（高风险区域除外）"}},{"type":"Feature","geometry":{"type":"Point","coordinates":[114.710413,22.793649]},"properties":{"full_address":"广东省惠州市大亚湾区霞涌街道石化大道东以南，乌山头山脊以东，惠东碧桂园十里银滩以西，小径湾海岸线以北区域（高风险区除外）"}},{"type":"Feature","geometry":{"type":"Point","coordinates":[114.558382,23.127364]},"properties":{"full_address":"广东省惠州市仲恺高新区东江科技园东兴片区赢合工业园周边区域【东锦南路以东，惠泽大道以南，东新大道以西，兴举西路以北】（高风险区域除外）"}},{"type":"Feature","geometry":{"type":"Point","coordinates":[113.78188,23.067417]},"properties":{"full_address":"广东省东莞市东城街道下桥社区银岭街-银竹路-金桥水产市场东侧-陂头巷21-48号合围区域（除高风险区外）"}},{"type":"Feature","geometry":{"type":"Point","coordinates":[116.260895,23.006474]},"properties":{"full_address":"广东省揭阳市惠来县东陇镇东陇村部分区域（东至庆平路，北至南环二路，南至汕汕高铁，西至与石洲村交界）"}},{"type":"Feature","geometry":{"type":"Point","coordinates":[110.198316,20.050137]},"properties":{"full_address":"海南省海口市秀英区滨海新天地一期南区（5-9栋）"}},{"type":"Feature","geometry":{"type":"Point","coordinates":[110.359272,20.019123]},"properties":{"full_address":"海南省海口市美兰区海航国兴城C区"}},{"type":"Feature","geometry":{"type":"Point","coordinates":[110.351316,20.053635]},"properties":{"full_address":"海南省海口市美兰区美兰区和平大道16号银谷苑小区4-8栋"}},{"type":"Feature","geometry":{"type":"Point","coordinates":[110.822888,19.543128]},"properties":{"full_address":"海南省省直辖县级行政单位文昌市文城镇清澜片区的中南森海湾小区"}},{"type":"Feature","geometry":{"type":"Point","coordinates":[110.823322,19.544501]},"properties":{"full_address":"海南省省直辖县级行政单位文昌市椰海尚品小区（东至旅游大道椰海尚品围墙、西至逸龙东路、南至高隆湾海边带沙滩，北至疏港路中南森海湾围墙"}},{"type":"Feature","geometry":{"type":"Point","coordinates":[109.004452,28.452727]},"properties":{"full_address":"重庆市重庆市秀山土家族苗族自治县中和街道宜景花园（除18栋的区域）"}},{"type":"Feature","geometry":{"type":"Point","coordinates":[108.987989,28.447558]},"properties":{"full_address":"重庆市重庆市秀山土家族苗族自治县中和街道花灯广场“海澜之家”"}},{"type":"Feature","geometry":{"type":"Point","coordinates":[108.993402,28.446036]},"properties":{"full_address":"重庆市重庆市秀山土家族苗族自治县中和街道鼎厨坊清汤羊肉粉馆（永辉超市对面）"}},{"type":"Feature","geometry":{"type":"Point","coordinates":[109.005311,28.466016]},"properties":{"full_address":"重庆市重庆市秀山土家族苗族自治县中和街道权哥木制品有限公司（顺发驾校旁）"}},{"type":"Feature","geometry":{"type":"Point","coordinates":[104.743643,31.456912]},"properties":{"full_address":"四川省绵阳市涪城区涪城区石塘街道长兴望江苑小区"}},{"type":"Feature","geometry":{"type":"Point","coordinates":[104.735319,31.451333]},"properties":{"full_address":"四川省绵阳市涪城区石塘街道御营新城小区"}},{"type":"Feature","geometry":{"type":"Point","coordinates":[104.734167,31.453804]},"properties":{"full_address":"四川省绵阳市涪城区石塘街道御安街48号"}},{"type":"Feature","geometry":{"type":"Point","coordinates":[104.715647,31.324256]},"properties":{"full_address":"四川省绵阳市涪城区杨家镇罗汉寺村"}},{"type":"Feature","geometry":{"type":"Point","coordinates":[104.735584,31.456234]},"properties":{"full_address":"四川省绵阳市涪城区御旗路24号亲水雅苑"}},{"type":"Feature","geometry":{"type":"Point","coordinates":[104.740149,31.456892]},"properties":{"full_address":"四川省绵阳市涪城区长虹大道南段31号家属区"}},{"type":"Feature","geometry":{"type":"Point","coordinates":[104.768032,31.440062]},"properties":{"full_address":"四川省绵阳市涪城区红星村9社"}},{"type":"Feature","geometry":{"type":"Point","coordinates":[104.584359,31.562472]},"properties":{"full_address":"四川省绵阳市安州区花荄镇联丰村"}},{"type":"Feature","geometry":{"type":"Point","coordinates":[104.694145,31.449913]},"properties":{"full_address":"四川省绵阳市绵阳（国家）高新技术产业开发区人和天地1期、2期"}},{"type":"Feature","geometry":{"type":"Point","coordinates":[104.76883,31.42853]},"properties":{"full_address":"四川省绵阳市绵阳经济技术开发区塘汛街道晶蓝湖小区"}},{"type":"Feature","geometry":{"type":"Point","coordinates":[105.56716,30.531478]},"properties":{"full_address":"四川省遂宁市船山区飞虹街6号"}},{"type":"Feature","geometry":{"type":"Point","coordinates":[105.568199,30.533183]},"properties":{"full_address":"四川省遂宁市船山区飞虹街55栋"}},{"type":"Feature","geometry":{"type":"Point","coordinates":[105.587806,30.497116]},"properties":{"full_address":"四川省遂宁市船山区凯东路凯南一巷9栋、10栋、14栋和凯南二巷11号、12号、13号所在楼栋以及凯南二巷2栋"}},{"type":"Feature","geometry":{"type":"Point","coordinates":[105.565986,30.53428]},"properties":{"full_address":"四川省遂宁市船山区蜀秀东街19号蜀秀公寓及楼下门面"}},{"type":"Feature","geometry":{"type":"Point","coordinates":[105.562962,30.524433]},"properties":{"full_address":"四川省遂宁市船山区金色海岸康乐苑2个单元、阳光洺宅7个单元、世纪城A、B、C座"}},{"type":"Feature","geometry":{"type":"Point","coordinates":[103.84146,30.111904]},"properties":{"full_address":"四川省眉山市东坡区眉山市东坡区太和镇龙亭社区13组"}},{"type":"Feature","geometry":{"type":"Point","coordinates":[104.924892,28.575689]},"properties":{"full_address":"四川省宜宾市长宁县长宁镇"}},{"type":"Feature","geometry":{"type":"Point","coordinates":[105.168768,28.128916]},"properties":{"full_address":"四川省宜宾市兴文县大坝苗族乡除高风险区外其余区域"}},{"type":"Feature","geometry":{"type":"Point","coordinates":[104.663663,28.779591]},"properties":{"full_address":"四川省宜宾市三江新区白沙湾街道洗马池社区"}},{"type":"Feature","geometry":{"type":"Point","coordinates":[105.506629,27.202786]},"properties":{"full_address":"贵州省毕节市七星关区双山镇高坪村"}},{"type":"Feature","geometry":{"type":"Point","coordinates":[106.036966,27.024166]},"properties":{"full_address":"贵州省毕节市七星关区市东街道香山郦居小区11栋"}},{"type":"Feature","geometry":{"type":"Point","coordinates":[105.331402,27.289674]},"properties":{"full_address":"贵州省毕节市七星关区万晟阳光城A区2栋"}},{"type":"Feature","geometry":{"type":"Point","coordinates":[105.285756,27.298525]},"properties":{"full_address":"贵州省毕节市七星关区阳山隧道与草海大道交叉处，沿草海大道、翠屏路、威宁路、桂花路至原老公安处合围区域"}},{"type":"Feature","geometry":{"type":"Point","coordinates":[105.28686,27.289254]},"properties":{"full_address":"贵州省毕节市七星关区从洪山路垭口开始，沿南环路至毕节市信访局，向南沿百里杜鹃路至观邸小区，向西顺碧阳大道至毕节市生态环保局，向北沿洪山路至南环路口合围区域（不含其中的中国石化加油站、消防一中队南环东路中队、毕节市第三人民医院）"}},{"type":"Feature","geometry":{"type":"Point","coordinates":[105.293693,27.286797]},"properties":{"full_address":"贵州省毕节市七星关区碧阳街道滨湖小区愉景华庭H栋"}},{"type":"Feature","geometry":{"type":"Point","coordinates":[105.417941,26.762909]},"properties":{"full_address":"贵州省毕节市纳雍县珙桐街道白水河社区纳雍一中、思源实验学校、香域蓝湾与瑞府财富天街合围区域"}},{"type":"Feature","geometry":{"type":"Point","coordinates":[103.154697,23.363821]},"properties":{"full_address":"云南省红河哈尼族彝族自治州个旧市沙甸街道办事处西边：蛤蟆吐水起沿蒙宝线（铁路）至鸡街老火车站以东；南边：铅巴路向北至瑞临线，并沿开远转盘以北；东边：开远转盘沿老昆河公路至东郊路口以西；北边：沙甸后山以南区域"}},{"type":"Feature","geometry":{"type":"Point","coordinates":[102.832279,23.624656]},"properties":{"full_address":"云南省红河哈尼族彝族自治州建水县五龙商场片区"}},{"type":"Feature","geometry":{"type":"Point","coordinates":[103.958777,22.517596]},"properties":{"full_address":"云南省红河哈尼族彝族自治州河口瑶族自治县河口镇北山社区阮氏桂货运站"}},{"type":"Feature","geometry":{"type":"Point","coordinates":[103.96056,22.509593]},"properties":{"full_address":"云南省红河哈尼族彝族自治州河口瑶族自治县河口吉星广告装饰部周边区域"}},{"type":"Feature","geometry":{"type":"Point","coordinates":[103.934228,22.527097]},"properties":{"full_address":"云南省红河哈尼族彝族自治州河口瑶族自治县和谐小区"}},{"type":"Feature","geometry":{"type":"Point","coordinates":[103.960353,22.524773]},"properties":{"full_address":"云南省红河哈尼族彝族自治州河口瑶族自治县曼章社区迎辉小区"}},{"type":"Feature","geometry":{"type":"Point","coordinates":[103.961549,22.525248]},"properties":{"full_address":"云南省红河哈尼族彝族自治州河口瑶族自治县德胜花园小区"}},{"type":"Feature","geometry":{"type":"Point","coordinates":[100.821339,22.00716]},"properties":{"full_address":"云南省西双版纳傣族自治州景洪市告庄西双景除高风险区以外的其他区域"}},{"type":"Feature","geometry":{"type":"Point","coordinates":[100.796253,21.996394]},"properties":{"full_address":"云南省西双版纳傣族自治州景洪市景洪港及曼斗居民小组景洪港片区"}},{"type":"Feature","geometry":{"type":"Point","coordinates":[100.817374,22.014918]},"properties":{"full_address":"云南省西双版纳傣族自治州景洪市山水社区铜矿住宿区（宣慰大道—澜沧江路—曼泐路合围片区）"}},{"type":"Feature","geometry":{"type":"Point","coordinates":[100.796253,21.996394]},"properties":{"full_address":"云南省西双版纳傣族自治州景洪市曼斗水上世界片区（景亮路—宣慰大道—曼泐路—澜沧江路—港口路合围片区）"}},{"type":"Feature","geometry":{"type":"Point","coordinates":[100.734155,22.031765]},"properties":{"full_address":"云南省西双版纳傣族自治州景洪市西双版纳景洪工业园区曼沙社区曼柳村"}},{"type":"Feature","geometry":{"type":"Point","coordinates":[100.797232,22.001584]},"properties":{"full_address":"云南省西双版纳傣族自治州景洪市西双版纳旅游度假区雨林时光小区除3栋外区域"}},{"type":"Feature","geometry":{"type":"Point","coordinates":[100.797232,22.001584]},"properties":{"full_address":"云南省西双版纳傣族自治州景洪市西双版纳旅游度假区曼贡村11号路B40号楼栋方圆30米范围内楼栋"}},{"type":"Feature","geometry":{"type":"Point","coordinates":[100.795901,22.0091]},"properties":{"full_address":"云南省西双版纳傣族自治州景洪市允景洪街道孔雀湖社区勐泐大道42号汉庭酒店外楼栋"}},{"type":"Feature","geometry":{"type":"Point","coordinates":[100.051737,21.696587]},"properties":{"full_address":"云南省西双版纳傣族自治州勐海县打洛镇打洛村曼卖本村民小组"}},{"type":"Feature","geometry":{"type":"Point","coordinates":[100.051737,21.696587]},"properties":{"full_address":"云南省西双版纳傣族自治州勐海县打洛镇除高风险以外地区"}},{"type":"Feature","geometry":{"type":"Point","coordinates":[100.260387,21.998095]},"properties":{"full_address":"云南省西双版纳傣族自治州勐海县黎明农场象塚社区"}},{"type":"Feature","geometry":{"type":"Point","coordinates":[98.06534,24.077361]},"properties":{"full_address":"云南省德宏傣族景颇族自治州瑞丽市畹町镇国防街社区和民主街社区除高风险区外的区域，以及建设路社区部分区域"}},{"type":"Feature","geometry":{"type":"Point","coordinates":[97.827503,23.979255]},"properties":{"full_address":"云南省德宏傣族景颇族自治州瑞丽市勐卯街道姐东村委会大等贺村民小组04网格37号、38号、40号、42号、43号、138号、162号、170号、223号、248号"}},{"type":"Feature","geometry":{"type":"Point","coordinates":[97.700523,23.916392]},"properties":{"full_address":"云南省德宏傣族景颇族自治州瑞丽市姐相镇俄罗村委会弄相村民小组65号至70号"}},{"type":"Feature","geometry":{"type":"Point","coordinates":[98.101472,24.097536]},"properties":{"full_address":"云南省德宏傣族景颇族自治州瑞丽市畹町镇芒棒村委会芒棒村民小组除高风险区以外区域"}},{"type":"Feature","geometry":{"type":"Point","coordinates":[97.890538,23.979522]},"properties":{"full_address":"云南省德宏傣族景颇族自治州瑞丽市姐告国门社区除高风险区以外的区域"}},{"type":"Feature","geometry":{"type":"Point","coordinates":[97.89029,24.024491]},"properties":{"full_address":"云南省德宏傣族景颇族自治州瑞丽市勐卯街道姐勒村委会桂平物流城除高风险区以外的区域（不含桂平物流酒店），以及桂平物流城西侧道路对面商铺（德冠恒隆家具城至骏驰汽修店）"}},{"type":"Feature","geometry":{"type":"Point","coordinates":[97.856741,23.993484]},"properties":{"full_address":"云南省德宏傣族景颇族自治州瑞丽市勐卯街道卯相社区奥星世纪小区一期、二期除高风险区以外的区域"}},{"type":"Feature","geometry":{"type":"Point","coordinates":[97.817482,23.975523]},"properties":{"full_address":"云南省德宏傣族景颇族自治州瑞丽市勐卯街道姐东村委会丙午村民小组除高风险区以外的区域"}},{"type":"Feature","geometry":{"type":"Point","coordinates":[97.570053,24.721537]},"properties":{"full_address":"云南省德宏傣族景颇族自治州盈江县那邦镇那邦村芒那路上田坝岔口起至桥头村民小组扎图拱便道止所涉区域"}},{"type":"Feature","geometry":{"type":"Point","coordinates":[97.840789,24.282014]},"properties":{"full_address":"云南省德宏傣族景颇族自治州陇川县陇川农场拉线社区拉线九组、拉线二组除高风险区以外的区域"}},{"type":"Feature","geometry":{"type":"Point","coordinates":[91.135594,29.675344]},"properties":{"full_address":"西藏自治区拉萨市城关区色拉北路圣城花园"}},{"type":"Feature","geometry":{"type":"Point","coordinates":[91.121675,29.671719]},"properties":{"full_address":"西藏自治区拉萨市城关区娘热路幸福新村"}},{"type":"Feature","geometry":{"type":"Point","coordinates":[91.147544,29.673285]},"properties":{"full_address":"西藏自治区拉萨市城关区扎细街道尼卓林社区琅赛9区北区"}},{"type":"Feature","geometry":{"type":"Point","coordinates":[91.134077,29.667659]},"properties":{"full_address":"西藏自治区拉萨市城关区扎细街道扎细社区（除自治区水利厅、机修厂、军械厂、扎细社区合作社、自治区司法医院、自治区税务周转房、自治区民宗委退休基地、西藏日报社新闻苑、司法厅退休基地、扎基寺，自治区监狱退休基地，咖啡之翼（烟草周转房、农行北郊支行、自治区公积金管理中心），羊湖集团出租房、宏盛二期、自治区矿业发展总公司机修厂退休基地、自治区水利厅退休基地、夺底路53号、夺底路49号）"}},{"type":"Feature","geometry":{"type":"Point","coordinates":[91.133779,29.679983]},"properties":{"full_address":"西藏自治区拉萨市城关区娘热街道慈松塘社区（除惠华公寓、达杰园林、慈松塘扶贫出租房、山河堂、新华印刷厂、水上公园、自治区残疾人康复中心、自治区游泳馆、顺通公司、师范附小、城北消防大队、矿业发展总公司、西藏自治区广播电视局031台、西藏自治区地勘局第二地质大队、西藏自治区工业物资运销公司退休基地、色拉北路37号、沃诺仓大厦、顺通小区、巴尔库大厦、城北暖心公司、矿业生活小区、拉萨市环卫局、顺通大厦、自治区体校、拉萨院子、西藏东红农机销售有限公司、国税局生活基地、康缘小区、赛马场、西藏地勘局北郊退休安居苑、市安居公安局小区、园林小区、拉萨地质花园小区、娘热北路新华苑、西藏自治区第三建筑公司住宅小区、圣城丽都苑、慈松塘小区、拉萨市房地产总公司第三期城北安居园、奇正家园、康德林小区、雪域明珠园、教师新村）"}},{"type":"Feature","geometry":{"type":"Point","coordinates":[91.123908,29.672027]},"properties":{"full_address":"西藏自治区拉萨市城关区功德林街道幸福社区（除娘热南路15号国豪商务宾馆、卓玛医院、布达拉宫退休基地、博物馆退休基地、审计厅办公区、彩泉福利学校、自治区医保局、自治区妇联、宣传部退休基地、自治区药监局、自治区林草局、扎西热旦小区、自治区住建厅及生活区、市统计局、藏医院对面七天酒店及周边商业、拉鲁桥斜对面宜尚酒店及周边商业、自治区人民出版社、自治区佛协、自治区人民检察院、自治区政协、汽车五队小区（周转房2、4栋、北区2、3、5、6、9、12、13、26、27栋，南区6栋）、市环境保护局生活区、明圣酒店及周边商业、自治区畜牧总站生活区、二号院、二号院巷道散户、中国石油交通加油站及周边商业、六号公馆、西藏岷山饭店、千禧会所、雅美生态家园、自治区实验幼儿园、住建厅北侧大楼、康桑苑、幸福新村一组、拉萨市建设局四建司退休工人基地、自治区检察院退休基地、自治区林业厅退休基地、曲米路自治区统战部退休基地、赵氏出租房、中国人民银行拉萨中心支行职工住宅区、区政府二基地、自治区实验幼儿园生活区、汽车五队小区及周边商铺）"}},{"type":"Feature","geometry":{"type":"Point","coordinates":[91.127477,29.661292]},"properties":{"full_address":"西藏自治区拉萨市城关区扎细街道团结新村社区（除拉萨市第三小学、拉萨市规划设计院、自治区国资委、自治区藏医院、自治区疾控中心、阜康医院住院部、纳木措宾馆、自治区设计院、农投商贸有限公司、香嘎小区、北郊自来水厂、幸福苑、林廓北路19号国家电网、那曲办事处、政府第三退休基地、自治区地震局及生活区、自治区国资委退休基地、西藏雪域天堂大酒店、团结新村社区东区、南三区、自治区国资委安全文明大院、团结新村南一区）"}},{"type":"Feature","geometry":{"type":"Point","coordinates":[91.134102,29.668608]},"properties":{"full_address":"西藏自治区拉萨市城关区扎细街道扎细新村社区（除娘热路农行、区直工委退休基地、边防小区、拉萨市城市管理局、中央粮食储备库、自治区运管局、国网拉萨供电公司、拉萨市养护处、科技厅生活区、政府一号退休基地、国网西藏超高压公司、一江两河退休基地、城北工商、拉萨市净土、圣美家超市、哈达购物广场、北郊客运站，象雄小区，自治区政法委，自治区组发退休基地，羊八井地热发电公司及退休基地，藏医药大学及附属学院，邓小林出租房，自治区市场监督管理局生活区，设计院生活小区，拉萨市图书馆，藏胞接待办，永丰出租屋，扶贫办退休基地，公安厅退休基地，农牧厅散户，农牧厅退休基地，农牧学院退休基地，粮食局退休基地，畜科所安居小区，游乐园幼儿园，地面卫星站，王恩强出租房，国平公寓1、2号，天海家具市场，第十安居住宅小区，电建小区，市疾控中心及生活区，天路康桑，顺心小区，邮政小区、甘露大厦、五洲医院、万兴公寓、国平公寓3号、志远公寓、哈达幸福花园三区、吉祥花园A区、杜勇公寓、仪合公寓、原二建司及川郊出租房、福海出租房、自来水退休基地、粮油公寓、金色年华酒店、永源酒店、扎细新村8组、工程四队出租房、扎细新村5组42号慵懒时光客栈）"}},{"type":"Feature","geometry":{"type":"Point","coordinates":[91.057399,29.660478]},"properties":{"full_address":"西藏自治区拉萨市城关区金珠西路街道当巴社区（除北京西路39号西藏自治区烟草公司拉萨市公司、经信厅、文君苑十区、简约公寓、顺通小区、窝家大院、玄鹤公寓、崔宗华出租房、阮氏公寓、志华出租房、鹏曦公寓、德布出租房、文君苑9区、勇耀公寓、西藏自治区人力资源与社会保障厅、人大退休基地、西藏自治区交通综合执法总队、广电032台、镖局集团、拉鲁湿地管理局、天成矿业片区、鲁定小区、青藏公路退休基地、丽都片区、荣信片区、安禾之家、交通安居苑、顺通城市花园、协和片区、电杆厂、吉日仓库、吉日商贸、哲蚌寺集体经济地、地勘实验中心、雷达团、展览馆退休基地、美朵林卡小区、九州片区、人保退休基地、天顺小区、尼威小区、蓝天路云沃庄园（乌孜林片区）、兴悦公寓片区、当巴社区居民三组（沿街商铺）、西苑、当巴四组南面吉日山脚居民四组（那曲建设安居苑）、苹果苑小区、宏发西城安居苑、海关退休基地片区、变电站工地、变电站周转房、新概念汽修片区、西郊安居园、常乐片区、苹果园巷道）"}},{"type":"Feature","geometry":{"type":"Point","coordinates":[91.051117,29.637032]},"properties":{"full_address":"西藏自治区拉萨市城关区金珠西路街道八一社区（除格桑美域小区、世邦城市花园小区、金藏林卡小区、藏游坛城、春天花园小区、解甲园小区、鲲祥苑、八一农场小区、世邦金色时代、城发商厦、鲲泰建设大厦、平安小区、金典大厦、自治区商务厅、红十字会、八一校、老刘出租房、云水谣、城发大厦、当巴小学、城投大厦、藏药博物馆、八一菜市场、厚兰医院、林草局、应急救援中心、自治区农行、拉萨印象、国际花园、藏大西苑、自治区高法、自治区人力资源市场管理服务中心、马蓉出租房、岗培中心、一建司、岗旋出租房、中兴加油站、圣城锦苑、城西交警支队、国家开发银行西藏自治区分行、金珠西路派出所、民航退休基地、农垦大厦、中国邮政储蓄银行（拉萨支行）、中国建设银行金珠西路支行、金珠花苑、西藏职业技术学院、城西旅社出租房、哈达滨河花园西区（除二排四栋16、17单元、三排二栋6单元、三排三栋11单元、四排一栋1、2单元、四排二栋活动中心外）、哈达滨河花园东区（除一排一栋2、3单元、四排二栋1、5单元、临街一栋2、3单元、商业楼外）、北京现代西藏万融专营店、环水新村、湘辉公寓、东翔公寓、西粮公寓、哈达滨河花园（除东区4排2栋5单元，西区4排1栋1、2单元，4排2栋活动中心）、商业区（矿业小区外围商户）、拉萨市市政安居园、哈达滨河花园）"}},{"type":"Feature","geometry":{"type":"Point","coordinates":[91.134077,29.667659]},"properties":{"full_address":"西藏自治区拉萨市城关区扎细街道雄嘎社区（除自治区乡村振兴局、自治区外事办、童嘎语言学校、拉萨市人社局、自治区电力科学研究院、拉萨支队生活区、众创空间、自治区银监局、拉萨市禁毒支队、一号网格二组、藏家宴、高原宾馆、琅赛青年公寓、雄嘎三组居民区、阳光海岸、外事办退休基地、雄嘎一组居民区、自治区水土保持局、光明出租房，城关区地毯厂，雄嘎二号网格二组，扎西满斋小区，通源小区，自治区社会科学院，林廓北路8号，拉萨市实验小区，电影花园小区，农机公司（西农集团拉萨分公司），雄嘎九、十组、夺底南路25号水电设计院小区、虫草大厦后农行职工宿舍、格桑路如家酒店、怡程酒店、美康国际大酒店、卓玛拉爱心酒店、色拉南路5号智选假日酒店）"}},{"type":"Feature","geometry":{"type":"Point","coordinates":[91.122576,29.680664]},"properties":{"full_address":"西藏自治区拉萨市城关区娘热街道仁钦蔡村（除三机站、曲米路公园、西藏民族大学教学实践基地、江苏中学、山南老干部活动中心、吐蕃大酒店、疆觉曲美林卡、曲米康桑小区、中国西藏广播电影藏语节目译制中心、体工队、强桑出租房、阿里地区行署驻拉萨办事处、城北交警大队、扶贫汽修厂、交警大队旁出租房（马宝川出租房、红宝林出租房、曲洋出租房、东侧出租房）、那曲退休基地、杨威出租房、自治区藏医院制剂室（藏药厂）、喜马拉雅登山向导学校、工商联小区、娘热乡派出所（娘热中路13号）、自治区广播电影电视局031台、曲米路三十六号小区、同舟苑、雍忠城北综合市场、汇源汽修厂、宜家乐公寓、光明幼儿园、渝鹏出租房、桑海小区、拉东库、电力小区（除8栋3单元、1栋3单元、5栋4单元）、宏盛一期小区（除C、D区，3单元）、阿里退休基地（除一区、五区、六区、十四区、服务站东区、公寓楼79号院）、仁钦蔡2组仓库群、日喀则办事处、嘎吉康萨2期、刘云东出租房、那曲气象局退休基地、赛康职工小区、赛康出租房、羊卓苑、仁钦蔡村雪三村散户、电力小区）"}},{"type":"Feature","geometry":{"type":"Point","coordinates":[91.11777,29.668283]},"properties":{"full_address":"西藏自治区拉萨市城关区功德林街道拉鲁社区（除国土温馨苑、中国联通城关区天海路基地营业厅、自治区规划院、市自然资源局、自治区能源中心、央广西藏记者站、自治区文物局、德康名居、德康鑫居（除1、5、11栋）、火电厂西侧居民区、拉萨火电厂小区（除A区）、金运一区、拉运小区、中共西藏自治区直属机关工作委员会及周边商铺、天海商业中心建材市场、天路康卓（除8栋、4栋）、幸福5组）"}},{"type":"Feature","geometry":{"type":"Point","coordinates":[91.152596,29.671034]},"properties":{"full_address":"西藏自治区拉萨市城关区纳金街道加荣社区（除自治区宣教中心、加荣社区居委会、琅赛四区、琅赛八区、琅赛三区、气象阳光苑、天路车队北侧、藏热北路门面及自建房、当热北路门面及自建房、德吉康居园（除1至15栋）、琅赛六区、琅赛五区、加荣路加荣村巴桑出租房、加荣路加荣村琅赛六区外围自建门面、琅赛七区、琅赛一区、货运中心、金盾小区、天路车队工地）"}},{"type":"Feature","geometry":{"type":"Point","coordinates":[108.940238,34.248963]},"properties":{"full_address":"陕西省西安市碑林区长安路街道朱北社区大学东路22号院（除1号楼）"}},{"type":"Feature","geometry":{"type":"Point","coordinates":[108.947932,34.28525]},"properties":{"full_address":"陕西省西安市莲湖区北关街道北稍门东社区北关正街41号院（除三联大厦）"}},{"type":"Feature","geometry":{"type":"Point","coordinates":[108.846227,34.283286]},"properties":{"full_address":"陕西省西安市未央区草滩街道草一社区雅荷盛世名城小区3号楼"}},{"type":"Feature","geometry":{"type":"Point","coordinates":[108.949336,34.205364]},"properties":{"full_address":"陕西省西安市雁塔区长延堡街道师大路1号家属院6号楼"}},{"type":"Feature","geometry":{"type":"Point","coordinates":[108.715413,34.24725]},"properties":{"full_address":"陕西省西安市西咸新区沣西新城高桥街道东马坊村东区"}},{"type":"Feature","geometry":{"type":"Point","coordinates":[109.001625,34.387513]},"properties":{"full_address":"陕西省西安市浐灞生态区湿地产业园华远辰悦东区（除11号楼）"}},{"type":"Feature","geometry":{"type":"Point","coordinates":[107.756281,34.268344]},"properties":{"full_address":"陕西省宝鸡市眉县首善镇昌隆路以西，群众路以东，美阳街以南，金地广场步行街以北合围区域（不含眉县安达汽车站及附属门市、金盛元宾馆）"}},{"type":"Feature","geometry":{"type":"Point","coordinates":[107.752938,34.274784]},"properties":{"full_address":"陕西省宝鸡市眉县首善镇荣华路明润物流园金老四手抓羊肉店"}},{"type":"Feature","geometry":{"type":"Point","coordinates":[107.755678,34.264359]},"properties":{"full_address":"陕西省宝鸡市眉县首善街办经典庄园小区（除9号楼）"}},{"type":"Feature","geometry":{"type":"Point","coordinates":[107.751963,34.272344]},"properties":{"full_address":"陕西省宝鸡市眉县首善街办二道巷中国黄金店"}},{"type":"Feature","geometry":{"type":"Point","coordinates":[107.751171,34.272855]},"properties":{"full_address":"陕西省宝鸡市眉县首善街办金谷世界城"}},{"type":"Feature","geometry":{"type":"Point","coordinates":[107.964964,34.194171]},"properties":{"full_address":"陕西省宝鸡市眉县首善街办二道巷饮食市场"}},{"type":"Feature","geometry":{"type":"Point","coordinates":[108.722057,34.357404]},"properties":{"full_address":"陕西省咸阳市渭城区纬中路以西、杜家堡路以北、新兴北路以东、文林路以南区域[不含中铁二十局基地家属院（东西院）、美林佳苑、咸阳市第一军干所等3个小区]"}},{"type":"Feature","geometry":{"type":"Point","coordinates":[108.240493,34.523349]},"properties":{"full_address":"陕西省咸阳市乾县城关镇南大街习鑫镶牙所"}},{"type":"Feature","geometry":{"type":"Point","coordinates":[108.248965,34.53111]},"properties":{"full_address":"陕西省咸阳市乾县城关镇大市场商贸街"}},{"type":"Feature","geometry":{"type":"Point","coordinates":[108.225374,34.607247]},"properties":{"full_address":"陕西省咸阳市乾县阳洪镇街道312国道以北、镇政府以南东西沿街楼栋"}},{"type":"Feature","geometry":{"type":"Point","coordinates":[109.654972,34.898613]},"properties":{"full_address":"陕西省渭南市蒲城县紫荆街道办韩家村（不包括1组、2组）"}},{"type":"Feature","geometry":{"type":"Point","coordinates":[109.609977,34.887815]},"properties":{"full_address":"陕西省渭南市蒲城县陈庄镇派出所北邻蒙家羊肉馆"}},{"type":"Feature","geometry":{"type":"Point","coordinates":[109.608493,34.897835]},"properties":{"full_address":"陕西省渭南市蒲城县陈庄镇世豪饭店"}},{"type":"Feature","geometry":{"type":"Point","coordinates":[109.581262,34.960351]},"properties":{"full_address":"陕西省渭南市蒲城县尧山路和青年路十字口Happy Time运动休闲娱乐广场"}},{"type":"Feature","geometry":{"type":"Point","coordinates":[110.405093,35.377286]},"properties":{"full_address":"陕西省渭南市韩城市芝川镇论功村一、二组（马陵自然村）"}},{"type":"Feature","geometry":{"type":"Point","coordinates":[109.445951,34.497322]},"properties":{"full_address":"陕西省渭南市高新区崇业路街道麻李村1组、3组"}},{"type":"Feature","geometry":{"type":"Point","coordinates":[109.446103,34.496066]},"properties":{"full_address":"陕西省渭南市高新区崇业路街道天时小区东区（包括门店商铺、高新大厦小区及高新大厦L座）"}},{"type":"Feature","geometry":{"type":"Point","coordinates":[109.44961,34.500779]},"properties":{"full_address":"陕西省渭南市高新区高新北街兰州牛肉拉面店（润泽臻品小区南门店）"}},{"type":"Feature","geometry":{"type":"Point","coordinates":[110.14555,34.088069]},"properties":{"full_address":"陕西省商洛市洛南县城关街道办事处西新街与华阳路交叉路口东南角安旗蛋糕店"}},{"type":"Feature","geometry":{"type":"Point","coordinates":[110.154998,34.089952]},"properties":{"full_address":"陕西省商洛市洛南县城关街道办事处中甫街与东新街交叉十字西南角千里香馄饨店"}},{"type":"Feature","geometry":{"type":"Point","coordinates":[110.159563,34.0959]},"properties":{"full_address":"陕西省商洛市洛南县城关街道办事处黄洛路北侧东郊汽修厂西隔壁微笑盈小吃店"}},{"type":"Feature","geometry":{"type":"Point","coordinates":[109.933159,33.866333]},"properties":{"full_address":"陕西省商洛市洛南县城关街道办事处刘涧社区信合小区除一单元之外的其他区域"}},{"type":"Feature","geometry":{"type":"Point","coordinates":[109.715631,33.602952]},"properties":{"full_address":"陕西省商洛市山阳县小河口镇东坪村张家湾组"}},{"type":"Feature","geometry":{"type":"Point","coordinates":[109.715631,33.602952]},"properties":{"full_address":"陕西省商洛市山阳县小河口镇东坪村西沟口组"}},{"type":"Feature","geometry":{"type":"Point","coordinates":[109.720434,33.650966]},"properties":{"full_address":"陕西省商洛市山阳县小河口镇刘家街村卫家湾组"}},{"type":"Feature","geometry":{"type":"Point","coordinates":[109.720434,33.650966]},"properties":{"full_address":"陕西省商洛市山阳县小河口镇刘家街村刘家街组"}},{"type":"Feature","geometry":{"type":"Point","coordinates":[109.74474,33.497621]},"properties":{"full_address":"陕西省商洛市山阳县色河铺镇赵垣村白岩组"}},{"type":"Feature","geometry":{"type":"Point","coordinates":[104.120582,36.543917]},"properties":{"full_address":"甘肃省白银市白银区京怡家园4号楼"}},{"type":"Feature","geometry":{"type":"Point","coordinates":[104.175013,36.523645]},"properties":{"full_address":"甘肃省白银市白银区王岘小区除27号楼以外区域"}},{"type":"Feature","geometry":{"type":"Point","coordinates":[104.038101,37.412271]},"properties":{"full_address":"甘肃省白银市白银区八方土蔬菜粮油店"}},{"type":"Feature","geometry":{"type":"Point","coordinates":[104.992558,37.01016]},"properties":{"full_address":"甘肃省白银市靖远县东升镇唐庄村"}},{"type":"Feature","geometry":{"type":"Point","coordinates":[104.979752,37.017239]},"properties":{"full_address":"甘肃省白银市靖远县东升镇东兴村"}},{"type":"Feature","geometry":{"type":"Point","coordinates":[105.035182,36.986949]},"properties":{"full_address":"甘肃省白银市靖远县东升镇柴辛村全域"}},{"type":"Feature","geometry":{"type":"Point","coordinates":[94.915586,36.406731]},"properties":{"full_address":"青海省海西蒙古族藏族自治州格尔木市星龙小区一期片区（江源路以东、金峰路以南、泰山路以西、八一路以北，除星龙大厦）"}},{"type":"Feature","geometry":{"type":"Point","coordinates":[94.916697,36.404523]},"properties":{"full_address":"青海省海西蒙古族藏族自治州格尔木市江河龙市场片区（通宁路以东、八一路以南、泰山路以西、建兴巷以北，除泰山路加油站）"}},{"type":"Feature","geometry":{"type":"Point","coordinates":[106.13646,38.47528]},"properties":{"full_address":"宁夏回族自治区银川市西夏区和佳居小区南区（1、2号居民楼）"}},{"type":"Feature","geometry":{"type":"Point","coordinates":[106.194163,37.978648]},"properties":{"full_address":"宁夏回族自治区吴忠市利通区上桥镇福宁苑小区"}},{"type":"Feature","geometry":{"type":"Point","coordinates":[106.270155,37.949595]},"properties":{"full_address":"宁夏回族自治区吴忠市利通区金银滩镇东沟湾村"}},{"type":"Feature","geometry":{"type":"Point","coordinates":[106.272418,37.912393]},"properties":{"full_address":"宁夏回族自治区吴忠市利通区金银滩镇良繁场"}},{"type":"Feature","geometry":{"type":"Point","coordinates":[106.201871,37.983304]},"properties":{"full_address":"宁夏回族自治区吴忠市利通区金银滩镇新渠小区"}},{"type":"Feature","geometry":{"type":"Point","coordinates":[106.271703,37.815511]},"properties":{"full_address":"宁夏回族自治区吴忠市利通区扁担沟镇渠口村"}},{"type":"Feature","geometry":{"type":"Point","coordinates":[106.141949,37.973474]},"properties":{"full_address":"宁夏回族自治区吴忠市利通区板桥乡洼渠村"}},{"type":"Feature","geometry":{"type":"Point","coordinates":[106.165739,37.956396]},"properties":{"full_address":"宁夏回族自治区吴忠市利通区板桥乡观湖名邸小区"}},{"type":"Feature","geometry":{"type":"Point","coordinates":[106.186435,37.993872]},"properties":{"full_address":"宁夏回族自治区吴忠市利通区古城镇滨河新村"}},{"type":"Feature","geometry":{"type":"Point","coordinates":[106.162058,38.000363]},"properties":{"full_address":"宁夏回族自治区吴忠市利通区古城镇恒大名都"}},{"type":"Feature","geometry":{"type":"Point","coordinates":[106.188024,37.989808]},"properties":{"full_address":"宁夏回族自治区吴忠市利通区金星镇状元府"}},{"type":"Feature","geometry":{"type":"Point","coordinates":[106.202301,37.981412]},"properties":{"full_address":"宁夏回族自治区吴忠市利通区胜利镇朝阳小区"}},{"type":"Feature","geometry":{"type":"Point","coordinates":[106.28888,37.483812]},"properties":{"full_address":"宁夏回族自治区吴忠市红寺堡区柳泉乡豹子滩村"}},{"type":"Feature","geometry":{"type":"Point","coordinates":[106.166878,37.263361]},"properties":{"full_address":"宁夏回族自治区吴忠市红寺堡区新庄集乡洪沟滩村"}},{"type":"Feature","geometry":{"type":"Point","coordinates":[105.401655,37.470609]},"properties":{"full_address":"宁夏回族自治区中卫市沙坡头区宣和镇羚羊村"}},{"type":"Feature","geometry":{"type":"Point","coordinates":[105.449046,37.421036]},"properties":{"full_address":"宁夏回族自治区中卫市沙坡头区宣和镇丹阳村"}},{"type":"Feature","geometry":{"type":"Point","coordinates":[105.386071,37.418673]},"properties":{"full_address":"宁夏回族自治区中卫市沙坡头区宣和镇兴海村"}},{"type":"Feature","geometry":{"type":"Point","coordinates":[105.52243,37.488342]},"properties":{"full_address":"宁夏回族自治区中卫市沙坡头区宣和镇马滩村"}},{"type":"Feature","geometry":{"type":"Point","coordinates":[105.223598,37.496436]},"properties":{"full_address":"宁夏回族自治区中卫市沙坡头区文昌镇御景华府"}},{"type":"Feature","geometry":{"type":"Point","coordinates":[105.174094,37.511627]},"properties":{"full_address":"宁夏回族自治区中卫市沙坡头区滨河镇三合家园"}},{"type":"Feature","geometry":{"type":"Point","coordinates":[105.601733,37.487525]},"properties":{"full_address":"宁夏回族自治区中卫市中宁县舟塔乡孔滩村"}},{"type":"Feature","geometry":{"type":"Point","coordinates":[105.6781,37.482849]},"properties":{"full_address":"宁夏回族自治区中卫市中宁县宁安镇绿苑小区"}},{"type":"Feature","geometry":{"type":"Point","coordinates":[105.638481,37.504123]},"properties":{"full_address":"宁夏回族自治区中卫市中宁县舟塔乡康滩村"}},{"type":"Feature","geometry":{"type":"Point","coordinates":[105.615331,37.502107]},"properties":{"full_address":"宁夏回族自治区中卫市中宁县舟塔乡田滩村"}},{"type":"Feature","geometry":{"type":"Point","coordinates":[105.808936,37.51293]},"properties":{"full_address":"宁夏回族自治区中卫市中宁县恩和镇朱台村"}},{"type":"Feature","geometry":{"type":"Point","coordinates":[105.824181,37.524472]},"properties":{"full_address":"宁夏回族自治区中卫市中宁县恩和镇曹桥村"}},{"type":"Feature","geometry":{"type":"Point","coordinates":[105.804797,37.602389]},"properties":{"full_address":"宁夏回族自治区中卫市中宁县石空镇高山寺村"}},{"type":"Feature","geometry":{"type":"Point","coordinates":[105.667861,37.488796]},"properties":{"full_address":"宁夏回族自治区中卫市中宁县宁安镇北街农业银行综合楼"}},{"type":"Feature","geometry":{"type":"Point","coordinates":[105.658444,37.504977]},"properties":{"full_address":"宁夏回族自治区中卫市中宁县宁安镇黄滨新居"}},{"type":"Feature","geometry":{"type":"Point","coordinates":[105.669661,37.485647]},"properties":{"full_address":"宁夏回族自治区中卫市中宁县宁安镇莫咀村"}},{"type":"Feature","geometry":{"type":"Point","coordinates":[105.66324,37.51189]},"properties":{"full_address":"宁夏回族自治区中卫市中宁县宁安镇盛世商贸有限公司"}},{"type":"Feature","geometry":{"type":"Point","coordinates":[105.672386,37.495212]},"properties":{"full_address":"宁夏回族自治区中卫市中宁县宁安镇水文小区"}},{"type":"Feature","geometry":{"type":"Point","coordinates":[105.671585,37.497886]},"properties":{"full_address":"宁夏回族自治区中卫市中宁县宁安镇永寿堂快捷宾馆"}},{"type":"Feature","geometry":{"type":"Point","coordinates":[105.681944,37.436034]},"properties":{"full_address":"宁夏回族自治区中卫市中宁县新堡镇宁新工业园区"}},{"type":"Feature","geometry":{"type":"Point","coordinates":[105.721702,37.482959]},"properties":{"full_address":"宁夏回族自治区中卫市中宁县新堡镇毛营村"}},{"type":"Feature","geometry":{"type":"Point","coordinates":[105.541164,37.422727]},"properties":{"full_address":"宁夏回族自治区中卫市中宁县大战场镇大战场村"}},{"type":"Feature","geometry":{"type":"Point","coordinates":[105.624203,37.33028]},"properties":{"full_address":"宁夏回族自治区中卫市中宁县大战场镇宽口井村"}},{"type":"Feature","geometry":{"type":"Point","coordinates":[105.681297,37.487522]},"properties":{"full_address":"宁夏回族自治区中卫市中宁县宁安镇育才南苑"}},{"type":"Feature","geometry":{"type":"Point","coordinates":[105.668164,37.510277]},"properties":{"full_address":"宁夏回族自治区中卫市中宁县中瀛御景A区"}},{"type":"Feature","geometry":{"type":"Point","coordinates":[105.553785,37.386658]},"properties":{"full_address":"宁夏回族自治区中卫市中宁县大战场镇元丰村"}},{"type":"Feature","geometry":{"type":"Point","coordinates":[105.705118,37.562355]},"properties":{"full_address":"宁夏回族自治区中卫市中宁县石空镇新桥村"}},{"type":"Feature","geometry":{"type":"Point","coordinates":[105.69272,37.49068]},"properties":{"full_address":"宁夏回族自治区中卫市中宁县宁安镇红宝花园"}},{"type":"Feature","geometry":{"type":"Point","coordinates":[105.676551,37.485401]},"properties":{"full_address":"宁夏回族自治区中卫市中宁县宁安镇开元新居"}},{"type":"Feature","geometry":{"type":"Point","coordinates":[105.608169,37.352365]},"properties":{"full_address":"宁夏回族自治区中卫市中宁县大战场镇长山头村"}},{"type":"Feature","geometry":{"type":"Point","coordinates":[105.669661,37.485647]},"properties":{"full_address":"宁夏回族自治区中卫市中宁县宁安镇天仁六区"}},{"type":"Feature","geometry":{"type":"Point","coordinates":[105.673973,37.491611]},"properties":{"full_address":"宁夏回族自治区中卫市中宁县中医院"}},{"type":"Feature","geometry":{"type":"Point","coordinates":[105.68675,37.480698]},"properties":{"full_address":"宁夏回族自治区中卫市中宁县新堡镇世芳豪庭"}},{"type":"Feature","geometry":{"type":"Point","coordinates":[105.690388,37.474277]},"properties":{"full_address":"宁夏回族自治区中卫市中宁县新堡镇大唐金宸"}},{"type":"Feature","geometry":{"type":"Point","coordinates":[105.669661,37.485647]},"properties":{"full_address":"宁夏回族自治区中卫市中宁县宁安镇杞韵社区（1-201）"}},{"type":"Feature","geometry":{"type":"Point","coordinates":[105.682677,37.512004]},"properties":{"full_address":"宁夏回族自治区中卫市中宁县司法局"}},{"type":"Feature","geometry":{"type":"Point","coordinates":[106.164649,36.573119]},"properties":{"full_address":"宁夏回族自治区中卫市海原县七营镇高崖村"}},{"type":"Feature","geometry":{"type":"Point","coordinates":[106.143727,36.473404]},"properties":{"full_address":"宁夏回族自治区中卫市海原县七营镇马莲村"}},{"type":"Feature","geometry":{"type":"Point","coordinates":[105.642584,36.564447]},"properties":{"full_address":"宁夏回族自治区中卫市海原县三河镇大转盘小区"}},{"type":"Feature","geometry":{"type":"Point","coordinates":[106.072896,36.364814]},"properties":{"full_address":"宁夏回族自治区中卫市海原县三河镇宁夏义福茂工贸有限公司"}},{"type":"Feature","geometry":{"type":"Point","coordinates":[87.647385,43.763741]},"properties":{"full_address":"新疆维吾尔自治区乌鲁木齐市天山区延安路街道西域轻工社区"}},{"type":"Feature","geometry":{"type":"Point","coordinates":[87.613959,43.779373]},"properties":{"full_address":"新疆维吾尔自治区乌鲁木齐市天山区二道桥街道福寿巷社区除民政厅家属院、经贸厅家属院其他区域"}},{"type":"Feature","geometry":{"type":"Point","coordinates":[87.650056,43.763139]},"properties":{"full_address":"新疆维吾尔自治区乌鲁木齐市天山区红雁街道东大梁社区东大梁和顺三期C区、D区"}},{"type":"Feature","geometry":{"type":"Point","coordinates":[87.627979,43.778191]},"properties":{"full_address":"新疆维吾尔自治区乌鲁木齐市天山区团结路街道后泉路社区后泉路170号家属院"}},{"type":"Feature","geometry":{"type":"Point","coordinates":[87.631479,43.771346]},"properties":{"full_address":"新疆维吾尔自治区乌鲁木齐市天山区南湾街街道波斯坦巷社区波斯坦巷145号波斯坦小区"}},{"type":"Feature","geometry":{"type":"Point","coordinates":[87.61941,43.77687]},"properties":{"full_address":"新疆维吾尔自治区乌鲁木齐市天山区团结路街道团结社区团结路410号十九小家属院"}},{"type":"Feature","geometry":{"type":"Point","coordinates":[87.62019,43.788334]},"properties":{"full_address":"新疆维吾尔自治区乌鲁木齐市天山区解放南路街道建中社区建中路87号高层宝亨商务港"}},{"type":"Feature","geometry":{"type":"Point","coordinates":[87.64333,43.8106]},"properties":{"full_address":"新疆维吾尔自治区乌鲁木齐市天山区碱泉街道青年路东社区青年路北二巷2号优诗美地二期"}},{"type":"Feature","geometry":{"type":"Point","coordinates":[87.637712,43.785507]},"properties":{"full_address":"新疆维吾尔自治区乌鲁木齐市天山区和平路街道康泰社区除高风险外其他区域"}},{"type":"Feature","geometry":{"type":"Point","coordinates":[87.61895,43.78524]},"properties":{"full_address":"新疆维吾尔自治区乌鲁木齐市天山区大巴扎街道新市路南社区除高风险外其他区域"}},{"type":"Feature","geometry":{"type":"Point","coordinates":[87.624723,43.784527]},"properties":{"full_address":"新疆维吾尔自治区乌鲁木齐市天山区二道桥街道药王庙社区除高风险外其他区域"}},{"type":"Feature","geometry":{"type":"Point","coordinates":[87.621217,43.784783]},"properties":{"full_address":"新疆维吾尔自治区乌鲁木齐市天山区二道桥街道二道桥社区除高风险外其他区域"}},{"type":"Feature","geometry":{"type":"Point","coordinates":[87.610586,43.775405]},"properties":{"full_address":"新疆维吾尔自治区乌鲁木齐市天山区新华南街道团结西路社区除高风险外其他区域"}},{"type":"Feature","geometry":{"type":"Point","coordinates":[87.639319,43.773653]},"properties":{"full_address":"新疆维吾尔自治区乌鲁木齐市天山区黑甲山街道富康街社区除高风险外其他区域"}},{"type":"Feature","geometry":{"type":"Point","coordinates":[87.647426,43.763734]},"properties":{"full_address":"新疆维吾尔自治区乌鲁木齐市天山区延安路街道中湾街南社区除高风险外其他区域"}},{"type":"Feature","geometry":{"type":"Point","coordinates":[87.6127,43.772384]},"properties":{"full_address":"新疆维吾尔自治区乌鲁木齐市天山区胜利路街道河坝社区除高风险外其他区域"}},{"type":"Feature","geometry":{"type":"Point","coordinates":[87.622448,43.769352]},"properties":{"full_address":"新疆维吾尔自治区乌鲁木齐市天山区胜利路街道新东街社区除高风险外其他区域"}},{"type":"Feature","geometry":{"type":"Point","coordinates":[87.634995,43.769478]},"properties":{"full_address":"新疆维吾尔自治区乌鲁木齐市天山区南湾街街道昌乐园社区除高风险外其他区域"}},{"type":"Feature","geometry":{"type":"Point","coordinates":[87.641103,43.75232]},"properties":{"full_address":"新疆维吾尔自治区乌鲁木齐市天山区大湾街道延安东路社区除高风险外其他区域"}},{"type":"Feature","geometry":{"type":"Point","coordinates":[87.620805,43.780361]},"properties":{"full_address":"新疆维吾尔自治区乌鲁木齐市天山区二道桥街道固原巷社区除高风险外其他区域"}},{"type":"Feature","geometry":{"type":"Point","coordinates":[87.654522,43.770705]},"properties":{"full_address":"新疆维吾尔自治区乌鲁木齐市天山区延安路街道富北社区除高风险外其他区域"}},{"type":"Feature","geometry":{"type":"Point","coordinates":[87.613296,43.771345]},"properties":{"full_address":"新疆维吾尔自治区乌鲁木齐市天山区胜利路街道南梁社区除高风险外其他区域"}},{"type":"Feature","geometry":{"type":"Point","coordinates":[87.620378,43.765391]},"properties":{"full_address":"新疆维吾尔自治区乌鲁木齐市天山区胜利路街道新大社区除高风险外其他区域"}},{"type":"Feature","geometry":{"type":"Point","coordinates":[87.6326,43.774161]},"properties":{"full_address":"新疆维吾尔自治区乌鲁木齐市天山区南湾街街道南湾街北社区除高风险外其他区域"}},{"type":"Feature","geometry":{"type":"Point","coordinates":[87.618766,43.794665]},"properties":{"full_address":"新疆维吾尔自治区乌鲁木齐市天山区大小西门街道文化路社区除高风险外其他区域"}},{"type":"Feature","geometry":{"type":"Point","coordinates":[87.633706,43.79038]},"properties":{"full_address":"新疆维吾尔自治区乌鲁木齐市天山区幸福路街道幸福路社区除高风险外其他区域"}},{"type":"Feature","geometry":{"type":"Point","coordinates":[87.634501,43.790732]},"properties":{"full_address":"新疆维吾尔自治区乌鲁木齐市天山区幸福路街道百信社区"}},{"type":"Feature","geometry":{"type":"Point","coordinates":[87.643632,43.786308]},"properties":{"full_address":"新疆维吾尔自治区乌鲁木齐市天山区幸福路街道幸福集社区"}},{"type":"Feature","geometry":{"type":"Point","coordinates":[87.651828,43.813289]},"properties":{"full_address":"新疆维吾尔自治区乌鲁木齐市天山区碱泉街道红桥社区除高风险外其他区域"}},{"type":"Feature","geometry":{"type":"Point","coordinates":[87.636046,43.783241]},"properties":{"full_address":"新疆维吾尔自治区乌鲁木齐市天山区和平路街道二道湾社区除高风险外其他区域"}},{"type":"Feature","geometry":{"type":"Point","coordinates":[87.628402,43.782715]},"properties":{"full_address":"新疆维吾尔自治区乌鲁木齐市天山区黑甲山街道金银路社区除高风险外其他区域"}},{"type":"Feature","geometry":{"type":"Point","coordinates":[87.624772,43.776904]},"properties":{"full_address":"新疆维吾尔自治区乌鲁木齐市天山区团结路街道瓷厂社区除高风险外其他区域"}},{"type":"Feature","geometry":{"type":"Point","coordinates":[87.642832,43.763564]},"properties":{"full_address":"新疆维吾尔自治区乌鲁木齐市天山区延安路街道富泉街社区除高风险外其他区域"}},{"type":"Feature","geometry":{"type":"Point","coordinates":[87.634993,43.784069]},"properties":{"full_address":"新疆维吾尔自治区乌鲁木齐市天山区和平路街道新湾社区除高风险外其他区域"}},{"type":"Feature","geometry":{"type":"Point","coordinates":[87.627597,43.790084]},"properties":{"full_address":"新疆维吾尔自治区乌鲁木齐市天山区和平路街道国际城社区"}},{"type":"Feature","geometry":{"type":"Point","coordinates":[87.61907,43.789429]},"properties":{"full_address":"新疆维吾尔自治区乌鲁木齐市天山区解放南路街道育才巷社区"}},{"type":"Feature","geometry":{"type":"Point","coordinates":[87.61265,43.781389]},"properties":{"full_address":"新疆维吾尔自治区乌鲁木齐市天山区二道桥福寿巷社区"}},{"type":"Feature","geometry":{"type":"Point","coordinates":[87.629897,43.762008]},"properties":{"full_address":"新疆维吾尔自治区乌鲁木齐市天山区赛马场街道大湾南社区"}},{"type":"Feature","geometry":{"type":"Point","coordinates":[87.594788,43.771563]},"properties":{"full_address":"新疆维吾尔自治区乌鲁木齐市沙依巴克区炉院街街道炉院街社区金粮源小区"}},{"type":"Feature","geometry":{"type":"Point","coordinates":[87.601278,43.79925]},"properties":{"full_address":"新疆维吾尔自治区乌鲁木齐市沙依巴克区扬子江街道新华社区公园北街19号新华印刷厂家属院"}},{"type":"Feature","geometry":{"type":"Point","coordinates":[87.553708,43.826311]},"properties":{"full_address":"新疆维吾尔自治区乌鲁木齐市沙依巴克区平顶山街道克西路社区宜品家春秋小区"}},{"type":"Feature","geometry":{"type":"Point","coordinates":[87.57585,43.8561]},"properties":{"full_address":"新疆维吾尔自治区乌鲁木齐市新市区鲤鱼山街道野马生态园"}},{"type":"Feature","geometry":{"type":"Point","coordinates":[87.594755,43.912997]},"properties":{"full_address":"新疆维吾尔自治区乌鲁木齐市新市区正扬路街道冬融街社区"}},{"type":"Feature","geometry":{"type":"Point","coordinates":[87.592215,43.937276]},"properties":{"full_address":"新疆维吾尔自治区乌鲁木齐市新市区正扬路街道正扬社区"}},{"type":"Feature","geometry":{"type":"Point","coordinates":[87.603421,43.834497]},"properties":{"full_address":"新疆维吾尔自治区乌鲁木齐市新市区正扬路街道东站北社区"}},{"type":"Feature","geometry":{"type":"Point","coordinates":[87.589997,43.969079]},"properties":{"full_address":"新疆维吾尔自治区乌鲁木齐市新市区正扬路街道金藤社区"}},{"type":"Feature","geometry":{"type":"Point","coordinates":[87.591861,43.919315]},"properties":{"full_address":"新疆维吾尔自治区乌鲁木齐市新市区正扬路街道抚顺街社区"}},{"type":"Feature","geometry":{"type":"Point","coordinates":[87.592162,43.900988]},"properties":{"full_address":"新疆维吾尔自治区乌鲁木齐市新市区北京路以东、长春中路以西、喀什路以北、上沙河路以南区域"}},{"type":"Feature","geometry":{"type":"Point","coordinates":[87.594736,43.841307]},"properties":{"full_address":"新疆维吾尔自治区乌鲁木齐市新市区银川路街道天山花园社区天山花园小区"}},{"type":"Feature","geometry":{"type":"Point","coordinates":[87.544108,43.861021]},"properties":{"full_address":"新疆维吾尔自治区乌鲁木齐市新市区石油新村街道阿勒泰路社区天汇世纪花园小区"}},{"type":"Feature","geometry":{"type":"Point","coordinates":[87.573996,43.877442]},"properties":{"full_address":"新疆维吾尔自治区乌鲁木齐市新市区喀什东路街道京疆路社区"}},{"type":"Feature","geometry":{"type":"Point","coordinates":[87.598868,43.894143]},"properties":{"full_address":"新疆维吾尔自治区乌鲁木齐市新市区喀什东路街道铁桥社区紫煜臻城小区"}},{"type":"Feature","geometry":{"type":"Point","coordinates":[87.583921,43.878977]},"properties":{"full_address":"新疆维吾尔自治区乌鲁木齐市新市区长春中路街道锦秀社区领秀新城小区"}},{"type":"Feature","geometry":{"type":"Point","coordinates":[87.574013,43.884605]},"properties":{"full_address":"新疆维吾尔自治区乌鲁木齐市新市区长春中路街道新盛社区康城果岭小区"}},{"type":"Feature","geometry":{"type":"Point","coordinates":[87.590098,43.88359]},"properties":{"full_address":"新疆维吾尔自治区乌鲁木齐市新市区长春中路街道锦程社区"}},{"type":"Feature","geometry":{"type":"Point","coordinates":[87.58924,43.887567]},"properties":{"full_address":"新疆维吾尔自治区乌鲁木齐市新市区长春中路街道长春北路社区"}},{"type":"Feature","geometry":{"type":"Point","coordinates":[87.509602,43.966756]},"properties":{"full_address":"新疆维吾尔自治区乌鲁木齐市新市区安宁渠镇宁华社区君威景苑小区"}},{"type":"Feature","geometry":{"type":"Point","coordinates":[87.588507,43.863176]},"properties":{"full_address":"新疆维吾尔自治区乌鲁木齐市新市区八家户街道新慧社区美伦环球港小区"}},{"type":"Feature","geometry":{"type":"Point","coordinates":[87.598211,43.86359]},"properties":{"full_address":"新疆维吾尔自治区乌鲁木齐市新市区八家户街道河滩北路西社区"}},{"type":"Feature","geometry":{"type":"Point","coordinates":[87.59897,43.882818]},"properties":{"full_address":"新疆维吾尔自治区乌鲁木齐市新市区八家户街道鸿阳社区"}},{"type":"Feature","geometry":{"type":"Point","coordinates":[87.600822,43.869671]},"properties":{"full_address":"新疆维吾尔自治区乌鲁木齐市新市区八家户街道八家户社区"}},{"type":"Feature","geometry":{"type":"Point","coordinates":[87.600452,43.891155]},"properties":{"full_address":"新疆维吾尔自治区乌鲁木齐市新市区八家户街道建新社区"}},{"type":"Feature","geometry":{"type":"Point","coordinates":[87.58846,43.860791]},"properties":{"full_address":"新疆维吾尔自治区乌鲁木齐市新市区八家户街道新慧社区百商国际小区"}},{"type":"Feature","geometry":{"type":"Point","coordinates":[87.590188,43.861648]},"properties":{"full_address":"新疆维吾尔自治区乌鲁木齐市新市区八家户街道新慧社区百商太阳城小区"}},{"type":"Feature","geometry":{"type":"Point","coordinates":[87.601155,43.840283]},"properties":{"full_address":"新疆维吾尔自治区乌鲁木齐市水磨沟区振安街街道鸿园南路东社区鸿和苑小区"}},{"type":"Feature","geometry":{"type":"Point","coordinates":[87.690964,43.954196]},"properties":{"full_address":"新疆维吾尔自治区乌鲁木齐市米东区石化街道安和社区除高风险外其他区域"}},{"type":"Feature","geometry":{"type":"Point","coordinates":[89.152378,42.962281]},"properties":{"full_address":"新疆维吾尔自治区吐鲁番市高昌区新城片区克孜勒吐尔社区"}},{"type":"Feature","geometry":{"type":"Point","coordinates":[89.179647,42.956609]},"properties":{"full_address":"新疆维吾尔自治区吐鲁番市高昌区南门社区南门小区"}},{"type":"Feature","geometry":{"type":"Point","coordinates":[89.189148,42.944941]},"properties":{"full_address":"新疆维吾尔自治区吐鲁番市高昌区高昌路街道王府里小区"}},{"type":"Feature","geometry":{"type":"Point","coordinates":[86.151581,41.752032]},