{"type":"FeatureCollection","features":[{"type":"Feature","geometry":{"type":"Point","coordinates":[116.538804,39.90593]},"properties":{"full_address":"北京市朝阳区高碑店（地区）乡高碑店东区 B15 栋"}},{"type":"Feature","geometry":{"type":"Point","coordinates":[116.593771,39.924044]},"properties":{"full_address":"北京市朝阳区常营乡燕保常营家园 11 号楼"}},{"type":"Feature","geometry":{"type":"Point","coordinates":[116.299613,39.863219]},"properties":{"full_address":"北京市丰台区丰台街道东大街6号院12号楼7、8单元"}},{"type":"Feature","geometry":{"type":"Point","coordinates":[116.286662,40.011541]},"properties":{"full_address":"北京市海淀区青龙桥街道骚子营社区圆明园西路51号院1、2号楼"}},{"type":"Feature","geometry":{"type":"Point","coordinates":[116.273117,40.0463]},"properties":{"full_address":"北京市海淀区马连洼街道东北旺西路 10 号院中关村软件园二期东区 13 号楼"}},{"type":"Feature","geometry":{"type":"Point","coordinates":[116.31799,40.033772]},"properties":{"full_address":"北京市海淀区马连洼街道派掌柜驴肉火烧（软件园店）"}},{"type":"Feature","geometry":{"type":"Point","coordinates":[116.294674,40.020936]},"properties":{"full_address":"北京市海淀区马连洼街道卡姆游泳健身（七彩店）"}},{"type":"Feature","geometry":{"type":"Point","coordinates":[116.367665,40.03222]},"properties":{"full_address":"北京市海淀区上地街道乐乎青年社区（上地店）"}},{"type":"Feature","geometry":{"type":"Point","coordinates":[116.149712,40.253854]},"properties":{"full_address":"北京市昌平区南口（地区）镇北京化工大学昌平校区4号楼"}},{"type":"Feature","geometry":{"type":"Point","coordinates":[117.22264,39.061546]},"properties":{"full_address":"天津市天津市河西区梅江街梧桐公寓小区"}},{"type":"Feature","geometry":{"type":"Point","coordinates":[117.227206,39.034877]},"properties":{"full_address":"天津市天津市河西区梅江街天湖园37号楼"}},{"type":"Feature","geometry":{"type":"Point","coordinates":[117.240075,39.038403]},"properties":{"full_address":"天津市天津市河西区太湖路街秀江园一期（柏翠园）11号楼"}},{"type":"Feature","geometry":{"type":"Point","coordinates":[117.223701,39.034088]},"properties":{"full_address":"天津市天津市河西区梅江街天湾园1、5、7号楼"}},{"type":"Feature","geometry":{"type":"Point","coordinates":[117.237273,39.039843]},"properties":{"full_address":"天津市天津市河西区太湖路街爱湖里10号楼"}},{"type":"Feature","geometry":{"type":"Point","coordinates":[117.176026,39.083033]},"properties":{"full_address":"天津市天津市南开区体育中心街晨熙公寓3号楼3门"}},{"type":"Feature","geometry":{"type":"Point","coordinates":[117.17806,39.128982]},"properties":{"full_address":"天津市天津市南开区兴南街紫光苑6号楼6门"}},{"type":"Feature","geometry":{"type":"Point","coordinates":[117.151387,39.138814]},"properties":{"full_address":"天津市天津市南开区长虹街宜川北里6号楼2门"}},{"type":"Feature","geometry":{"type":"Point","coordinates":[117.130817,39.1458]},"properties":{"full_address":"天津市天津市南开区向阳路街留园里8号楼6门"}},{"type":"Feature","geometry":{"type":"Point","coordinates":[117.1613,39.144505]},"properties":{"full_address":"天津市天津市红桥区铃铛阁街南头窑大楼42-45门"}},{"type":"Feature","geometry":{"type":"Point","coordinates":[117.046217,39.057461]},"properties":{"full_address":"天津市天津市西青区张家窝镇社会山南苑小区55号楼"}},{"type":"Feature","geometry":{"type":"Point","coordinates":[117.026091,39.068493]},"properties":{"full_address":"天津市天津市西青区张家窝镇悦盛里小区13号楼"}},{"type":"Feature","geometry":{"type":"Point","coordinates":[117.2025,39.06375]},"properties":{"full_address":"天津市天津市西青区津门湖街江湾广场小区6号楼"}},{"type":"Feature","geometry":{"type":"Point","coordinates":[117.239982,39.020208]},"properties":{"full_address":"天津市天津市西青区大寺镇仁居佳园小区6号楼"}},{"type":"Feature","geometry":{"type":"Point","coordinates":[117.394891,39.00073]},"properties":{"full_address":"天津市天津市津南区咸水沽镇合安园15号楼"}},{"type":"Feature","geometry":{"type":"Point","coordinates":[117.343757,38.946914]},"properties":{"full_address":"天津市天津市津南区八里台镇海天社区观雅庭院1号楼1门"}},{"type":"Feature","geometry":{"type":"Point","coordinates":[117.359093,38.909558]},"properties":{"full_address":"天津市天津市津南区八里台镇望湖苑6号楼"}},{"type":"Feature","geometry":{"type":"Point","coordinates":[117.293742,39.015158]},"properties":{"full_address":"天津市天津市津南区双新街新景园南区20号楼"}},{"type":"Feature","geometry":{"type":"Point","coordinates":[117.290927,39.006737]},"properties":{"full_address":"天津市天津市津南区双新街欣悦佳园21号楼"}},{"type":"Feature","geometry":{"type":"Point","coordinates":[117.271641,39.032427]},"properties":{"full_address":"天津市天津市津南区双港镇富力桃园天富园12号楼"}},{"type":"Feature","geometry":{"type":"Point","coordinates":[117.27545,39.020763]},"properties":{"full_address":"天津市天津市津南区双港镇普泰花园11号楼"}},{"type":"Feature","geometry":{"type":"Point","coordinates":[117.187071,39.217571]},"properties":{"full_address":"天津市天津市北辰区普东街秋怡家园小区7号楼"}},{"type":"Feature","geometry":{"type":"Point","coordinates":[117.350625,39.246105]},"properties":{"full_address":"天津市天津市北辰区青（广）源街荣翔园小区12号楼"}},{"type":"Feature","geometry":{"type":"Point","coordinates":[114.48954,38.07937]},"properties":{"full_address":"河北省石家庄市新华区石岗街道柏林怡园6号楼"}},{"type":"Feature","geometry":{"type":"Point","coordinates":[114.494527,38.077581]},"properties":{"full_address":"河北省石家庄市新华区石岗街道石钢宿舍"}},{"type":"Feature","geometry":{"type":"Point","coordinates":[119.477596,42.582123]},"properties":{"full_address":"内蒙古自治区赤峰市松山区哈拉道口学区中学"}},{"type":"Feature","geometry":{"type":"Point","coordinates":[119.344696,42.433139]},"properties":{"full_address":"内蒙古自治区赤峰市松山区安庆镇西域宾馆"}},{"type":"Feature","geometry":{"type":"Point","coordinates":[119.65428,42.733059]},"properties":{"full_address":"内蒙古自治区赤峰市翁牛特旗乌敦套海镇强盛幼儿园"}},{"type":"Feature","geometry":{"type":"Point","coordinates":[119.653932,42.730888]},"properties":{"full_address":"内蒙古自治区赤峰市翁牛特旗乌敦套海镇红湖家园"}},{"type":"Feature","geometry":{"type":"Point","coordinates":[119.65202,42.724166]},"properties":{"full_address":"内蒙古自治区赤峰市翁牛特旗乌敦套海镇中心小学"}},{"type":"Feature","geometry":{"type":"Point","coordinates":[119.65789,42.73294]},"properties":{"full_address":"内蒙古自治区赤峰市翁牛特旗乌敦套海镇龙泉花园"}},{"type":"Feature","geometry":{"type":"Point","coordinates":[119.657082,42.731061]},"properties":{"full_address":"内蒙古自治区赤峰市翁牛特旗乌敦套海镇中学"}},{"type":"Feature","geometry":{"type":"Point","coordinates":[119.659349,42.732368]},"properties":{"full_address":"内蒙古自治区赤峰市翁牛特旗乌敦套海镇瑞海家园"}},{"type":"Feature","geometry":{"type":"Point","coordinates":[119.654878,42.730804]},"properties":{"full_address":"内蒙古自治区赤峰市翁牛特旗乌敦套海镇新城大街临街商厅"}},{"type":"Feature","geometry":{"type":"Point","coordinates":[119.654893,42.747034]},"properties":{"full_address":"内蒙古自治区赤峰市翁牛特旗乌敦套海镇新北村"}},{"type":"Feature","geometry":{"type":"Point","coordinates":[119.660583,42.73194]},"properties":{"full_address":"内蒙古自治区赤峰市翁牛特旗乌敦套海镇湖畔新苑小区"}},{"type":"Feature","geometry":{"type":"Point","coordinates":[119.655994,42.730547]},"properties":{"full_address":"内蒙古自治区赤峰市翁牛特旗乌敦套海镇御鑫家园小区"}},{"type":"Feature","geometry":{"type":"Point","coordinates":[119.017597,42.935484]},"properties":{"full_address":"内蒙古自治区赤峰市翁牛特旗乌敦套海镇滨湖一期小区"}},{"type":"Feature","geometry":{"type":"Point","coordinates":[119.659349,42.732368]},"properties":{"full_address":"内蒙古自治区赤峰市翁牛特旗乌敦套海镇供销社家属院"}},{"type":"Feature","geometry":{"type":"Point","coordinates":[119.659349,42.732368]},"properties":{"full_address":"内蒙古自治区赤峰市翁牛特旗乌敦套海镇林场家属院"}},{"type":"Feature","geometry":{"type":"Point","coordinates":[119.656467,42.730462]},"properties":{"full_address":"内蒙古自治区赤峰市翁牛特旗乌敦套海镇新城居委会道班家属院平房区"}},{"type":"Feature","geometry":{"type":"Point","coordinates":[119.645367,42.611918]},"properties":{"full_address":"内蒙古自治区赤峰市翁牛特旗乌敦套海镇太湖山村"}},{"type":"Feature","geometry":{"type":"Point","coordinates":[119.648407,42.801648]},"properties":{"full_address":"内蒙古自治区赤峰市翁牛特旗乌敦套海镇新府村"}},{"type":"Feature","geometry":{"type":"Point","coordinates":[119.584607,42.74222]},"properties":{"full_address":"内蒙古自治区赤峰市翁牛特旗乌敦套海镇五牌子村"}},{"type":"Feature","geometry":{"type":"Point","coordinates":[119.679975,42.681907]},"properties":{"full_address":"内蒙古自治区赤峰市翁牛特旗乌敦套海镇三十家子村"}},{"type":"Feature","geometry":{"type":"Point","coordinates":[119.831752,42.914444]},"properties":{"full_address":"内蒙古自治区赤峰市翁牛特旗乌敦套海镇那吉来村"}},{"type":"Feature","geometry":{"type":"Point","coordinates":[119.464949,42.68886]},"properties":{"full_address":"内蒙古自治区赤峰市翁牛特旗乌敦套海镇北井村"}},{"type":"Feature","geometry":{"type":"Point","coordinates":[119.731239,42.799793]},"properties":{"full_address":"内蒙古自治区赤峰市翁牛特旗乌敦套海镇下府村"}},{"type":"Feature","geometry":{"type":"Point","coordinates":[117.383904,49.580908]},"properties":{"full_address":"内蒙古自治区呼伦贝尔市满洲里市华凯小区"}},{"type":"Feature","geometry":{"type":"Point","coordinates":[117.461287,49.590928]},"properties":{"full_address":"内蒙古自治区呼伦贝尔市满洲里市政北小区（包括周围建筑群及附属店铺）"}},{"type":"Feature","geometry":{"type":"Point","coordinates":[117.448082,49.583089]},"properties":{"full_address":"内蒙古自治区呼伦贝尔市满洲里市南区街道站前小区及周边商铺"}},{"type":"Feature","geometry":{"type":"Point","coordinates":[117.439032,49.600389]},"properties":{"full_address":"内蒙古自治区呼伦贝尔市满洲里市宏业小区"}},{"type":"Feature","geometry":{"type":"Point","coordinates":[111.971663,43.642326]},"properties":{"full_address":"内蒙古自治区锡林郭勒盟二连浩特市桐桉君泰B区及南门街面商铺、北门街面商铺"}},{"type":"Feature","geometry":{"type":"Point","coordinates":[116.063667,43.944167]},"properties":{"full_address":"内蒙古自治区锡林郭勒盟锡林浩特市大业金河湾B区5号楼（宝力根街道办事处）"}},{"type":"Feature","geometry":{"type":"Point","coordinates":[116.076624,43.951785]},"properties":{"full_address":"内蒙古自治区锡林郭勒盟锡林浩特市幸福社区小区17号楼（杭盖街道办事处）"}},{"type":"Feature","geometry":{"type":"Point","coordinates":[116.096257,43.95817]},"properties":{"full_address":"内蒙古自治区锡林郭勒盟锡林浩特市长安丽景小区5号楼（杭盖街道办事处）"}},{"type":"Feature","geometry":{"type":"Point","coordinates":[116.100034,43.949346]},"properties":{"full_address":"内蒙古自治区锡林郭勒盟锡林浩特市玉玺小区2号楼（楚古兰街道办事处）"}},{"type":"Feature","geometry":{"type":"Point","coordinates":[116.110538,43.961215]},"properties":{"full_address":"内蒙古自治区锡林郭勒盟锡林浩特市公园首府小区15号楼（楚古兰街道办事处）"}},{"type":"Feature","geometry":{"type":"Point","coordinates":[116.10221,43.952801]},"properties":{"full_address":"内蒙古自治区锡林郭勒盟锡林浩特市双拥小区街面房富祥汽车电器电路修理店（楚古兰街道办事处）"}},{"type":"Feature","geometry":{"type":"Point","coordinates":[116.092293,43.93498]},"properties":{"full_address":"内蒙古自治区锡林郭勒盟锡林浩特市嘉誉大厦（额尔敦街道办事处）"}},{"type":"Feature","geometry":{"type":"Point","coordinates":[116.107551,43.957435]},"properties":{"full_address":"内蒙古自治区锡林郭勒盟锡林浩特市君泰国际小区（额尔敦街道办事处）"}},{"type":"Feature","geometry":{"type":"Point","coordinates":[116.094807,43.936715]},"properties":{"full_address":"内蒙古自治区锡林郭勒盟锡林浩特市都市上苑小区9号楼（额尔敦街道办事处）"}},{"type":"Feature","geometry":{"type":"Point","coordinates":[116.106308,43.932168]},"properties":{"full_address":"内蒙古自治区锡林郭勒盟锡林浩特市万泰家园1号楼（额尔敦街道办事处）"}},{"type":"Feature","geometry":{"type":"Point","coordinates":[116.104056,43.934091]},"properties":{"full_address":"内蒙古自治区锡林郭勒盟锡林浩特市理想家园小区3号楼（额尔敦街道办事处）"}},{"type":"Feature","geometry":{"type":"Point","coordinates":[116.106498,43.945991]},"properties":{"full_address":"内蒙古自治区锡林郭勒盟锡林浩特市109干休所对面思宁汽车钣金喷漆店（额尔敦街道办事处）"}},{"type":"Feature","geometry":{"type":"Point","coordinates":[116.066542,43.917292]},"properties":{"full_address":"内蒙古自治区锡林郭勒盟锡林浩特市城上城小区5号楼（巴彦查干街道办事处）"}},{"type":"Feature","geometry":{"type":"Point","coordinates":[116.053522,43.920278]},"properties":{"full_address":"内蒙古自治区锡林郭勒盟锡林浩特市方悦名都D区4号楼（巴彦查干街道办事处）"}},{"type":"Feature","geometry":{"type":"Point","coordinates":[121.656459,38.887772]},"properties":{"full_address":"辽宁省大连市中山区桃源街道山海巷（18、23、35号）"}},{"type":"Feature","geometry":{"type":"Point","coordinates":[121.665312,38.886757]},"properties":{"full_address":"辽宁省大连市中山区桃源街道桃源街126号和高尚路34号"}},{"type":"Feature","geometry":{"type":"Point","coordinates":[121.651876,38.898134]},"properties":{"full_address":"辽宁省大连市中山区葵英街道文明巷（39-42号）"}},{"type":"Feature","geometry":{"type":"Point","coordinates":[121.650735,38.886199]},"properties":{"full_address":"辽宁省大连市中山区桃源街道长利巷21号和根深巷8号"}},{"type":"Feature","geometry":{"type":"Point","coordinates":[121.642149,38.887025]},"properties":{"full_address":"辽宁省大连市西岗区八一路街道桃山社区三环街25号"}},{"type":"Feature","geometry":{"type":"Point","coordinates":[123.286507,40.225761]},"properties":{"full_address":"辽宁省鞍山市岫岩满族自治县雅河街道办事处于岭村"}},{"type":"Feature","geometry":{"type":"Point","coordinates":[123.284943,40.229902]},"properties":{"full_address":"辽宁省鞍山市岫岩满族自治县雅河街道办事处洪家堡村"}},{"type":"Feature","geometry":{"type":"Point","coordinates":[123.278177,40.286878]},"properties":{"full_address":"辽宁省鞍山市岫岩满族自治县阜昌街道办事处福润家园小区"}},{"type":"Feature","geometry":{"type":"Point","coordinates":[123.283921,40.289689]},"properties":{"full_address":"辽宁省鞍山市岫岩满族自治县阜昌街道办事处越都华庭小区"}},{"type":"Feature","geometry":{"type":"Point","coordinates":[125.351448,43.902435]},"properties":{"full_address":"吉林省长春市南关区长通街道长通家园A1栋、A3栋"}},{"type":"Feature","geometry":{"type":"Point","coordinates":[125.348634,43.839251]},"properties":{"full_address":"吉林省长春市南关区鸿城街道卫星花园17栋"}},{"type":"Feature","geometry":{"type":"Point","coordinates":[125.302081,43.793921]},"properties":{"full_address":"吉林省长春市南关区幸福乡吉森漫桦林二期9栋"}},{"type":"Feature","geometry":{"type":"Point","coordinates":[125.31385,43.962898]},"properties":{"full_address":"吉林省长春市宽城区欣园街道公园道1号76栋"}},{"type":"Feature","geometry":{"type":"Point","coordinates":[125.329456,43.926182]},"properties":{"full_address":"吉林省长春市宽城区兴业街道新星宇和顺3栋"}},{"type":"Feature","geometry":{"type":"Point","coordinates":[125.340572,43.92297]},"properties":{"full_address":"吉林省长春市宽城区兴业街道钻石礼都A11栋"}},{"type":"Feature","geometry":{"type":"Point","coordinates":[125.313313,43.912685]},"properties":{"full_address":"吉林省长春市宽城区新星宇摩登公园4栋"}},{"type":"Feature","geometry":{"type":"Point","coordinates":[125.335202,43.933661]},"properties":{"full_address":"吉林省长春市宽城区兴业街道中正御华庭2栋"}},{"type":"Feature","geometry":{"type":"Point","coordinates":[125.348282,43.929048]},"properties":{"full_address":"吉林省长春市宽城区兴业街道东安白金首府洋房11栋"}},{"type":"Feature","geometry":{"type":"Point","coordinates":[125.299789,43.944239]},"properties":{"full_address":"吉林省长春市宽城区柳影街道新月市场楼B2栋"}},{"type":"Feature","geometry":{"type":"Point","coordinates":[125.320936,43.863199]},"properties":{"full_address":"吉林省长春市朝阳区桂林街道自由胡同师大二教宿舍12栋"}},{"type":"Feature","geometry":{"type":"Point","coordinates":[125.29904,43.884864]},"properties":{"full_address":"吉林省长春市朝阳区清和街道安达小区6栋"}},{"type":"Feature","geometry":{"type":"Point","coordinates":[125.316976,43.893304]},"properties":{"full_address":"吉林省长春市朝阳区北安路北安嘉园楼"}},{"type":"Feature","geometry":{"type":"Point","coordinates":[125.287402,43.857932]},"properties":{"full_address":"吉林省长春市朝阳区一品红城9栋"}},{"type":"Feature","geometry":{"type":"Point","coordinates":[125.271197,43.855239]},"properties":{"full_address":"吉林省长春市朝阳区湖西街道领秀朝阳上院23栋"}},{"type":"Feature","geometry":{"type":"Point","coordinates":[125.487103,43.871647]},"properties":{"full_address":"吉林省长春市二道区长春市传染病医院B栋"}},{"type":"Feature","geometry":{"type":"Point","coordinates":[125.51437,43.878681]},"properties":{"full_address":"吉林省长春市二道区英俊镇4委5组"}},{"type":"Feature","geometry":{"type":"Point","coordinates":[125.378681,43.881804]},"properties":{"full_address":"吉林省长春市二道区东盛街道亚泰花园桃花苑C栋"}},{"type":"Feature","geometry":{"type":"Point","coordinates":[125.291531,43.912359]},"properties":{"full_address":"吉林省长春市绿园区青年街道青年路1473号26号楼"}},{"type":"Feature","geometry":{"type":"Point","coordinates":[125.287139,43.88533]},"properties":{"full_address":"吉林省长春市绿园区普阳街道龙城御苑13栋"}},{"type":"Feature","geometry":{"type":"Point","coordinates":[125.26867,43.883778]},"properties":{"full_address":"吉林省长春市绿园区春城街道景阳大路御景名家A区8栋"}},{"type":"Feature","geometry":{"type":"Point","coordinates":[125.289797,43.888579]},"properties":{"full_address":"吉林省长春市绿园区普阳街道朝阳小区5区5栋"}},{"type":"Feature","geometry":{"type":"Point","coordinates":[125.303524,43.918224]},"properties":{"full_address":"吉林省长春市绿园区青年路街道风华新苑小区3号楼"}},{"type":"Feature","geometry":{"type":"Point","coordinates":[125.655528,43.511944]},"properties":{"full_address":"吉林省长春市双阳区云山街道阳光安居小区3栋"}},{"type":"Feature","geometry":{"type":"Point","coordinates":[125.654929,43.512107]},"properties":{"full_address":"吉林省长春市双阳区云山街道阳光安居小区1、2栋"}},{"type":"Feature","geometry":{"type":"Point","coordinates":[125.208786,43.85444]},"properties":{"full_address":"吉林省长春市汽车经济技术开发区49街区19栋"}},{"type":"Feature","geometry":{"type":"Point","coordinates":[125.407876,43.875386]},"properties":{"full_address":"吉林省长春市经开区东方广场街道洋浦壹号一期1栋"}},{"type":"Feature","geometry":{"type":"Point","coordinates":[125.421858,43.879521]},"properties":{"full_address":"吉林省长春市经开区佳泰缔景城1栋"}},{"type":"Feature","geometry":{"type":"Point","coordinates":[125.394667,43.869198]},"properties":{"full_address":"吉林省长春市经开区世纪街道化油器宿舍10栋"}},{"type":"Feature","geometry":{"type":"Point","coordinates":[125.396514,43.949577]},"properties":{"full_address":"吉林省长春市经开区兴隆山镇中海寰宇天下D区17栋"}},{"type":"Feature","geometry":{"type":"Point","coordinates":[125.419732,43.874935]},"properties":{"full_address":"吉林省长春市经开区世纪街道嘉惠红树湾5栋"}},{"type":"Feature","geometry":{"type":"Point","coordinates":[125.393737,43.868663]},"properties":{"full_address":"吉林省长春市经开区世纪街道化油器宿舍3栋"}},{"type":"Feature","geometry":{"type":"Point","coordinates":[125.431355,43.888335]},"properties":{"full_address":"吉林省长春市经开区东方广场街道聚宝家园9栋"}},{"type":"Feature","geometry":{"type":"Point","coordinates":[125.41042,43.865502]},"properties":{"full_address":"吉林省长春市经开区世纪街道西派府监控中心"}},{"type":"Feature","geometry":{"type":"Point","coordinates":[125.419502,43.982863]},"properties":{"full_address":"吉林省长春市长春新区新星宇之悦东郡37号楼"}},{"type":"Feature","geometry":{"type":"Point","coordinates":[125.236724,43.792934]},"properties":{"full_address":"吉林省长春市长春新区硅谷街道益田枫露二期13栋"}},{"type":"Feature","geometry":{"type":"Point","coordinates":[125.370151,43.866817]},"properties":{"full_address":"吉林省长春市长春新区双德街道高新区奥威5514小区23栋"}},{"type":"Feature","geometry":{"type":"Point","coordinates":[125.417216,43.897928]},"properties":{"full_address":"吉林省长春市莲花山生态旅游度假区泉眼镇幸福家园小区1栋"}},{"type":"Feature","geometry":{"type":"Point","coordinates":[126.57347,45.734943]},"properties":{"full_address":"黑龙江省哈尔滨市道里区天鹅湾赫郡小区4号楼"}},{"type":"Feature","geometry":{"type":"Point","coordinates":[126.572014,45.723361]},"properties":{"full_address":"黑龙江省哈尔滨市道里区润园翡翠城小区B2号楼"}},{"type":"Feature","geometry":{"type":"Point","coordinates":[126.571454,45.722901]},"properties":{"full_address":"黑龙江省哈尔滨市道里区润园翡翠城小区B1号楼"}},{"type":"Feature","geometry":{"type":"Point","coordinates":[126.580269,45.725978]},"properties":{"full_address":"黑龙江省哈尔滨市道里区迎宾小区103栋"}},{"type":"Feature","geometry":{"type":"Point","coordinates":[126.543306,45.724502]},"properties":{"full_address":"黑龙江省哈尔滨市道里区恒大天地人和小区G10栋"}},{"type":"Feature","geometry":{"type":"Point","coordinates":[126.562609,45.72155]},"properties":{"full_address":"黑龙江省哈尔滨市道里区新城小区102栋1-6单元、103栋6-7单元合围区域"}},{"type":"Feature","geometry":{"type":"Point","coordinates":[126.555831,45.718866]},"properties":{"full_address":"黑龙江省哈尔滨市道里区海富禧园小区1号楼"}},{"type":"Feature","geometry":{"type":"Point","coordinates":[126.588076,45.734473]},"properties":{"full_address":"黑龙江省哈尔滨市道里区乡里街140号楼"}},{"type":"Feature","geometry":{"type":"Point","coordinates":[126.580535,45.733939]},"properties":{"full_address":"黑龙江省哈尔滨市道里区美晨家园小区玫瑰园1号楼"}},{"type":"Feature","geometry":{"type":"Point","coordinates":[126.613703,45.749541]},"properties":{"full_address":"黑龙江省哈尔滨市道里区民茂街共乐小区51栋1单元"}},{"type":"Feature","geometry":{"type":"Point","coordinates":[126.534299,45.70671]},"properties":{"full_address":"黑龙江省哈尔滨市道里区群力家园小区A区4号楼"}},{"type":"Feature","geometry":{"type":"Point","coordinates":[126.590126,45.74731]},"properties":{"full_address":"黑龙江省哈尔滨市道里区锦江绿色家园小区8号楼"}},{"type":"Feature","geometry":{"type":"Point","coordinates":[126.555042,45.732234]},"properties":{"full_address":"黑龙江省哈尔滨市道里区海富第五大道小区哈林区19栋"}},{"type":"Feature","geometry":{"type":"Point","coordinates":[126.629148,45.728926]},"properties":{"full_address":"黑龙江省哈尔滨市南岗区北鸿花园小区B栋、G栋、A栋、N栋与C栋合围区域住宅楼"}},{"type":"Feature","geometry":{"type":"Point","coordinates":[126.626287,45.733631]},"properties":{"full_address":"黑龙江省哈尔滨市南岗区印象城小区6栋、7栋、8栋、9栋、10栋、11栋"}},{"type":"Feature","geometry":{"type":"Point","coordinates":[126.55418,45.88782]},"properties":{"full_address":"黑龙江省哈尔滨市松北区大都会新天地二期F栋"}},{"type":"Feature","geometry":{"type":"Point","coordinates":[126.701819,45.732411]},"properties":{"full_address":"黑龙江省哈尔滨市香坊区公滨路307-1号"}},{"type":"Feature","geometry":{"type":"Point","coordinates":[126.869756,45.675006]},"properties":{"full_address":"黑龙江省哈尔滨市香坊区成高子镇民强村董家沟屯"}},{"type":"Feature","geometry":{"type":"Point","coordinates":[126.764781,45.744622]},"properties":{"full_address":"黑龙江省哈尔滨市香坊区新松茂樾山一期2号楼"}},{"type":"Feature","geometry":{"type":"Point","coordinates":[126.764781,45.744622]},"properties":{"full_address":"黑龙江省哈尔滨市香坊区新松茂樾山一期9号楼"}},{"type":"Feature","geometry":{"type":"Point","coordinates":[126.714039,45.727943]},"properties":{"full_address":"黑龙江省哈尔滨市香坊区香德街副22号"}},{"type":"Feature","geometry":{"type":"Point","coordinates":[126.713697,45.727813]},"properties":{"full_address":"黑龙江省哈尔滨市香坊区香德街蓝盾家园"}},{"type":"Feature","geometry":{"type":"Point","coordinates":[126.683635,45.722912]},"properties":{"full_address":"黑龙江省哈尔滨市香坊区珑瑞小区五街区3号楼（通站街80-1号至通站街100号）"}},{"type":"Feature","geometry":{"type":"Point","coordinates":[126.684028,45.722371]},"properties":{"full_address":"黑龙江省哈尔滨市香坊区珑瑞小区五街区4号楼（卫生街22号）"}},{"type":"Feature","geometry":{"type":"Point","coordinates":[126.7086,45.727575]},"properties":{"full_address":"黑龙江省哈尔滨市香坊区油坊街、通天街、公滨路、铁路拉滨线合围区域内果园小区，司法警官住宅1号楼、2号楼-延福街2号，银行楼-东门街46号，化工楼-东门街48号"}},{"type":"Feature","geometry":{"type":"Point","coordinates":[126.763511,45.716702]},"properties":{"full_address":"黑龙江省哈尔滨市香坊区永泰城四期"}},{"type":"Feature","geometry":{"type":"Point","coordinates":[127.287083,46.642283]},"properties":{"full_address":"黑龙江省哈尔滨市巴彦县天增镇庆胜村徐家岗屯"}},{"type":"Feature","geometry":{"type":"Point","coordinates":[127.328109,46.640634]},"properties":{"full_address":"黑龙江省哈尔滨市巴彦县天增镇庆胜村半步道屯"}},{"type":"Feature","geometry":{"type":"Point","coordinates":[125.01132,46.584006]},"properties":{"full_address":"黑龙江省大庆市萨尔图区萨尔图街道萨环东路九龙达汽配城小区"}},{"type":"Feature","geometry":{"type":"Point","coordinates":[125.003171,46.577707]},"properties":{"full_address":"黑龙江省大庆市萨尔图区萨尔图街道萨环东路以南、勤奋南路以西、南一路以北、萨大北路以东建材市场、陶瓷大市场、石材市场所属区域"}},{"type":"Feature","geometry":{"type":"Point","coordinates":[125.127805,46.620281]},"properties":{"full_address":"黑龙江省大庆市萨尔图区格林街道东风新村格林小镇小区二期B12号楼"}},{"type":"Feature","geometry":{"type":"Point","coordinates":[125.127805,46.620281]},"properties":{"full_address":"黑龙江省大庆市萨尔图区格林街道东风新村格林小镇小区二期C12号楼"}},{"type":"Feature","geometry":{"type":"Point","coordinates":[125.118538,46.623725]},"properties":{"full_address":"黑龙江省大庆市萨尔图区东风街道东风新村唯美主邑小区C8栋楼"}},{"type":"Feature","geometry":{"type":"Point","coordinates":[125.159728,46.588764]},"properties":{"full_address":"黑龙江省大庆市萨尔图区高新区黎明街道富民街九区批发大市场"}},{"type":"Feature","geometry":{"type":"Point","coordinates":[125.106441,46.596359]},"properties":{"full_address":"黑龙江省大庆市萨尔图区东风街道东风新村新星小区A组团（一区）1-14号楼"}},{"type":"Feature","geometry":{"type":"Point","coordinates":[125.111517,46.601413]},"properties":{"full_address":"黑龙江省大庆市萨尔图区东风街道东风新村新源小区A组团（二区）2-34号楼"}},{"type":"Feature","geometry":{"type":"Point","coordinates":[125.127805,46.620281]},"properties":{"full_address":"黑龙江省大庆市萨尔图区格林街道格林小镇小区二期E09号楼"}},{"type":"Feature","geometry":{"type":"Point","coordinates":[125.121996,46.610439]},"properties":{"full_address":"黑龙江省大庆市萨尔图区绿园街道绿色家园小区J04号楼"}},{"type":"Feature","geometry":{"type":"Point","coordinates":[125.126125,46.597777]},"properties":{"full_address":"黑龙江省大庆市萨尔图区东安街道塞纳花园小区2号楼"}},{"type":"Feature","geometry":{"type":"Point","coordinates":[125.120856,46.620098]},"properties":{"full_address":"黑龙江省大庆市萨尔图区格林街道香逸名苑小区三期1号楼"}},{"type":"Feature","geometry":{"type":"Point","coordinates":[125.120704,46.619658]},"properties":{"full_address":"黑龙江省大庆市萨尔图区格林街道香逸名苑小区三期2号楼"}},{"type":"Feature","geometry":{"type":"Point","coordinates":[125.122598,46.625058]},"properties":{"full_address":"黑龙江省大庆市萨尔图区格林街道唯美主邑小区三期4号楼"}},{"type":"Feature","geometry":{"type":"Point","coordinates":[125.144549,46.567611]},"properties":{"full_address":"黑龙江省大庆市萨尔图区（高新区）黎明街道兴顺路8号OYO圣豪泰宾馆"}},{"type":"Feature","geometry":{"type":"Point","coordinates":[125.162804,46.617132]},"properties":{"full_address":"黑龙江省大庆市萨尔图区（高新区）黎明街道博学大街滨州华府5号楼"}},{"type":"Feature","geometry":{"type":"Point","coordinates":[125.130553,46.575373]},"properties":{"full_address":"黑龙江省大庆市萨尔图区（高新区）黎明街道富民街湖滨花园小区（含外围商服）"}},{"type":"Feature","geometry":{"type":"Point","coordinates":[125.112562,46.602968]},"properties":{"full_address":"黑龙江省大庆市萨尔图区东风街道东风新村新源小区F组团6-15号楼"}},{"type":"Feature","geometry":{"type":"Point","coordinates":[125.122067,46.600862]},"properties":{"full_address":"黑龙江省大庆市萨尔图区东安街道东风新村东安小区B组团3-70号楼"}},{"type":"Feature","geometry":{"type":"Point","coordinates":[125.113052,46.611373]},"properties":{"full_address":"黑龙江省大庆市萨尔图区绿园街道东风新村北辰小区2-6号楼"}},{"type":"Feature","geometry":{"type":"Point","coordinates":[125.122312,46.620644]},"properties":{"full_address":"黑龙江省大庆市萨尔图区格林街道香逸名苑小区一二期6号楼"}},{"type":"Feature","geometry":{"type":"Point","coordinates":[125.126648,46.588874]},"properties":{"full_address":"黑龙江省大庆市萨尔图区东安街道庆龙小区C3号楼"}},{"type":"Feature","geometry":{"type":"Point","coordinates":[125.127805,46.620281]},"properties":{"full_address":"黑龙江省大庆市萨尔图区格林街道格林小镇小区二期A03号楼"}},{"type":"Feature","geometry":{"type":"Point","coordinates":[125.09057,46.758891]},"properties":{"full_address":"黑龙江省大庆市萨尔图区拥军街道春雷种植园一期A26到A28、B24到B26"}},{"type":"Feature","geometry":{"type":"Point","coordinates":[125.130808,46.610154]},"properties":{"full_address":"黑龙江省大庆市萨尔图区（高新区）黎明街道学伟大街沿湖城翠江湾A座"}},{"type":"Feature","geometry":{"type":"Point","coordinates":[125.138713,46.581164]},"properties":{"full_address":"黑龙江省大庆市萨尔图区（高新区）黎明街道富民街九区9-75号楼"}},{"type":"Feature","geometry":{"type":"Point","coordinates":[125.138713,46.581164]},"properties":{"full_address":"黑龙江省大庆市萨尔图区（高新区）黎明街道富民街九区9-42号楼"}},{"type":"Feature","geometry":{"type":"Point","coordinates":[125.136125,46.57825]},"properties":{"full_address":"黑龙江省大庆市萨尔图区（高新区）黎明街道富民街天贺小区10-21号楼、10-26号楼"}},{"type":"Feature","geometry":{"type":"Point","coordinates":[125.127437,46.574728]},"properties":{"full_address":"黑龙江省大庆市萨尔图区（高新区）黎明街道富民街盛景九号小区（全域）"}},{"type":"Feature","geometry":{"type":"Point","coordinates":[125.14288,46.576207]},"properties":{"full_address":"黑龙江省大庆市萨尔图区（高新区）黎明街道建设路景程小区3号楼、17号楼、24号楼"}},{"type":"Feature","geometry":{"type":"Point","coordinates":[125.123899,46.579226]},"properties":{"full_address":"黑龙江省大庆市萨尔图区（高新区）黎明街道纬二路水木华庭小区1号楼"}},{"type":"Feature","geometry":{"type":"Point","coordinates":[125.128333,46.612917]},"properties":{"full_address":"黑龙江省大庆市萨尔图区绿园街道东方玫瑰园小区2号楼"}},{"type":"Feature","geometry":{"type":"Point","coordinates":[125.121798,46.597885]},"properties":{"full_address":"黑龙江省大庆市萨尔图区东安街道东安新村三区3-37B"}},{"type":"Feature","geometry":{"type":"Point","coordinates":[124.921599,46.621901]},"properties":{"full_address":"黑龙江省大庆市萨尔图区铁人街道奔二小区3-21号楼"}},{"type":"Feature","geometry":{"type":"Point","coordinates":[125.129841,46.619911]},"properties":{"full_address":"黑龙江省大庆市萨尔图区格林街道格林小镇二期C28号楼(含外围商服)"}},{"type":"Feature","geometry":{"type":"Point","coordinates":[125.129841,46.619911]},"properties":{"full_address":"黑龙江省大庆市萨尔图区格林街道格林小镇二期E01号楼、E05号楼、E13号楼"}},{"type":"Feature","geometry":{"type":"Point","coordinates":[125.052625,46.670742]},"properties":{"full_address":"黑龙江省大庆市萨尔图区拥军街道三厂1-2罐站（绿洲社区1-21号楼后身）"}},{"type":"Feature","geometry":{"type":"Point","coordinates":[125.123648,46.623666]},"properties":{"full_address":"黑龙江省大庆市萨尔图区格林街道唯美主邑小区D04号楼、D01号楼（含外围商服）"}},{"type":"Feature","geometry":{"type":"Point","coordinates":[125.052625,46.670742]},"properties":{"full_address":"黑龙江省大庆市萨尔图区拥军街道绿洲社区1-12号楼、3-10号楼"}},{"type":"Feature","geometry":{"type":"Point","coordinates":[125.107074,46.605243]},"properties":{"full_address":"黑龙江省大庆市萨尔图区绿园街道书香名邸小区18号楼"}},{"type":"Feature","geometry":{"type":"Point","coordinates":[125.120716,46.589854]},"properties":{"full_address":"黑龙江省大庆市萨尔图区东安街道庆龙小区A1号楼"}},{"type":"Feature","geometry":{"type":"Point","coordinates":[125.102462,46.596307]},"properties":{"full_address":"黑龙江省大庆市萨尔图区东风街道新星小区F组团3号楼"}},{"type":"Feature","geometry":{"type":"Point","coordinates":[125.135233,46.57756]},"properties":{"full_address":"黑龙江省大庆市萨尔图区（高新区）黎明街道富民街天贺小区10-10号楼"}},{"type":"Feature","geometry":{"type":"Point","coordinates":[125.142339,46.577109]},"properties":{"full_address":"黑龙江省大庆市萨尔图区（高新区）黎明街道建设路景程小区2号楼、4号楼"}},{"type":"Feature","geometry":{"type":"Point","coordinates":[125.148529,46.56487]},"properties":{"full_address":"黑龙江省大庆市萨尔图区（高新区）黎明街道龙兴路乾和城A1、A3、A7、A32号楼"}},{"type":"Feature","geometry":{"type":"Point","coordinates":[125.116234,46.586742]},"properties":{"full_address":"黑龙江省大庆市萨尔图区（高新区）黎明街道纬二路悦城馨苑3号楼"}},{"type":"Feature","geometry":{"type":"Point","coordinates":[125.114643,46.596356]},"properties":{"full_address":"黑龙江省大庆市萨尔图区绿园街道兰德湖一号小区D06号楼、B06号楼、B09号楼、C02号楼、C03号楼、D12号楼"}},{"type":"Feature","geometry":{"type":"Point","coordinates":[125.124334,46.650245]},"properties":{"full_address":"黑龙江省大庆市萨尔图区火炬街道火炬小区2-1号楼"}},{"type":"Feature","geometry":{"type":"Point","coordinates":[124.921404,46.630077]},"properties":{"full_address":"黑龙江省大庆市萨尔图区铁人街道沁园春小区A栋（含外围商服）"}},{"type":"Feature","geometry":{"type":"Point","coordinates":[125.121001,46.618135]},"properties":{"full_address":"黑龙江省大庆市萨尔图区格林街道唐宁杰座小区09号楼"}},{"type":"Feature","geometry":{"type":"Point","coordinates":[125.128242,46.626964]},"properties":{"full_address":"黑龙江省大庆市萨尔图区格林街道兰德华府小区5号楼"}},{"type":"Feature","geometry":{"type":"Point","coordinates":[125.13725,46.622347]},"properties":{"full_address":"黑龙江省大庆市萨尔图区格林街道时尚印象小区5号楼"}},{"type":"Feature","geometry":{"type":"Point","coordinates":[125.12226,46.59058]},"properties":{"full_address":"黑龙江省大庆市萨尔图区东安街道庆龙小区A05号楼、A06号楼、C04号楼、4-39号楼"}},{"type":"Feature","geometry":{"type":"Point","coordinates":[125.130527,46.617381]},"properties":{"full_address":"黑龙江省大庆市萨尔图区格林街道格林小镇二期B14号楼"}},{"type":"Feature","geometry":{"type":"Point","coordinates":[125.136734,46.581642]},"properties":{"full_address":"黑龙江省大庆市萨尔图区（高新区）黎明街道富民街新华园小区（全域含周边商服）"}},{"type":"Feature","geometry":{"type":"Point","coordinates":[125.136994,46.57791]},"properties":{"full_address":"黑龙江省大庆市萨尔图区（高新区）黎明街道富民街天贺小区10-28号楼、10-33号楼"}},{"type":"Feature","geometry":{"type":"Point","coordinates":[125.138713,46.581164]},"properties":{"full_address":"黑龙江省大庆市萨尔图区（高新区）黎明街道富民街九区9-35号楼"}},{"type":"Feature","geometry":{"type":"Point","coordinates":[125.138713,46.581164]},"properties":{"full_address":"黑龙江省大庆市萨尔图区（高新区）黎明街道富民街九区9-63号楼、9-68号楼"}},{"type":"Feature","geometry":{"type":"Point","coordinates":[125.123376,46.579964]},"properties":{"full_address":"黑龙江省大庆市萨尔图区（高新区）黎明街道纬二路水木华庭小区2号楼"}},{"type":"Feature","geometry":{"type":"Point","coordinates":[125.124932,46.576763]},"properties":{"full_address":"黑龙江省大庆市萨尔图区（高新区）黎明街道东风路维也纳音乐花园南郡A03号楼"}},{"type":"Feature","geometry":{"type":"Point","coordinates":[125.157224,46.594269]},"properties":{"full_address":"黑龙江省大庆市萨尔图区（高新区）黎明街道博学大街新城御景A10号楼"}},{"type":"Feature","geometry":{"type":"Point","coordinates":[125.158813,46.596529]},"properties":{"full_address":"黑龙江省大庆市萨尔图区（高新区）黎明街道博学大街新城御景B01号楼、B13号楼"}},{"type":"Feature","geometry":{"type":"Point","coordinates":[125.145263,46.578241]},"properties":{"full_address":"黑龙江省大庆市萨尔图区（高新区）黎明街道火炬新街唯美康城11号楼"}},{"type":"Feature","geometry":{"type":"Point","coordinates":[125.138994,46.631881]},"properties":{"full_address":"黑龙江省大庆市萨尔图区（高新区）黎明街道学伟大街绿地国际城D08号楼"}},{"type":"Feature","geometry":{"type":"Point","coordinates":[125.150574,46.625882]},"properties":{"full_address":"黑龙江省大庆市萨尔图区（高新区）黎明街道滨湖路堤香花园E17号楼"}},{"type":"Feature","geometry":{"type":"Point","coordinates":[125.107146,46.607646]},"properties":{"full_address":"黑龙江省大庆市萨尔图区绿园街道北辰一区1-43号楼"}},{"type":"Feature","geometry":{"type":"Point","coordinates":[125.041354,46.602054]},"properties":{"full_address":"黑龙江省大庆市萨尔图区友谊街道团结大街西侧平房区（大庆利安汽车修理厂对面）"}},{"type":"Feature","geometry":{"type":"Point","coordinates":[125.127805,46.620281]},"properties":{"full_address":"黑龙江省大庆市萨尔图区格林街道格林小镇小区二期B04号楼、E21号楼"}},{"type":"Feature","geometry":{"type":"Point","coordinates":[125.106441,46.596359]},"properties":{"full_address":"黑龙江省大庆市萨尔图区东风街道东风新村新星小区A组团1-1号楼"}},{"type":"Feature","geometry":{"type":"Point","coordinates":[125.129299,46.615453]},"properties":{"full_address":"黑龙江省大庆市萨尔图区绿园街道东方玫瑰园小区19号楼、24号楼"}},{"type":"Feature","geometry":{"type":"Point","coordinates":[125.121102,46.606839]},"properties":{"full_address":"黑龙江省大庆市萨尔图区绿园街道绿色家园小区H02号楼"}},{"type":"Feature","geometry":{"type":"Point","coordinates":[125.10019,46.602059]},"properties":{"full_address":"黑龙江省大庆市萨尔图区东风街道东风新村新星小区E组团1-37号楼"}},{"type":"Feature","geometry":{"type":"Point","coordinates":[125.115627,46.601515]},"properties":{"full_address":"黑龙江省大庆市萨尔图区东风街道东风新村新源小区B组团2-56号楼"}},{"type":"Feature","geometry":{"type":"Point","coordinates":[125.136994,46.57791]},"properties":{"full_address":"黑龙江省大庆市萨尔图区（高新区）黎明街道富民街天贺小区10-5号楼"}},{"type":"Feature","geometry":{"type":"Point","coordinates":[125.138713,46.581164]},"properties":{"full_address":"黑龙江省大庆市萨尔图区（高新区）黎明街道富民街九区9-28号楼、9-58号楼"}},{"type":"Feature","geometry":{"type":"Point","coordinates":[125.122926,46.580964]},"properties":{"full_address":"黑龙江省大庆市萨尔图区（高新区）黎明街道纬二路水木华庭小区10号楼"}},{"type":"Feature","geometry":{"type":"Point","coordinates":[125.158158,46.612721]},"properties":{"full_address":"黑龙江省大庆市萨尔图区（高新区）黎明街道生态大街新城枫景小区D04号楼"}},{"type":"Feature","geometry":{"type":"Point","coordinates":[125.161675,46.588765]},"properties":{"full_address":"黑龙江省大庆市萨尔图区（高新区）黎明街道博学大街联想科技城小区B7号楼、C5号楼（含周边商服）"}},{"type":"Feature","geometry":{"type":"Point","coordinates":[125.14616,46.568744]},"properties":{"full_address":"黑龙江省大庆市萨尔图区（高新区）黎明街道创业新街宝利丰大厦"}},{"type":"Feature","geometry":{"type":"Point","coordinates":[125.141947,46.557775]},"properties":{"full_address":"黑龙江省大庆市萨尔图区（高新区）黎明街道阳光大街花蔓溪谷小区24号楼"}},{"type":"Feature","geometry":{"type":"Point","coordinates":[125.167203,46.591491]},"properties":{"full_address":"黑龙江省大庆市萨尔图区（高新区）黎明街道新阳路农大小区11号楼"}},{"type":"Feature","geometry":{"type":"Point","coordinates":[125.1102,46.578954]},"properties":{"full_address":"黑龙江省大庆市萨尔图区万宝街道万宝一区"}},{"type":"Feature","geometry":{"type":"Point","coordinates":[125.104112,46.57616]},"properties":{"full_address":"黑龙江省大庆市萨尔图区万宝街道万宝二区"}},{"type":"Feature","geometry":{"type":"Point","coordinates":[125.098833,46.572445]},"properties":{"full_address":"黑龙江省大庆市萨尔图区万宝街道万宝三区"}},{"type":"Feature","geometry":{"type":"Point","coordinates":[125.028297,46.600525]},"properties":{"full_address":"黑龙江省大庆市萨尔图区会战街道利民苑小区9号楼"}},{"type":"Feature","geometry":{"type":"Point","coordinates":[125.121514,46.586437]},"properties":{"full_address":"黑龙江省大庆市萨尔图区东风街道东风社区卫生服务中心"}},{"type":"Feature","geometry":{"type":"Point","coordinates":[125.124633,46.624649]},"properties":{"full_address":"黑龙江省大庆市萨尔图区格林街道唯美主邑小区D15号楼"}},{"type":"Feature","geometry":{"type":"Point","coordinates":[125.120165,46.605059]},"properties":{"full_address":"黑龙江省大庆市萨尔图区东安街道安惠小区E组团5-20号楼"}},{"type":"Feature","geometry":{"type":"Point","coordinates":[125.138713,46.581164]},"properties":{"full_address":"黑龙江省大庆市萨尔图区（高新区）黎明街道富民街九区9-12号楼"}},{"type":"Feature","geometry":{"type":"Point","coordinates":[125.145512,46.564271]},"properties":{"full_address":"黑龙江省大庆市萨尔图区（高新区）黎明街道龙兴路乾和城小区B1号楼、B2号楼"}},{"type":"Feature","geometry":{"type":"Point","coordinates":[125.122791,46.577801]},"properties":{"full_address":"黑龙江省大庆市萨尔图区（高新区）黎明街道东风路维也纳音乐花园南郡D09号楼"}},{"type":"Feature","geometry":{"type":"Point","coordinates":[125.09476,46.594248]},"properties":{"full_address":"黑龙江省大庆市萨尔图区（高新区）黎明街道新阳路丽都佳苑3号楼、4号楼"}},{"type":"Feature","geometry":{"type":"Point","coordinates":[125.159497,46.612518]},"properties":{"full_address":"黑龙江省大庆市萨尔图区（高新区）黎明街道生态大街新城枫景小区D01号楼"}},{"type":"Feature","geometry":{"type":"Point","coordinates":[125.161362,46.589081]},"properties":{"full_address":"黑龙江省大庆市萨尔图区（高新区）黎明街道博学大街联想科技城小区C2号楼（含周边商服）"}},{"type":"Feature","geometry":{"type":"Point","coordinates":[124.874717,46.702411]},"properties":{"full_address":"黑龙江省大庆市萨尔图区（高新区）黎明街道秀水路150号高端装备制造园B13号厂房（大庆博翼物流有限公司）"}},{"type":"Feature","geometry":{"type":"Point","coordinates":[125.138713,46.581164]},"properties":{"full_address":"黑龙江省大庆市萨尔图区（高新区）黎明街道禾丰路爱马仕名马基地保安亭（东经125.200402、北纬46.571384）"}},{"type":"Feature","geometry":{"type":"Point","coordinates":[125.138713,46.581164]},"properties":{"full_address":"黑龙江省大庆市萨尔图区（高新区）黎明街道新发街兴荣工业园厂房本体南半部分"}},{"type":"Feature","geometry":{"type":"Point","coordinates":[125.121194,46.614231]},"properties":{"full_address":"黑龙江省大庆市萨尔图区绿园街道兰德湖壹号小区B12号楼"}},{"type":"Feature","geometry":{"type":"Point","coordinates":[125.122203,46.620018]},"properties":{"full_address":"黑龙江省大庆市萨尔图区格林街道香逸名苑小区三期3号楼"}},{"type":"Feature","geometry":{"type":"Point","coordinates":[125.120113,46.620291]},"properties":{"full_address":"黑龙江省大庆市萨尔图区格林街道香逸名苑小区三期8号楼"}},{"type":"Feature","geometry":{"type":"Point","coordinates":[125.122312,46.620644]},"properties":{"full_address":"黑龙江省大庆市萨尔图区格林街道香逸名苑小区一二期A3号楼"}},{"type":"Feature","geometry":{"type":"Point","coordinates":[125.122312,46.620644]},"properties":{"full_address":"黑龙江省大庆市萨尔图区格林街道香逸名苑小区一二期B3号楼"}},{"type":"Feature","geometry":{"type":"Point","coordinates":[125.122312,46.620644]},"properties":{"full_address":"黑龙江省大庆市萨尔图区格林街道香逸名苑小区一二期B5号楼"}},{"type":"Feature","geometry":{"type":"Point","coordinates":[125.118789,46.624821]},"properties":{"full_address":"黑龙江省大庆市萨尔图区格林街道唯美主邑小区C13号楼"}},{"type":"Feature","geometry":{"type":"Point","coordinates":[125.127805,46.620281]},"properties":{"full_address":"黑龙江省大庆市萨尔图区格林街道格林小镇小区二期C05号楼"}},{"type":"Feature","geometry":{"type":"Point","coordinates":[125.127805,46.620281]},"properties":{"full_address":"黑龙江省大庆市萨尔图区格林街道格林小镇小区二期C25号楼"}},{"type":"Feature","geometry":{"type":"Point","coordinates":[125.102462,46.596307]},"properties":{"full_address":"黑龙江省大庆市萨尔图区东风街道纬二路优根口腔所在商服楼栋（新星小区F组团南侧）"}},{"type":"Feature","geometry":{"type":"Point","coordinates":[125.008877,46.591914]},"properties":{"full_address":"黑龙江省大庆市萨尔图区萨尔图街道一厂五矿1-1联合站工地"}},{"type":"Feature","geometry":{"type":"Point","coordinates":[125.126251,46.610971]},"properties":{"full_address":"黑龙江省大庆市萨尔图区绿园街道绿色家园小区S04号楼"}},{"type":"Feature","geometry":{"type":"Point","coordinates":[125.126251,46.610971]},"properties":{"full_address":"黑龙江省大庆市萨尔图区绿园街道绿色家园小区S03号楼"}},{"type":"Feature","geometry":{"type":"Point","coordinates":[125.118147,46.615454]},"properties":{"full_address":"黑龙江省大庆市萨尔图区绿园街道百湖花园小区A07号楼"}},{"type":"Feature","geometry":{"type":"Point","coordinates":[125.099478,46.602527]},"properties":{"full_address":"黑龙江省大庆市萨尔图区绿园街道益民小区11号楼"}},{"type":"Feature","geometry":{"type":"Point","coordinates":[125.12705,46.592927]},"properties":{"full_address":"黑龙江省大庆市萨尔图区东安街道广源步行街B5商服鑫顺祥招待所"}},{"type":"Feature","geometry":{"type":"Point","coordinates":[125.161377,46.619292]},"properties":{"full_address":"黑龙江省大庆市萨尔图区（高新区）黎明街道生态大街滨州华府小区22号楼裙房4号商服（佳鑫生鲜超市）"}},{"type":"Feature","geometry":{"type":"Point","coordinates":[125.146174,46.565945]},"properties":{"full_address":"黑龙江省大庆市萨尔图区（高新区）黎明街道创业新街满满海鲜饭店所属栋楼（乾和城小区东侧）"}},{"type":"Feature","geometry":{"type":"Point","coordinates":[125.126399,46.584934]},"properties":{"full_address":"黑龙江省大庆市萨尔图区（高新区）黎明街道建设路水岸家园1号楼"}},{"type":"Feature","geometry":{"type":"Point","coordinates":[125.147614,46.564908]},"properties":{"full_address":"黑龙江省大庆市萨尔图区（高新区）黎明街道龙兴路乾和城小区A4号楼"}},{"type":"Feature","geometry":{"type":"Point","coordinates":[125.13385,46.576608]},"properties":{"full_address":"黑龙江省大庆市萨尔图区（高新区）黎明街道纬二路龙泉小区（全域）"}},{"type":"Feature","geometry":{"type":"Point","coordinates":[125.173382,46.566905]},"properties":{"full_address":"黑龙江省大庆市萨尔图区（高新区）黎明街道阳光东街融公馆小区18号楼"}},{"type":"Feature","geometry":{"type":"Point","coordinates":[125.127309,46.52208]},"properties":{"full_address":"黑龙江省大庆市龙凤区龙凤街道湿地福苑D02 号楼"}},{"type":"Feature","geometry":{"type":"Point","coordinates":[125.126815,46.5217]},"properties":{"full_address":"黑龙江省大庆市龙凤区龙凤街道湿地福苑D03号楼"}},{"type":"Feature","geometry":{"type":"Point","coordinates":[125.122661,46.518075]},"properties":{"full_address":"黑龙江省大庆市龙凤区龙凤街道湿地福苑A10号楼"}},{"type":"Feature","geometry":{"type":"Point","coordinates":[125.162068,46.545157]},"properties":{"full_address":"黑龙江省大庆市龙凤区湿地街道欣凤学城三期C33号楼和商服92号-118号"}},{"type":"Feature","geometry":{"type":"Point","coordinates":[125.162068,46.545157]},"properties":{"full_address":"黑龙江省大庆市龙凤区湿地街道欣凤学城二期B11号楼"}},{"type":"Feature","geometry":{"type":"Point","coordinates":[125.135704,46.564934]},"properties":{"full_address":"黑龙江省大庆市龙凤区龙政街道唐人中心2号楼"}},{"type":"Feature","geometry":{"type":"Point","coordinates":[125.135756,46.565636]},"properties":{"full_address":"黑龙江省大庆市龙凤区龙政街道唐人中心10号楼"}},{"type":"Feature","geometry":{"type":"Point","coordinates":[125.053258,46.498325]},"properties":{"full_address":"黑龙江省大庆市龙凤区农批城全域"}},{"type":"Feature","geometry":{"type":"Point","coordinates":[125.147594,46.547118]},"properties":{"full_address":"黑龙江省大庆市龙凤区湿地街道汇宏悦澜湾A3号楼"}},{"type":"Feature","geometry":{"type":"Point","coordinates":[125.147594,46.547118]},"properties":{"full_address":"黑龙江省大庆市龙凤区湿地街道汇宏悦澜湾D4号楼"}},{"type":"Feature","geometry":{"type":"Point","coordinates":[125.131461,46.564047]},"properties":{"full_address":"黑龙江省大庆市龙凤区瀚城星苑2期A2号楼"}},{"type":"Feature","geometry":{"type":"Point","coordinates":[125.157377,46.537217]},"properties":{"full_address":"黑龙江省大庆市龙凤区湿地街道英伦三岛E19号楼"}},{"type":"Feature","geometry":{"type":"Point","coordinates":[125.112105,46.530118]},"properties":{"full_address":"黑龙江省大庆市龙凤区龙凤街道厂前北小区1-40号楼、1-41号楼"}},{"type":"Feature","geometry":{"type":"Point","coordinates":[125.109389,46.548944]},"properties":{"full_address":"黑龙江省大庆市龙凤区三永街道澳龙小区A02、B22、F4号楼"}},{"type":"Feature","geometry":{"type":"Point","coordinates":[125.192235,46.451402]},"properties":{"full_address":"黑龙江省大庆市龙凤区兴化街道乙烯5-19号楼"}},{"type":"Feature","geometry":{"type":"Point","coordinates":[125.162068,46.545157]},"properties":{"full_address":"黑龙江省大庆市龙凤区湿地街道欣凤学城A14、A25号楼"}},{"type":"Feature","geometry":{"type":"Point","coordinates":[125.09875,46.55562]},"properties":{"full_address":"黑龙江省大庆市龙凤区三永街道香槟小镇6号楼"}},{"type":"Feature","geometry":{"type":"Point","coordinates":[125.137439,46.565164]},"properties":{"full_address":"黑龙江省大庆市龙凤区龙政街道唐人中心12号楼"}},{"type":"Feature","geometry":{"type":"Point","coordinates":[125.030114,46.528305]},"properties":{"full_address":"黑龙江省大庆市龙凤区龙凤镇向阳村向阳大屯所属全域"}},{"type":"Feature","geometry":{"type":"Point","coordinates":[125.133459,46.558145]},"properties":{"full_address":"黑龙江省大庆市龙凤区龙政街道东城领秀D25A号楼"}},{"type":"Feature","geometry":{"type":"Point","coordinates":[125.065744,46.562218]},"properties":{"full_address":"黑龙江省大庆市龙凤区东光街道东光小区2-1号楼"}},{"type":"Feature","geometry":{"type":"Point","coordinates":[125.136182,46.564484]},"properties":{"full_address":"黑龙江省大庆市龙凤区龙政街道唐人中心5号楼"}},{"type":"Feature","geometry":{"type":"Point","coordinates":[125.138245,46.564194]},"properties":{"full_address":"黑龙江省大庆市龙凤区龙政街道唐人中心6号楼"}},{"type":"Feature","geometry":{"type":"Point","coordinates":[125.11034,46.544481]},"properties":{"full_address":"黑龙江省大庆市龙凤区三永街道澳龙小区E05号楼"}},{"type":"Feature","geometry":{"type":"Point","coordinates":[125.127084,46.520312]},"properties":{"full_address":"黑龙江省大庆市龙凤区龙凤街道湿地福苑D11号楼"}},{"type":"Feature","geometry":{"type":"Point","coordinates":[125.186564,46.433222]},"properties":{"full_address":"黑龙江省大庆市龙凤区龙凤镇建兴村于江屯全域"}},{"type":"Feature","geometry":{"type":"Point","coordinates":[125.145911,46.5227]},"properties":{"full_address":"黑龙江省大庆市龙凤区龙凤镇铁东村三屯全域"}},{"type":"Feature","geometry":{"type":"Point","coordinates":[125.113822,46.530627]},"properties":{"full_address":"黑龙江省大庆市龙凤区龙凤街道厂前小区86号楼"}},{"type":"Feature","geometry":{"type":"Point","coordinates":[125.126944,46.513354]},"properties":{"full_address":"黑龙江省大庆市龙凤区湿地街道千祥雅苑3号楼"}},{"type":"Feature","geometry":{"type":"Point","coordinates":[125.141949,46.559289]},"properties":{"full_address":"黑龙江省大庆市龙凤区龙政街道华溪龙城一期12号楼"}},{"type":"Feature","geometry":{"type":"Point","coordinates":[125.137653,46.558003]},"properties":{"full_address":"黑龙江省大庆市龙凤区龙政街道东城领秀B区33号"}},{"type":"Feature","geometry":{"type":"Point","coordinates":[125.13688,46.56477]},"properties":{"full_address":"黑龙江省大庆市龙凤区龙政街道唐人中心8号楼"}},{"type":"Feature","geometry":{"type":"Point","coordinates":[125.115785,46.575112]},"properties":{"full_address":"黑龙江省大庆市龙凤区三永街道瀚城名苑D5号楼"}},{"type":"Feature","geometry":{"type":"Point","coordinates":[125.151109,46.549273]},"properties":{"full_address":"黑龙江省大庆市龙凤区湿地街道平安家园1号楼"}},{"type":"Feature","geometry":{"type":"Point","coordinates":[125.152969,46.542564]},"properties":{"full_address":"黑龙江省大庆市龙凤区湿地街道聚福园20号楼"}},{"type":"Feature","geometry":{"type":"Point","coordinates":[125.135121,46.567071]},"properties":{"full_address":"黑龙江省大庆市龙凤区三永街道瀚城星苑二期A7号楼"}},{"type":"Feature","geometry":{"type":"Point","coordinates":[125.124047,46.546241]},"properties":{"full_address":"黑龙江省大庆市龙凤区龙政街道滨海花园24号楼"}},{"type":"Feature","geometry":{"type":"Point","coordinates":[125.135919,46.559323]},"properties":{"full_address":"黑龙江省大庆市龙凤区龙政街道东城领秀A区21号楼"}},{"type":"Feature","geometry":{"type":"Point","coordinates":[125.138346,46.5585]},"properties":{"full_address":"黑龙江省大庆市龙凤区龙政街道东城领秀B区7号楼"}},{"type":"Feature","geometry":{"type":"Point","coordinates":[125.121023,46.54538]},"properties":{"full_address":"黑龙江省大庆市龙凤区三永街道瑞安花园10号楼、7号楼"}},{"type":"Feature","geometry":{"type":"Point","coordinates":[125.133459,46.558145]},"properties":{"full_address":"黑龙江省大庆市龙凤区东城领秀百邦超市南侧壁至刘涛牛羊肉店和叫了个鸡商服之间区域"}},{"type":"Feature","geometry":{"type":"Point","coordinates":[124.878618,46.630716]},"properties":{"full_address":"黑龙江省大庆市让胡路区华北路、聚贤街、西宾路、昆仑大街合围区域"}},{"type":"Feature","geometry":{"type":"Point","coordinates":[124.893148,46.609918]},"properties":{"full_address":"黑龙江省大庆市让胡路区龙南综合批发市场CA3栋"}},{"type":"Feature","geometry":{"type":"Point","coordinates":[124.880678,46.615389]},"properties":{"full_address":"黑龙江省大庆市让胡路区远望二社区12号楼栋"}},{"type":"Feature","geometry":{"type":"Point","coordinates":[124.888586,46.578494]},"properties":{"full_address":"黑龙江省大庆市让胡路区东湖小区401栋"}},{"type":"Feature","geometry":{"type":"Point","coordinates":[124.86142,46.622419]},"properties":{"full_address":"黑龙江省大庆市让胡路区阳光嘉城B22栋"}},{"type":"Feature","geometry":{"type":"Point","coordinates":[124.888054,46.595745]},"properties":{"full_address":"黑龙江省大庆市让胡路区世纪花园B-6栋"}},{"type":"Feature","geometry":{"type":"Point","coordinates":[124.875773,46.634693]},"properties":{"full_address":"黑龙江省大庆市让胡路区阳光佳苑A10栋"}},{"type":"Feature","geometry":{"type":"Point","coordinates":[124.89475,46.57777]},"properties":{"full_address":"黑龙江省大庆市让胡路区东湖小区812栋、826栋"}},{"type":"Feature","geometry":{"type":"Point","coordinates":[124.81893,46.602038]},"properties":{"full_address":"黑龙江省大庆市让胡路区喇嘛甸镇宏伟村四屯、六屯"}},{"type":"Feature","geometry":{"type":"Point","coordinates":[124.906499,46.6071]},"properties":{"full_address":"黑龙江省大庆市让胡路区未来城小区12号楼、21号楼、26号楼、35号楼"}},{"type":"Feature","geometry":{"type":"Point","coordinates":[124.869397,46.653258]},"properties":{"full_address":"黑龙江省大庆市让胡路区奋斗七区34号楼"}},{"type":"Feature","geometry":{"type":"Point","coordinates":[124.90367,46.564335]},"properties":{"full_address":"黑龙江省大庆市让胡路区东湖九区904号楼"}},{"type":"Feature","geometry":{"type":"Point","coordinates":[124.917394,46.739235]},"properties":{"full_address":"黑龙江省大庆市让胡路区采油六厂欣欣小区9-1号楼"}},{"type":"Feature","geometry":{"type":"Point","coordinates":[124.903669,46.607174]},"properties":{"full_address":"黑龙江省大庆市让胡路区未来城小区19号楼"}},{"type":"Feature","geometry":{"type":"Point","coordinates":[124.894798,46.571456]},"properties":{"full_address":"黑龙江省大庆市让胡路区东湖小区10区35号楼"}},{"type":"Feature","geometry":{"type":"Point","coordinates":[124.888458,46.613679]},"properties":{"full_address":"黑龙江省大庆市让胡路区乐园小区11号楼"}},{"type":"Feature","geometry":{"type":"Point","coordinates":[124.873744,46.612672]},"properties":{"full_address":"黑龙江省大庆市让胡路区明湖苑小区8号楼"}},{"type":"Feature","geometry":{"type":"Point","coordinates":[124.856544,46.639275]},"properties":{"full_address":"黑龙江省大庆市让胡路区学府郦城小区A区11号楼"}},{"type":"Feature","geometry":{"type":"Point","coordinates":[124.902502,46.607168]},"properties":{"full_address":"黑龙江省大庆市让胡路区北方汽配城20栋"}},{"type":"Feature","geometry":{"type":"Point","coordinates":[124.853703,46.621259]},"properties":{"full_address":"黑龙江省大庆市让胡路区富强新城J区3号楼旁平房"}},{"type":"Feature","geometry":{"type":"Point","coordinates":[124.888462,46.619109]},"properties":{"full_address":"黑龙江省大庆市让胡路区怡园小区3-6号楼"}},{"type":"Feature","geometry":{"type":"Point","coordinates":[124.905303,46.605241]},"properties":{"full_address":"黑龙江省大庆市让胡路区未来城小区15号楼、33号楼"}},{"type":"Feature","geometry":{"type":"Point","coordinates":[124.89232,46.5742]},"properties":{"full_address":"黑龙江省大庆市让胡路区东湖祥诚商贸中心商服楼南侧世一大药房至春燕五金商店范围内包括1层、2层（范围包含南侧世一大药房、春燕五金商店）"}},{"type":"Feature","geometry":{"type":"Point","coordinates":[124.896706,46.608421]},"properties":{"full_address":"黑龙江省大庆市让胡路区北方建材装饰城20号楼"}},{"type":"Feature","geometry":{"type":"Point","coordinates":[124.881702,46.613341]},"properties":{"full_address":"黑龙江省大庆市让胡路区西宾街道远望大街72号楼栋"}},{"type":"Feature","geometry":{"type":"Point","coordinates":[125.334075,46.413871]},"properties":{"full_address":"黑龙江省绥化市安达市蓝天综贸大市场"}},{"type":"Feature","geometry":{"type":"Point","coordinates":[125.327661,46.414371]},"properties":{"full_address":"黑龙江省绥化市安达市格林嘉园小区6号楼3单元"}},{"type":"Feature","geometry":{"type":"Point","coordinates":[125.352188,46.423508]},"properties":{"full_address":"黑龙江省绥化市安达市利达综合楼4号楼13单元"}},{"type":"Feature","geometry":{"type":"Point","coordinates":[126.007627,46.262321]},"properties":{"full_address":"黑龙江省绥化市肇东市昌五镇一街1组"}},{"type":"Feature","geometry":{"type":"Point","coordinates":[125.61027,46.012542]},"properties":{"full_address":"黑龙江省绥化市肇东市昌五镇一街29组"}},{"type":"Feature","geometry":{"type":"Point","coordinates":[125.596534,46.01334]},"properties":{"full_address":"黑龙江省绥化市肇东市昌五镇二街28组"}},{"type":"Feature","geometry":{"type":"Point","coordinates":[125.59792,46.010502]},"properties":{"full_address":"黑龙江省绥化市肇东市昌五镇四街1组"}},{"type":"Feature","geometry":{"type":"Point","coordinates":[125.59829,46.011471]},"properties":{"full_address":"黑龙江省绥化市肇东市昌五镇十字街国税局西50米商服"}},{"type":"Feature","geometry":{"type":"Point","coordinates":[125.61027,46.012542]},"properties":{"full_address":"黑龙江省绥化市肇东市昌五镇鑫洪源饭店"}},{"type":"Feature","geometry":{"type":"Point","coordinates":[125.61027,46.012542]},"properties":{"full_address":"黑龙江省绥化市肇东市昌五镇验蛋厂"}},{"type":"Feature","geometry":{"type":"Point","coordinates":[125.598351,46.010557]},"properties":{"full_address":"黑龙江省绥化市肇东市昌五镇小辣妹麻辣烫"}},{"type":"Feature","geometry":{"type":"Point","coordinates":[125.61027,46.012542]},"properties":{"full_address":"黑龙江省绥化市肇东市昌五镇马记火锅"}},{"type":"Feature","geometry":{"type":"Point","coordinates":[125.61027,46.012542]},"properties":{"full_address":"黑龙江省绥化市肇东市昌五镇鑫汇鑫饭店核酸采样点"}},{"type":"Feature","geometry":{"type":"Point","coordinates":[125.530515,46.148913]},"properties":{"full_address":"黑龙江省绥化市肇东市安民乡八撮村腰八撮屯"}},{"type":"Feature","geometry":{"type":"Point","coordinates":[125.674361,46.064486]},"properties":{"full_address":"黑龙江省绥化市肇东市向阳乡曙光村大井子屯"}},{"type":"Feature","geometry":{"type":"Point","coordinates":[125.979087,46.064037]},"properties":{"full_address":"黑龙江省绥化市肇东市肇东市十五道街鸣俊烧烤店"}},{"type":"Feature","geometry":{"type":"Point","coordinates":[125.971979,46.061785]},"properties":{"full_address":"黑龙江省绥化市肇东市肇东市宏盛丽园小区4号楼3单元"}},{"type":"Feature","geometry":{"type":"Point","coordinates":[125.530515,46.148913]},"properties":{"full_address":"黑龙江省绥化市肇东市安民乡八撮村"}},{"type":"Feature","geometry":{"type":"Point","coordinates":[125.53407,46.110048]},"properties":{"full_address":"黑龙江省绥化市肇东市安民乡中通快递点和韵达快递点"}},{"type":"Feature","geometry":{"type":"Point","coordinates":[125.674361,46.064486]},"properties":{"full_address":"黑龙江省绥化市肇东市向阳乡曙光村三队"}},{"type":"Feature","geometry":{"type":"Point","coordinates":[126.116193,46.684788]},"properties":{"full_address":"黑龙江省绥化市肇东市昌五镇国涛家园小区1号楼1单元"}},{"type":"Feature","geometry":{"type":"Point","coordinates":[125.61027,46.012542]},"properties":{"full_address":"黑龙江省绥化市肇东市昌五镇马老六饭店"}},{"type":"Feature","geometry":{"type":"Point","coordinates":[125.99484,46.063321]},"properties":{"full_address":"黑龙江省绥化市肇东市巴黎花园小区7号楼1单元"}},{"type":"Feature","geometry":{"type":"Point","coordinates":[125.598235,46.010889]},"properties":{"full_address":"黑龙江省绥化市肇东市昌五镇四川麻辣烫"}},{"type":"Feature","geometry":{"type":"Point","coordinates":[125.602057,46.013059]},"properties":{"full_address":"黑龙江省绥化市肇东市昌五镇御龙湖小区2号楼2单元"}},{"type":"Feature","geometry":{"type":"Point","coordinates":[125.601192,46.011069]},"properties":{"full_address":"黑龙江省绥化市肇东市昌五镇大白楼一单元"}},{"type":"Feature","geometry":{"type":"Point","coordinates":[125.792589,45.986763]},"properties":{"full_address":"黑龙江省绥化市肇东市安民乡向阳村周德库屯"}},{"type":"Feature","geometry":{"type":"Point","coordinates":[125.49314,46.181989]},"properties":{"full_address":"黑龙江省绥化市肇东市安民乡卫生院北侧粉色平房"}},{"type":"Feature","geometry":{"type":"Point","coordinates":[125.593787,46.009953]},"properties":{"full_address":"黑龙江省绥化市肇东市昌五镇国涛家园2号楼2单元"}},{"type":"Feature","geometry":{"type":"Point","coordinates":[125.974048,46.061376]},"properties":{"full_address":"黑龙江省绥化市肇东市九道街正阳明珠购物广场米村拌饭"}},{"type":"Feature","geometry":{"type":"Point","coordinates":[125.977615,46.066623]},"properties":{"full_address":"黑龙江省绥化市肇东市尚城壹品小区B6栋2单元"}},{"type":"Feature","geometry":{"type":"Point","coordinates":[125.50175,45.998677]},"properties":{"full_address":"黑龙江省绥化市肇东市洪河乡平原村张兴国屯"}},{"type":"Feature","geometry":{"type":"Point","coordinates":[125.61027,46.012542]},"properties":{"full_address":"黑龙江省绥化市肇东市昌五镇国涛嘉园小区一号楼3单元"}},{"type":"Feature","geometry":{"type":"Point","coordinates":[125.599305,46.010698]},"properties":{"full_address":"黑龙江省绥化市肇东市昌五镇十字街东新玛特精品店"}},{"type":"Feature","geometry":{"type":"Point","coordinates":[121.458034,31.247942]},"properties":{"full_address":"上海市上海市静安区天目西路街道秣陵路83号汉庭酒店"}},{"type":"Feature","geometry":{"type":"Point","coordinates":[121.388411,31.168096]},"properties":{"full_address":"上海市上海市闵行区虹桥镇宜山路1888号瑞特国际大厦"}},{"type":"Feature","geometry":{"type":"Point","coordinates":[121.387613,31.166862]},"properties":{"full_address":"上海市上海市闵行区虹桥镇宜山路1999号10号楼字节跳动办公大楼"}},{"type":"Feature","geometry":{"type":"Point","coordinates":[121.384443,31.171983]},"properties":{"full_address":"上海市上海市闵行区虹桥镇万源路2289弄万源新城一、二期"}},{"type":"Feature","geometry":{"type":"Point","coordinates":[120.85212,31.999819]},"properties":{"full_address":"江苏省南通市崇川区虹桥东村14幢"}},{"type":"Feature","geometry":{"type":"Point","coordinates":[118.374961,32.327394]},"properties":{"full_address":"安徽省滁州市琅琊区韩上电器有限公司"}},{"type":"Feature","geometry":{"type":"Point","coordinates":[118.305843,32.29453]},"properties":{"full_address":"安徽省滁州市琅琊区港铭新材料科技公司"}},{"type":"Feature","geometry":{"type":"Point","coordinates":[118.367652,32.31793]},"properties":{"full_address":"安徽省滁州市琅琊区中州国际广场一至三层商铺"}},{"type":"Feature","geometry":{"type":"Point","coordinates":[116.807946,28.217745]},"properties":{"full_address":"江西省鹰潭市余江区工业园区新达玻璃厂"}},{"type":"Feature","geometry":{"type":"Point","coordinates":[116.815349,28.212381]},"properties":{"full_address":"江西省鹰潭市余江区邓埠街道竹溪邓家"}},{"type":"Feature","geometry":{"type":"Point","coordinates":[117.213941,28.285574]},"properties":{"full_address":"江西省鹰潭市贵溪市东门街道信江社区艾家岭小区"}},{"type":"Feature","geometry":{"type":"Point","coordinates":[117.224225,28.27878]},"properties":{"full_address":"江西省鹰潭市贵溪市东门街道木丝岭社区信江明珠小区"}},{"type":"Feature","geometry":{"type":"Point","coordinates":[117.208502,28.291214]},"properties":{"full_address":"江西省鹰潭市贵溪市东门街道雄石社区北门下李村"}},{"type":"Feature","geometry":{"type":"Point","coordinates":[117.208621,28.281783]},"properties":{"full_address":"江西省鹰潭市贵溪市雄石街道以叶家塘菜场为中心南至沿河西路西至茨孛弄路延伸到复兴路北至雄鹰大道东至信江路"}},{"type":"Feature","geometry":{"type":"Point","coordinates":[117.21236,28.281876]},"properties":{"full_address":"江西省鹰潭市贵溪市东门街道江边社区（知青宿舍、水塔底78号、泰昌大厦）"}},{"type":"Feature","geometry":{"type":"Point","coordinates":[117.208775,28.293718]},"properties":{"full_address":"江西省鹰潭市贵溪市东门街道雄石社区雄石州上组"}},{"type":"Feature","geometry":{"type":"Point","coordinates":[117.209849,28.292644]},"properties":{"full_address":"江西省鹰潭市贵溪市东门街道雄石社区新都花苑小区（1栋、5栋）"}},{"type":"Feature","geometry":{"type":"Point","coordinates":[117.224703,28.282897]},"properties":{"full_address":"江西省鹰潭市贵溪市东门街道芗溪社区电厂东区（6栋、13栋、阳光花苑G栋2单元）"}},{"type":"Feature","geometry":{"type":"Point","coordinates":[117.241632,28.318218]},"properties":{"full_address":"江西省鹰潭市贵溪市滨江镇铜都村五里台吴家"}},{"type":"Feature","geometry":{"type":"Point","coordinates":[117.211314,28.317086]},"properties":{"full_address":"江西省鹰潭市贵溪市滨江镇柏里村竹山组"}},{"type":"Feature","geometry":{"type":"Point","coordinates":[117.208775,28.293718]},"properties":{"full_address":"江西省鹰潭市贵溪市东门街道雄石社区北门付家"}},{"type":"Feature","geometry":{"type":"Point","coordinates":[117.176281,28.232689]},"properties":{"full_address":"江西省鹰潭市贵溪市罗河镇周家村周家组"}},{"type":"Feature","geometry":{"type":"Point","coordinates":[117.156232,28.162113]},"properties":{"full_address":"江西省鹰潭市贵溪市罗河镇洋塘村"}},{"type":"Feature","geometry":{"type":"Point","coordinates":[117.020574,28.2384]},"properties":{"full_address":"江西省鹰潭市贵溪市花园街道贵冶社区、铜苑社区"}},{"type":"Feature","geometry":{"type":"Point","coordinates":[117.213446,28.287754]},"properties":{"full_address":"江西省鹰潭市贵溪市东门街道信江社区汪张小区"}},{"type":"Feature","geometry":{"type":"Point","coordinates":[117.212952,28.28465]},"properties":{"full_address":"江西省鹰潭市贵溪市东门街道信江社区金童花园（1栋）"}},{"type":"Feature","geometry":{"type":"Point","coordinates":[115.155666,27.554275]},"properties":{"full_address":"江西省吉安市峡江县巴邱镇天成华府小区"}},{"type":"Feature","geometry":{"type":"Point","coordinates":[115.172341,27.572826]},"properties":{"full_address":"江西省吉安市峡江县巴邱镇黄泥岗村"}},{"type":"Feature","geometry":{"type":"Point","coordinates":[115.162716,27.563313]},"properties":{"full_address":"江西省吉安市峡江县巴邱镇学府公馆15栋"}},{"type":"Feature","geometry":{"type":"Point","coordinates":[115.062267,27.564389]},"properties":{"full_address":"江西省吉安市峡江县罗田镇神林村委岭里自然村"}},{"type":"Feature","geometry":{"type":"Point","coordinates":[115.33026,27.604067]},"properties":{"full_address":"江西省吉安市峡江县水边镇荣耀华府3栋"}},{"type":"Feature","geometry":{"type":"Point","coordinates":[114.969407,27.561651]},"properties":{"full_address":"江西省吉安市峡江县水边镇下痕村委桥头自然村"}},{"type":"Feature","geometry":{"type":"Point","coordinates":[115.304187,27.579358]},"properties":{"full_address":"江西省吉安市峡江县水边镇何君村委老六组住宅周边50米"}},{"type":"Feature","geometry":{"type":"Point","coordinates":[115.319317,27.589316]},"properties":{"full_address":"江西省吉安市峡江县水边镇幸福水库宿舍"}},{"type":"Feature","geometry":{"type":"Point","coordinates":[115.319042,27.578958]},"properties":{"full_address":"江西省吉安市峡江县水边镇大秀路40号"}},{"type":"Feature","geometry":{"type":"Point","coordinates":[115.327266,27.576073]},"properties":{"full_address":"江西省吉安市峡江县水边镇佩贝村委五江村"}},{"type":"Feature","geometry":{"type":"Point","coordinates":[115.33026,27.604067]},"properties":{"full_address":"江西省吉安市峡江县水边镇农机局宿舍"}},{"type":"Feature","geometry":{"type":"Point","coordinates":[115.31022,27.57332]},"properties":{"full_address":"江西省吉安市峡江县水边镇何君新村C栋"}},{"type":"Feature","geometry":{"type":"Point","coordinates":[115.30476,27.565322]},"properties":{"full_address":"江西省吉安市峡江县水边镇林改房B区1栋"}},{"type":"Feature","geometry":{"type":"Point","coordinates":[115.309243,27.576199]},"properties":{"full_address":"江西省吉安市峡江县水边镇玉宏壹号小区11栋"}},{"type":"Feature","geometry":{"type":"Point","coordinates":[115.323102,27.579599]},"properties":{"full_address":"江西省吉安市峡江县水边镇东信建材五金超市"}},{"type":"Feature","geometry":{"type":"Point","coordinates":[115.316312,27.585373]},"properties":{"full_address":"江西省吉安市峡江县水边镇玉府佳园5栋"}},{"type":"Feature","geometry":{"type":"Point","coordinates":[115.412687,27.535468]},"properties":{"full_address":"江西省吉安市峡江县桐林乡桐林村委直坑自然村"}},{"type":"Feature","geometry":{"type":"Point","coordinates":[115.172341,27.572826]},"properties":{"full_address":"江西省吉安市峡江县巴邱镇书香佳菀北区7栋"}},{"type":"Feature","geometry":{"type":"Point","coordinates":[115.404418,27.262735]},"properties":{"full_address":"江西省吉安市永丰县恩江镇营前村营前自然村"}},{"type":"Feature","geometry":{"type":"Point","coordinates":[115.404418,27.262735]},"properties":{"full_address":"江西省吉安市永丰县恩江镇营前村肖罗自然村"}},{"type":"Feature","geometry":{"type":"Point","coordinates":[115.420041,27.284539]},"properties":{"full_address":"江西省吉安市永丰县恩江镇岭上村雷公山自然村"}},{"type":"Feature","geometry":{"type":"Point","coordinates":[115.420041,27.284539]},"properties":{"full_address":"江西省吉安市永丰县恩江镇岭上村漕下老村自然村"}},{"type":"Feature","geometry":{"type":"Point","coordinates":[115.436774,27.325128]},"properties":{"full_address":"江西省吉安市永丰县恩江镇塘仔角龙岗南路老教育局宿舍100米范围内"}},{"type":"Feature","geometry":{"type":"Point","coordinates":[115.404819,27.309599]},"properties":{"full_address":"江西省吉安市永丰县佐龙乡塘边村塘边自然村"}},{"type":"Feature","geometry":{"type":"Point","coordinates":[120.385309,36.372936]},"properties":{"full_address":"山东省青岛市即墨区长江二路369号鼎泰丰小区"}},{"type":"Feature","geometry":{"type":"Point","coordinates":[120.405701,36.376548]},"properties":{"full_address":"山东省青岛市即墨区淮涉河一路893号梧桐巷文旅中心"}},{"type":"Feature","geometry":{"type":"Point","coordinates":[120.415299,36.374479]},"properties":{"full_address":"山东省青岛市即墨区华山一路硕辉苑小区"}},{"type":"Feature","geometry":{"type":"Point","coordinates":[120.407411,36.375838]},"properties":{"full_address":"山东省青岛市即墨区长江二路188号岘山花城小区"}},{"type":"Feature","geometry":{"type":"Point","coordinates":[120.371108,36.379055]},"properties":{"full_address":"山东省青岛市即墨区通济街道店子社区闫家岭民兴钢木制品厂"}},{"type":"Feature","geometry":{"type":"Point","coordinates":[120.443362,36.352509]},"properties":{"full_address":"山东省青岛市即墨区环秀街道办事处后东城村"}},{"type":"Feature","geometry":{"type":"Point","coordinates":[116.602168,35.398492]},"properties":{"full_address":"山东省济宁市任城区唐口街道锡龙大酒店"}},{"type":"Feature","geometry":{"type":"Point","coordinates":[116.505873,35.470004]},"properties":{"full_address":"山东省济宁市任城区南张街道前店村"}},{"type":"Feature","geometry":{"type":"Point","coordinates":[116.508341,35.46808]},"properties":{"full_address":"山东省济宁市任城区南张街道后店村"}},{"type":"Feature","geometry":{"type":"Point","coordinates":[116.542833,35.46056]},"properties":{"full_address":"山东省济宁市任城区南张街道仙庄村"}},{"type":"Feature","geometry":{"type":"Point","coordinates":[116.61616,35.394382]},"properties":{"full_address":"山东省济宁市任城区观音阁街道东南华城宏河美地"}},{"type":"Feature","geometry":{"type":"Point","coordinates":[116.506736,35.459016]},"properties":{"full_address":"山东省济宁市任城区南张街道南白村"}},{"type":"Feature","geometry":{"type":"Point","coordinates":[116.511505,35.427781]},"properties":{"full_address":"山东省济宁市任城区南张街道李庙村"}},{"type":"Feature","geometry":{"type":"Point","coordinates":[116.496654,35.316338]},"properties":{"full_address":"山东省济宁市任城区唐口街道唐口村"}},{"type":"Feature","geometry":{"type":"Point","coordinates":[116.481822,35.336618]},"properties":{"full_address":"山东省济宁市任城区唐口街道朱庙村"}},{"type":"Feature","geometry":{"type":"Point","coordinates":[116.462905,35.299092]},"properties":{"full_address":"山东省济宁市任城区唐口街道前王堂村"}},{"type":"Feature","geometry":{"type":"Point","coordinates":[116.559052,35.346372]},"properties":{"full_address":"山东省济宁市任城区安居街道孙井村"}},{"type":"Feature","geometry":{"type":"Point","coordinates":[116.592434,35.413132]},"properties":{"full_address":"山东省济宁市任城区阜桥街道办事处中区建委宿舍"}},{"type":"Feature","geometry":{"type":"Point","coordinates":[116.592758,35.395515]},"properties":{"full_address":"山东省济宁市任城区阜桥街道办事处土门子街2号楼"}},{"type":"Feature","geometry":{"type":"Point","coordinates":[116.595062,35.411911]},"properties":{"full_address":"山东省济宁市任城区阜桥街道办事处核桃园小区23号楼"}},{"type":"Feature","geometry":{"type":"Point","coordinates":[116.633169,35.446641]},"properties":{"full_address":"山东省济宁市任城区李营街道明苑小区"}},{"type":"Feature","geometry":{"type":"Point","coordinates":[116.590553,35.419445]},"properties":{"full_address":"山东省济宁市任城区阜桥街道恒丰苑小区"}},{"type":"Feature","geometry":{"type":"Point","coordinates":[116.578928,35.439042]},"properties":{"full_address":"山东省济宁市任城区李营街道罗马假日小区"}},{"type":"Feature","geometry":{"type":"Point","coordinates":[116.503619,35.331355]},"properties":{"full_address":"山东省济宁市任城区唐口街道戈户村"}},{"type":"Feature","geometry":{"type":"Point","coordinates":[116.490229,35.306588]},"properties":{"full_address":"山东省济宁市任城区唐口街道唐宁居小区"}},{"type":"Feature","geometry":{"type":"Point","coordinates":[116.563658,35.20084]},"properties":{"full_address":"山东省济宁市任城区唐口街道张桥村"}},{"type":"Feature","geometry":{"type":"Point","coordinates":[116.336641,35.411715]},"properties":{"full_address":"山东省济宁市嘉祥县嘉祥街道温馨佳苑"}},{"type":"Feature","geometry":{"type":"Point","coordinates":[116.351589,35.407508]},"properties":{"full_address":"山东省济宁市嘉祥县嘉祥街道学府名都"}},{"type":"Feature","geometry":{"type":"Point","coordinates":[116.111999,35.799923]},"properties":{"full_address":"山东省济宁市梁山县水泊街道祥和小区"}},{"type":"Feature","geometry":{"type":"Point","coordinates":[116.079647,35.778461]},"properties":{"full_address":"山东省济宁市梁山县水泊街道东方现代城小区"}},{"type":"Feature","geometry":{"type":"Point","coordinates":[116.285783,35.668791]},"properties":{"full_address":"山东省济宁市梁山县韩垓镇魏堂村魏堂自然村"}},{"type":"Feature","geometry":{"type":"Point","coordinates":[116.285783,35.668791]},"properties":{"full_address":"山东省济宁市梁山县韩垓镇魏堂村乔李庄自然村"}},{"type":"Feature","geometry":{"type":"Point","coordinates":[117.013582,35.413393]},"properties":{"full_address":"山东省济宁市邹城市钢山街道颜舍国际（齐鲁时代店）"}},{"type":"Feature","geometry":{"type":"Point","coordinates":[117.014341,35.423475]},"properties":{"full_address":"山东省济宁市邹城市钢山街道鑫琦府邸小区（南区）"}},{"type":"Feature","geometry":{"type":"Point","coordinates":[116.984599,35.437756]},"properties":{"full_address":"山东省济宁市邹城市钢山街道碧桂园小区"}},{"type":"Feature","geometry":{"type":"Point","coordinates":[117.011016,35.416161]},"properties":{"full_address":"山东省济宁市邹城市钢山街道齐鲁时代花园二期1号楼"}},{"type":"Feature","geometry":{"type":"Point","coordinates":[116.607307,35.429295]},"properties":{"full_address":"山东省济宁市高新区洸河街道贵熙园小区"}},{"type":"Feature","geometry":{"type":"Point","coordinates":[116.615048,35.366453]},"properties":{"full_address":"山东省济宁市太白湖新区许庄街道京杭佳苑F区13号楼"}},{"type":"Feature","geometry":{"type":"Point","coordinates":[116.584299,35.35031]},"properties":{"full_address":"山东省济宁市太白湖新区许庄街道恒大名都小区"}},{"type":"Feature","geometry":{"type":"Point","coordinates":[112.448549,34.425602]},"properties":{"full_address":"河南省洛阳市伊川县金瑞龙城A区"}},{"type":"Feature","geometry":{"type":"Point","coordinates":[112.435963,34.425996]},"properties":{"full_address":"河南省洛阳市伊川县杜康大道北段西侧431号—483号"}},{"type":"Feature","geometry":{"type":"Point","coordinates":[114.450417,35.505392]},"properties":{"full_address":"河南省安阳市滑县王庄镇全域"}},{"type":"Feature","geometry":{"type":"Point","coordinates":[114.185859,35.890819]},"properties":{"full_address":"河南省鹤壁市山城区红旗街道办事处宏园小区"}},{"type":"Feature","geometry":{"type":"Point","coordinates":[114.201415,35.903543]},"properties":{"full_address":"河南省鹤壁市山城区长风中路街道办事处鹤煤六矿"}},{"type":"Feature","geometry":{"type":"Point","coordinates":[114.187377,35.890656]},"properties":{"full_address":"河南省鹤壁市山城区长风中路街道老字号老温砂锅烧烤"}},{"type":"Feature","geometry":{"type":"Point","coordinates":[114.368075,35.508099]},"properties":{"full_address":"河南省鹤壁市浚县新镇镇全域"}},{"type":"Feature","geometry":{"type":"Point","coordinates":[114.310365,30.690783]},"properties":{"full_address":"湖北省武汉市黄陂区米帛腰花粉店（汉口北刘店）"}},{"type":"Feature","geometry":{"type":"Point","coordinates":[114.129421,22.548621]},"properties":{"full_address":"广东省深圳市罗湖区东门街道湖贝新村185栋、186栋、187栋、202栋、203栋、204栋、219栋、220栋、221栋"}},{"type":"Feature","geometry":{"type":"Point","coordinates":[114.093085,22.568692]},"properties":{"full_address":"广东省深圳市罗湖区清水河街道银湖社区金景花园3-4栋"}},{"type":"Feature","geometry":{"type":"Point","coordinates":[114.107174,22.539219]},"properties":{"full_address":"广东省深圳市罗湖区桂园街道新围社区丽晶大厦南座（除1-4楼底商外）"}},{"type":"Feature","geometry":{"type":"Point","coordinates":[114.110724,22.556971]},"properties":{"full_address":"广东省深圳市罗湖区笋岗街道嘉宝田花园宝典阁、宝雅阁1层-3层裙楼（除底商外）"}},{"type":"Feature","geometry":{"type":"Point","coordinates":[114.098507,22.566469]},"properties":{"full_address":"广东省深圳市罗湖区清水河街道坭岗社区坭岗西村66-68栋、75-77栋、85-87栋围合区域"}},{"type":"Feature","geometry":{"type":"Point","coordinates":[114.133809,22.548342]},"properties":{"full_address":"广东省深圳市罗湖区黄贝街道新谊社区金城华庭9栋"}},{"type":"Feature","geometry":{"type":"Point","coordinates":[114.146365,22.544212]},"properties":{"full_address":"广东省深圳市罗湖区黄贝街道新兴社区城市东方3层-15层"}},{"type":"Feature","geometry":{"type":"Point","coordinates":[114.129732,22.571185]},"properties":{"full_address":"广东省深圳市罗湖区翠竹街道翠达社区旭飞华达园一期银座阁（除小区底商外）"}},{"type":"Feature","geometry":{"type":"Point","coordinates":[114.093017,22.568781]},"properties":{"full_address":"广东省深圳市罗湖区清水河街道银湖社区金景花园6栋（除底商外）"}},{"type":"Feature","geometry":{"type":"Point","coordinates":[114.109802,22.587588]},"properties":{"full_address":"广东省深圳市罗湖区清水河街道龙湖社区龙园山庄东区16栋4单元"}},{"type":"Feature","geometry":{"type":"Point","coordinates":[114.114233,22.544178]},"properties":{"full_address":"广东省深圳市罗湖区桂园街道人民桥社区和平广场（除底商外）"}},{"type":"Feature","geometry":{"type":"Point","coordinates":[114.105772,22.548769]},"properties":{"full_address":"广东省深圳市罗湖区桂园街道红村社区红桂一街8号大院2栋2单元"}},{"type":"Feature","geometry":{"type":"Point","coordinates":[114.1085,22.5465]},"properties":{"full_address":"广东省深圳市罗湖区桂园街道红村社区红宝路63号9栋2单元"}},{"type":"Feature","geometry":{"type":"Point","coordinates":[114.1055,22.54955]},"properties":{"full_address":"广东省深圳市罗湖区桂园街道松园社区都汇中心B栋（除B栋底商外）"}},{"type":"Feature","geometry":{"type":"Point","coordinates":[114.11972,22.544621]},"properties":{"full_address":"广东省深圳市罗湖区东门街道东门社区人民北路1006号写字楼5-6楼"}},{"type":"Feature","geometry":{"type":"Point","coordinates":[114.117737,22.538535]},"properties":{"full_address":"广东省深圳市罗湖区南湖街道罗湖桥社区友谊大厦2栋"}},{"type":"Feature","geometry":{"type":"Point","coordinates":[114.124197,22.541826]},"properties":{"full_address":"广东省深圳市罗湖区南湖街道向西社区向西村西区72号—74号围合区域"}},{"type":"Feature","geometry":{"type":"Point","coordinates":[114.095216,22.536062]},"properties":{"full_address":"广东省深圳市福田区南园街道滨江社区松岭路祠堂村第22号"}},{"type":"Feature","geometry":{"type":"Point","coordinates":[114.100035,22.536358]},"properties":{"full_address":"广东省深圳市福田区南园街道滨江社区滨江新村第35栋"}},{"type":"Feature","geometry":{"type":"Point","coordinates":[114.065614,22.561622]},"properties":{"full_address":"广东省深圳市福田区莲花街道长城盛世家园二期第3栋"}},{"type":"Feature","geometry":{"type":"Point","coordinates":[114.069515,22.523363]},"properties":{"full_address":"广东省深圳市福田区福田街道福民新村第12栋一单元"}},{"type":"Feature","geometry":{"type":"Point","coordinates":[114.085417,22.529931]},"properties":{"full_address":"广东省深圳市福田区南园街道上步码头第4栋2单元"}},{"type":"Feature","geometry":{"type":"Point","coordinates":[114.10387,22.540201]},"properties":{"full_address":"广东省深圳市福田区南园街道巴登社区红岭大厦第1栋"}},{"type":"Feature","geometry":{"type":"Point","coordinates":[114.08504,22.530973]},"properties":{"full_address":"广东省深圳市福田区南园街道赤尾社区赤尾村二坊第33栋"}},{"type":"Feature","geometry":{"type":"Point","coordinates":[114.100383,22.559789]},"properties":{"full_address":"广东省深圳市福田区园岭街道上林社区八卦岭宿舍区第11栋"}},{"type":"Feature","geometry":{"type":"Point","coordinates":[114.078464,22.539347]},"properties":{"full_address":"广东省深圳市福田区福田街道福南社区深南中路3037号南光捷佳大厦"}},{"type":"Feature","geometry":{"type":"Point","coordinates":[114.04467,22.555484]},"properties":{"full_address":"广东省深圳市福田区莲花街道布尾村第40栋"}},{"type":"Feature","geometry":{"type":"Point","coordinates":[114.052832,22.521038]},"properties":{"full_address":"广东省深圳市福田区福保街道新天世纪商务中心B座"}},{"type":"Feature","geometry":{"type":"Point","coordinates":[114.055642,22.565696]},"properties":{"full_address":"广东省深圳市福田区梅林街道上梅社区上梅林祠堂村第8号"}},{"type":"Feature","geometry":{"type":"Point","coordinates":[114.101398,22.538468]},"properties":{"full_address":"广东省深圳市福田区南园街道巴登社区巴登村第64号"}},{"type":"Feature","geometry":{"type":"Point","coordinates":[114.101372,22.537554]},"properties":{"full_address":"广东省深圳市福田区南园街道巴登社区巴登村第7栋"}},{"type":"Feature","geometry":{"type":"Point","coordinates":[114.044749,22.555484]},"properties":{"full_address":"广东省深圳市福田区莲花街道布尾村第39A、第39B、第37A、第37B、第36和第36-1栋"}},{"type":"Feature","geometry":{"type":"Point","coordinates":[113.990102,22.562548]},"properties":{"full_address":"广东省深圳市福田区福保街道新洲路3188号后勤楼"}},{"type":"Feature","geometry":{"type":"Point","coordinates":[114.100959,22.538919]},"properties":{"full_address":"广东省深圳市福田区南园街道巴登社区巴登村第99号"}},{"type":"Feature","geometry":{"type":"Point","coordinates":[114.039248,22.561945]},"properties":{"full_address":"广东省深圳市福田区梅林街道下梅林村第22号"}},{"type":"Feature","geometry":{"type":"Point","coordinates":[114.099728,22.538367]},"properties":{"full_address":"广东省深圳市福田区南园街道巴登社区埔尾新村第38号"}},{"type":"Feature","geometry":{"type":"Point","coordinates":[114.045231,22.555257]},"properties":{"full_address":"广东省深圳市福田区莲花街道布尾村第28-35栋、第38栋、第41-50栋、第51C栋"}},{"type":"Feature","geometry":{"type":"Point","coordinates":[114.09938,22.536104]},"properties":{"full_address":"广东省深圳市福田区南园街道滨江新村第38栋、第39栋连廊一楼（38号-40号房）"}},{"type":"Feature","geometry":{"type":"Point","coordinates":[114.047066,22.555257]},"properties":{"full_address":"广东省深圳市福田区莲花街道天一名居天朗阁"}},{"type":"Feature","geometry":{"type":"Point","coordinates":[114.040001,22.550997]},"properties":{"full_address":"广东省深圳市福田区莲花街道狮岭社区景达楼第1栋"}},{"type":"Feature","geometry":{"type":"Point","coordinates":[114.101275,22.537739]},"properties":{"full_address":"广东省深圳市福田区南园街道巴登社区巴登村第19栋"}},{"type":"Feature","geometry":{"type":"Point","coordinates":[114.047277,22.52237]},"properties":{"full_address":"广东省深圳市福田区沙头街道新洲南村第58-1栋、第58-2栋"}},{"type":"Feature","geometry":{"type":"Point","coordinates":[114.046966,22.555212]},"properties":{"full_address":"广东省深圳市福田区莲花街道天一名居天怡阁"}},{"type":"Feature","geometry":{"type":"Point","coordinates":[114.062955,22.527102]},"properties":{"full_address":"广东省深圳市福田区福田街道上围一村第148号-第150号"}},{"type":"Feature","geometry":{"type":"Point","coordinates":[113.997921,22.546789]},"properties":{"full_address":"广东省深圳市福田区香蜜湖街道深康村第6栋A座"}},{"type":"Feature","geometry":{"type":"Point","coordinates":[114.06494,22.524654]},"properties":{"full_address":"广东省深圳市福田区福田街道西大门坊第133-1号、第133-2号、第134号、第135号、第141号-143号、第158号-160号"}},{"type":"Feature","geometry":{"type":"Point","coordinates":[114.084251,22.533294]},"properties":{"full_address":"广东省深圳市福田区福田街道岗边坊第88号、第89号、第92号、第93号、第95号、第97号、第100-1号、第100-2号、第101-1号、第101-2号、第102号、第103号"}},{"type":"Feature","geometry":{"type":"Point","coordinates":[114.091001,22.538761]},"properties":{"full_address":"广东省深圳市福田区南园街道爱华大院第21栋"}},{"type":"Feature","geometry":{"type":"Point","coordinates":[114.082818,22.52904]},"properties":{"full_address":"广东省深圳市福田区南园街道滨河社区怡兴苑第1栋-4栋"}},{"type":"Feature","geometry":{"type":"Point","coordinates":[114.050159,22.521644]},"properties":{"full_address":"广东省深圳市福田区福保街道石厦西村第127栋"}},{"type":"Feature","geometry":{"type":"Point","coordinates":[114.091194,22.536928]},"properties":{"full_address":"广东省深圳市福田区南园街道旧墟村第2栋、第4栋、第6栋"}},{"type":"Feature","geometry":{"type":"Point","coordinates":[114.090732,22.537137]},"properties":{"full_address":"广东省深圳市福田区南园街道旧墟村第23栋-第28栋"}},{"type":"Feature","geometry":{"type":"Point","coordinates":[114.09263,22.536373]},"properties":{"full_address":"广东省深圳市福田区南园街道锦绣新居第2栋"}},{"type":"Feature","geometry":{"type":"Point","coordinates":[114.03211,22.520721]},"properties":{"full_address":"广东省深圳市福田区沙头街道上沙东村7巷第11号、8巷第12号"}},{"type":"Feature","geometry":{"type":"Point","coordinates":[114.09484,22.544118]},"properties":{"full_address":"广东省深圳市福田区华强北街道振华路21号航天立业大厦"}},{"type":"Feature","geometry":{"type":"Point","coordinates":[114.089175,22.539]},"properties":{"full_address":"广东省深圳市福田区南园街道下步庙北区第10栋、华发南路第35-1号至第35-18号"}},{"type":"Feature","geometry":{"type":"Point","coordinates":[114.088811,22.539315]},"properties":{"full_address":"广东省深圳市福田区南园街道中电大院第5栋"}},{"type":"Feature","geometry":{"type":"Point","coordinates":[114.101275,22.537739]},"properties":{"full_address":"广东省深圳市福田区南园街道巴登村第19号"}},{"type":"Feature","geometry":{"type":"Point","coordinates":[114.079278,22.53673]},"properties":{"full_address":"广东省深圳市福田区福田街道福华路103号文化楼"}},{"type":"Feature","geometry":{"type":"Point","coordinates":[114.039136,22.562816]},"properties":{"full_address":"广东省深圳市福田区梅林街道下梅社区梅林路257号宿舍B栋"}},{"type":"Feature","geometry":{"type":"Point","coordinates":[114.081734,22.537759]},"properties":{"full_address":"广东省深圳市福田区福田街道广业大厦东座、北座（福华路110-4号除外）"}},{"type":"Feature","geometry":{"type":"Point","coordinates":[114.074784,22.535348]},"properties":{"full_address":"广东省深圳市福田区福田街道福田村福新坊第60栋"}},{"type":"Feature","geometry":{"type":"Point","coordinates":[114.077722,22.531234]},"properties":{"full_address":"广东省深圳市福田区福田街道大康福盈门A单元、B单元、C单元"}},{"type":"Feature","geometry":{"type":"Point","coordinates":[114.079367,22.535501]},"properties":{"full_address":"广东省深圳市福田区福田街道西头坊第40栋、第41栋、第43栋、第47栋-第49栋，福益楼A座、B座"}},{"type":"Feature","geometry":{"type":"Point","coordinates":[114.052462,22.520464]},"properties":{"full_address":"广东省深圳市福田区福保街道石厦新村第11栋、第12栋"}},{"type":"Feature","geometry":{"type":"Point","coordinates":[114.071407,22.524691]},"properties":{"full_address":"广东省深圳市福田区福田街道车检大厦"}},{"type":"Feature","geometry":{"type":"Point","coordinates":[114.100737,22.538989]},"properties":{"full_address":"广东省深圳市福田区南园街道巴登社区巴登村第97号、第98号、第106号-第108号、第114号-第116号"}},{"type":"Feature","geometry":{"type":"Point","coordinates":[114.084,22.531]},"properties":{"full_address":"广东省深圳市福田区南园街道汇港名苑北1栋-北3栋"}},{"type":"Feature","geometry":{"type":"Point","coordinates":[114.085789,22.53359]},"properties":{"full_address":"广东省深圳市福田区南园街道赤尾社区御景华城第1栋A座"}},{"type":"Feature","geometry":{"type":"Point","coordinates":[113.92774,22.502981]},"properties":{"full_address":"广东省深圳市南山区招商街道兰园小区20栋"}},{"type":"Feature","geometry":{"type":"Point","coordinates":[113.957704,22.582687]},"properties":{"full_address":"广东省深圳市南山区西丽街道南天路2-39号"}},{"type":"Feature","geometry":{"type":"Point","coordinates":[113.89675,22.495676]},"properties":{"full_address":"广东省深圳市南山区南山街道紫园A10栋"}},{"type":"Feature","geometry":{"type":"Point","coordinates":[113.911721,22.489843]},"properties":{"full_address":"广东省深圳市南山区招商街道兰溪谷一期5栋、3A栋、3B栋"}},{"type":"Feature","geometry":{"type":"Point","coordinates":[113.931609,22.500193]},"properties":{"full_address":"广东省深圳市南山区招商街道爱榕园34栋三单元"}},{"type":"Feature","geometry":{"type":"Point","coordinates":[113.914804,22.510367]},"properties":{"full_address":"广东省深圳市南山区南山街道城市山林21单元"}},{"type":"Feature","geometry":{"type":"Point","coordinates":[113.930116,22.489767]},"properties":{"full_address":"广东省深圳市南山区蛇口街道围仔西小区四巷、五巷"}},{"type":"Feature","geometry":{"type":"Point","coordinates":[113.9694,22.691385]},"properties":{"full_address":"广东省深圳市宝安区石岩街道石龙社区汇裕名都花园1期2栋A、B座"}},{"type":"Feature","geometry":{"type":"Point","coordinates":[113.855196,22.577696]},"properties":{"full_address":"广东省深圳市宝安区西乡街道永丰社区锦明花园D2座"}},{"type":"Feature","geometry":{"type":"Point","coordinates":[113.850609,22.576054]},"properties":{"full_address":"广东省深圳市宝安区西乡街道劳动社区深圳恒生医院住宅小区4栋"}},{"type":"Feature","geometry":{"type":"Point","coordinates":[114.175845,22.635063]},"properties":{"full_address":"广东省深圳市龙岗区横岗街道六约北社区深竹小区五巷11号"}},{"type":"Feature","geometry":{"type":"Point","coordinates":[114.108507,22.612377]},"properties":{"full_address":"广东省深圳市龙岗区吉华街道翠湖社区下水径新村小区11号"}},{"type":"Feature","geometry":{"type":"Point","coordinates":[114.147314,22.605839]},"properties":{"full_address":"广东省深圳市龙岗区南湾街道南岭村社区南新小区五巷2号"}},{"type":"Feature","geometry":{"type":"Point","coordinates":[114.062152,22.612678]},"properties":{"full_address":"广东省深圳市龙岗区坂田街道南坑社区南坑北一巷5号"}},{"type":"Feature","geometry":{"type":"Point","coordinates":[114.175845,22.635063]},"properties":{"full_address":"广东省深圳市龙岗区横岗街道六约北社区深峰路1号楼，深竹小区四巷8号、9号，五巷10号，六巷10号、11号，七巷10号、11号"}},{"type":"Feature","geometry":{"type":"Point","coordinates":[114.210872,22.64476]},"properties":{"full_address":"广东省深圳市龙岗区横岗街道松柏社区松柏路138号安家兴寓园"}},{"type":"Feature","geometry":{"type":"Point","coordinates":[114.205369,22.642749]},"properties":{"full_address":"广东省深圳市龙岗区横岗街道塘坑社区六和路30号祥寓C栋"}},{"type":"Feature","geometry":{"type":"Point","coordinates":[114.067008,22.634]},"properties":{"full_address":"广东省深圳市龙岗区坂田街道坂田社区坂田第三工业区19-1栋、19-C栋"}},{"type":"Feature","geometry":{"type":"Point","coordinates":[114.273551,22.731761]},"properties":{"full_address":"广东省深圳市龙岗区龙岗街道龙岗社区福宁新一巷5号"}},{"type":"Feature","geometry":{"type":"Point","coordinates":[114.111103,22.6068]},"properties":{"full_address":"广东省深圳市龙岗区布吉街道布吉社区吉旺公寓"}},{"type":"Feature","geometry":{"type":"Point","coordinates":[114.225691,22.552615]},"properties":{"full_address":"广东省深圳市盐田区沙头角街道田心社区沙深路129号梧桐阁小区"}},{"type":"Feature","geometry":{"type":"Point","coordinates":[114.231081,22.543475]},"properties":{"full_address":"广东省深圳市盐田区沙头角边境特别管理区"}},{"type":"Feature","geometry":{"type":"Point","coordinates":[114.179359,22.565087]},"properties":{"full_address":"广东省深圳市盐田区盐田街道东海社区御景家园二期小区（含底层商铺）"}},{"type":"Feature","geometry":{"type":"Point","coordinates":[114.03878,22.621034]},"properties":{"full_address":"广东省深圳市龙华区民治街道民强社区东边新村二区第24栋"}},{"type":"Feature","geometry":{"type":"Point","coordinates":[114.035402,22.665834]},"properties":{"full_address":"广东省深圳市龙华区龙华街道和联社区富联新村二区第13栋"}},{"type":"Feature","geometry":{"type":"Point","coordinates":[114.026697,22.624867]},"properties":{"full_address":"广东省深圳市龙华区民治街道大岭社区莱蒙水榭春天6B区第2栋"}},{"type":"Feature","geometry":{"type":"Point","coordinates":[114.05298,22.600942]},"properties":{"full_address":"广东省深圳市龙华区民治街道民乐社区滢水山庄二区第2栋、第7栋"}},{"type":"Feature","geometry":{"type":"Point","coordinates":[114.031925,22.666879]},"properties":{"full_address":"广东省深圳市龙华区龙华街道和联社区富泉新村北区第49栋（清泉大厦）"}},{"type":"Feature","geometry":{"type":"Point","coordinates":[114.030323,22.67053]},"properties":{"full_address":"广东省深圳市龙华区龙华街道玉翠社区龙观东路32号"}},{"type":"Feature","geometry":{"type":"Point","coordinates":[114.035575,22.634131]},"properties":{"full_address":"广东省深圳市龙华区民治街道新牛社区牛栏前新村第18栋、23栋"}},{"type":"Feature","geometry":{"type":"Point","coordinates":[114.185665,22.645261]},"properties":{"full_address":"广东省深圳市龙华区观湖街道新田社区维也纳酒店（观澜山水田园新田店）"}},{"type":"Feature","geometry":{"type":"Point","coordinates":[113.911061,22.579295]},"properties":{"full_address":"广东省深圳市龙华区大浪街道大浪社区泥头咀村第71、72、75、76栋"}},{"type":"Feature","geometry":{"type":"Point","coordinates":[114.024891,22.669119]},"properties":{"full_address":"广东省深圳市龙华区龙华街道玉翠社区富联工业园富雅公寓第2号"}},{"type":"Feature","geometry":{"type":"Point","coordinates":[114.035723,22.665914]},"properties":{"full_address":"广东省深圳市龙华区龙华街道三联社区富联新村一区六巷第1号、3号、5号、7号、9号"}},{"type":"Feature","geometry":{"type":"Point","coordinates":[114.052856,22.59831]},"properties":{"full_address":"广东省深圳市龙华区民治街道民乐社区民乐一区第114栋、177至180栋、商住楼第9栋"}},{"type":"Feature","geometry":{"type":"Point","coordinates":[114.070018,22.718519]},"properties":{"full_address":"广东省深圳市龙华区观湖街道新田社区亿兴达工业园宿舍楼"}},{"type":"Feature","geometry":{"type":"Point","coordinates":[113.019189,22.515528]},"properties":{"full_address":"广东省江门市新会区圭峰会城汇侨花园小区27座"}},{"type":"Feature","geometry":{"type":"Point","coordinates":[113.042947,22.545147]},"properties":{"full_address":"广东省江门市新会区圭峰会城玉圭园小区B区38幢"}},{"type":"Feature","geometry":{"type":"Point","coordinates":[113.053847,22.499307]},"properties":{"full_address":"广东省江门市新会区圭峰会城碧桂园盛世名门小区一街八座、九座"}},{"type":"Feature","geometry":{"type":"Point","coordinates":[113.051793,22.490814]},"properties":{"full_address":"广东省江门市新会区圭峰会城梅江村梅苑新村1巷1号至6号、1巷5号至6巷5号、梅江市场及梅江市场以南至今洲路区域"}},{"type":"Feature","geometry":{"type":"Point","coordinates":[113.025381,22.506963]},"properties":{"full_address":"广东省江门市新会区圭峰会城紫华园小区；紫华路以东至仁义村、永安村永安食街至永合新村、永安花园、葵湖东路以南与新会大道合围区域"}},{"type":"Feature","geometry":{"type":"Point","coordinates":[114.522353,22.752471]},"properties":{"full_address":"广东省惠州市大亚湾区澳头街道金湾花园8栋"}},{"type":"Feature","geometry":{"type":"Point","coordinates":[114.530777,22.749965]},"properties":{"full_address":"广东省惠州市大亚湾区澳头街道中央公园9栋"}},{"type":"Feature","geometry":{"type":"Point","coordinates":[114.521376,22.747383]},"properties":{"full_address":"广东省惠州市大亚湾区澳头街道国力凯旋城6栋"}},{"type":"Feature","geometry":{"type":"Point","coordinates":[114.524887,22.748494]},"properties":{"full_address":"广东省惠州市大亚湾区澳头街道国力凯旋城21栋"}},{"type":"Feature","geometry":{"type":"Point","coordinates":[114.522847,22.750741]},"properties":{"full_address":"广东省惠州市大亚湾区澳头街道天悦龙庭12栋"}},{"type":"Feature","geometry":{"type":"Point","coordinates":[114.523202,22.752025]},"properties":{"full_address":"广东省惠州市大亚湾区澳头街道天悦龙庭15栋"}},{"type":"Feature","geometry":{"type":"Point","coordinates":[116.191869,23.746962]},"properties":{"full_address":"广东省梅州市丰顺县汤坑镇湖下金兴路一巷2号（汤坑公寓）"}},{"type":"Feature","geometry":{"type":"Point","coordinates":[116.204773,23.736376]},"properties":{"full_address":"广东省梅州市丰顺县埔寨镇双胞胎饲料有限公司（丰顺县埔寨农场）"}},{"type":"Feature","geometry":{"type":"Point","coordinates":[116.122176,23.625943]},"properties":{"full_address":"广东省梅州市丰顺县埔寨镇埔寨农场肥佬饭店"}},{"type":"Feature","geometry":{"type":"Point","coordinates":[107.967941,21.547289]},"properties":{"full_address":"广西壮族自治区防城港市东兴市七星社区第1网格"}},{"type":"Feature","geometry":{"type":"Point","coordinates":[107.973053,21.546326]},"properties":{"full_address":"广西壮族自治区防城港市东兴市七星社区第4网格部分区域：北起兴东路346号至106小区6栋11号，东至106小区6栋11号到6栋17号，南至106小区17号到雷雨大厦，西至雷雨大厦到兴东路路口"}},{"type":"Feature","geometry":{"type":"Point","coordinates":[107.962704,21.547439]},"properties":{"full_address":"广西壮族自治区防城港市东兴市七星社区第9、10网格部分区域：北起河洲路七巷，西接河洲路五巷至河洲路八巷接河洲路，南至兴东路，东至江那路接财源路及湖南路合围区域"}},{"type":"Feature","geometry":{"type":"Point","coordinates":[107.96225,21.547952]},"properties":{"full_address":"广西壮族自治区防城港市东兴市北起大坪路与冲卜一路交汇处，东至冲卜一路与景阳南路交汇处，南至景阳南路与冲卜三路交汇处，西至冲卜三路与大坪路交汇处"}},{"type":"Feature","geometry":{"type":"Point","coordinates":[109.70192,18.307463]},"properties":{"full_address":"海南省三亚市海棠区林旺居委会林旺大道53号圣享泊心康养中心"}},{"type":"Feature","geometry":{"type":"Point","coordinates":[109.702531,18.310701]},"properties":{"full_address":"海南省三亚市海棠区林旺社区管委会204号房（检察室旁边的宿舍楼）"}},{"type":"Feature","geometry":{"type":"Point","coordinates":[109.762974,18.312921]},"properties":{"full_address":"海南省三亚市海棠区江林社区林旺镇林旺南安置区A2-30、A2-31、A1-12"}},{"type":"Feature","geometry":{"type":"Point","coordinates":[109.704936,18.298676]},"properties":{"full_address":"海南省三亚市海棠区江林社区江林路33号保利富利建设集团有限公司项目部工地"}},{"type":"Feature","geometry":{"type":"Point","coordinates":[109.519358,18.294183]},"properties":{"full_address":"海南省三亚市吉阳区南新居食品厂小区，千百惠超市仓库，干休所1901，1902，1801，1702，502栋"}},{"type":"Feature","geometry":{"type":"Point","coordinates":[109.51484,18.24365]},"properties":{"full_address":"海南省三亚市吉阳区港门村社区第六网格：港门村二路"}},{"type":"Feature","geometry":{"type":"Point","coordinates":[109.5147,18.239842]},"properties":{"full_address":"海南省三亚市吉阳区港门村社区第九网格：一路二巷、三巷"}},{"type":"Feature","geometry":{"type":"Point","coordinates":[109.507679,18.282571]},"properties":{"full_address":"海南省三亚市吉阳区丹州社区凤凰路180号路灯管理所宿舍A栋"}},{"type":"Feature","geometry":{"type":"Point","coordinates":[109.509999,18.26704]},"properties":{"full_address":"海南省三亚市吉阳区月川社区北至川河路，南至川中路，西至河东路，东至安置区南区西侧围墙（不含安置区南区）"}},{"type":"Feature","geometry":{"type":"Point","coordinates":[109.565864,18.239347]},"properties":{"full_address":"海南省三亚市吉阳区红沙社区人民街东段6巷13号"}},{"type":"Feature","geometry":{"type":"Point","coordinates":[109.527801,18.252039]},"properties":{"full_address":"海南省三亚市吉阳区临春社区临春二路一巷8号、15号，南兰花基地旁边社区工作人员宿舍楼及周边楼栋"}},{"type":"Feature","geometry":{"type":"Point","coordinates":[109.525631,18.248993]},"properties":{"full_address":"海南省三亚市吉阳区临春社区三路三巷35号、40号、41号、72号、73号、75号，三路四巷，三路五巷（东至临春小学，西至山水国际峰清阁南门，南至百益超市，北至三亚宏生商行）"}},{"type":"Feature","geometry":{"type":"Point","coordinates":[109.52593,18.245726]},"properties":{"full_address":"海南省三亚市吉阳区临春社区临春四路一巷21号、39号、160号，四路二巷75号、228号"}},{"type":"Feature","geometry":{"type":"Point","coordinates":[109.552601,18.236841]},"properties":{"full_address":"海南省三亚市吉阳区临春社区临春四组40号（临春百益超市隔壁）"}},{"type":"Feature","geometry":{"type":"Point","coordinates":[109.525795,18.253516]},"properties":{"full_address":"海南省三亚市吉阳区临春社区临春一路一巷67号"}},{"type":"Feature","geometry":{"type":"Point","coordinates":[109.522691,18.250468]},"properties":{"full_address":"海南省三亚市吉阳区临春社区山水国际三期峰清阁旁员工宿舍区"}},{"type":"Feature","geometry":{"type":"Point","coordinates":[109.526196,18.249227]},"properties":{"full_address":"海南省三亚市吉阳区临春社区临春小学宿舍区二单元"}},{"type":"Feature","geometry":{"type":"Point","coordinates":[109.529951,18.244298]},"properties":{"full_address":"海南省三亚市吉阳区临春社区临春七路一巷55、83号"}},{"type":"Feature","geometry":{"type":"Point","coordinates":[109.525911,18.249353]},"properties":{"full_address":"海南省三亚市吉阳区临春社区临春小学后面水库旁200、219、236号"}},{"type":"Feature","geometry":{"type":"Point","coordinates":[109.537038,18.30166]},"properties":{"full_address":"海南省三亚市吉阳区南新居得月村"}},{"type":"Feature","geometry":{"type":"Point","coordinates":[109.513611,18.237037]},"properties":{"full_address":"海南省三亚市吉阳区港门村社区第一网格：实验中学教职工楼、市委招待所、河东路124号天然气大厦、河东路118号、82号、62号、教育巷电视台宿舍2单元、教育巷畜牧大院"}},{"type":"Feature","geometry":{"type":"Point","coordinates":[109.513751,18.234942]},"properties":{"full_address":"海南省三亚市吉阳区港门村社区第二网格：临春河路十二巷5号、临春河路十一巷4号、临春河五巷2号、临春河十巷6号、临春河67号、临春河路市委安置楼2栋"}},{"type":"Feature","geometry":{"type":"Point","coordinates":[109.515947,18.239714]},"properties":{"full_address":"海南省三亚市吉阳区港门村社区第三网格：东二路、东一路一巷49号、60号、69号；东一路二巷7号、20号"}},{"type":"Feature","geometry":{"type":"Point","coordinates":[109.51318551980786,18.236678870718432]},"properties":{"full_address":"海南省三亚市吉阳区港门村社区第四网格：三路、四路12号、14号、23号、35号"}},{"type":"Feature","geometry":{"type":"Point","coordinates":[109.514887,18.241369]},"properties":{"full_address":"海南省三亚市吉阳区港门村社区第五网格：港门村上村路、一路一巷8号、29号"}},{"type":"Feature","geometry":{"type":"Point","coordinates":[109.514414,18.244578]},"properties":{"full_address":"海南省三亚市吉阳区港门村社区第七网格：一路四巷6号、15号、一路五巷3号运通楼、9号、21号、粮所小区"}},{"type":"Feature","geometry":{"type":"Point","coordinates":[109.51289897022819,18.24430431899129]},"properties":{"full_address":"海南省三亚市吉阳区港门村社区第八网格：港华街二巷1号、2号、6号；港华街一巷8号"}},{"type":"Feature","geometry":{"type":"Point","coordinates":[109.57833,18.281397]},"properties":{"full_address":"海南省三亚市吉阳区五巷49、51号楼，七巷48、50号楼，八巷10、12、14号楼，九巷10号楼，十巷20号，十一巷17号、19号"}},{"type":"Feature","geometry":{"type":"Point","coordinates":[109.591589,18.281359]},"properties":{"full_address":"海南省三亚市吉阳区新村社区亚龙湾路74号壹号湘菜湖南饭店门面后面楼栋（东至28号门后面，南至如家酒店南面，西至72号，北至壹号湘菜湖南饭店）"}},{"type":"Feature","geometry":{"type":"Point","coordinates":[109.524756,18.279024]},"properties":{"full_address":"海南省三亚市吉阳区卓达社区同心家园五期南区9栋"}},{"type":"Feature","geometry":{"type":"Point","coordinates":[109.505435,18.269903]},"properties":{"full_address":"海南省三亚市吉阳区新月社区金凤凰山庄小区2栋，3栋1单元"}},{"type":"Feature","geometry":{"type":"Point","coordinates":[109.553976,18.237928]},"properties":{"full_address":"海南省三亚市吉阳区红郊社区红郊三组87号"}},{"type":"Feature","geometry":{"type":"Point","coordinates":[109.51563,18.2454]},"properties":{"full_address":"海南省三亚市吉阳区商品街社区大东海安置区B、C栋"}},{"type":"Feature","geometry":{"type":"Point","coordinates":[109.521251,18.23118]},"properties":{"full_address":"海南省三亚市吉阳区下洋田社区海外宿舍2栋"}},{"type":"Feature","geometry":{"type":"Point","coordinates":[109.500272,18.312721]},"properties":{"full_address":"海南省三亚市吉阳区抱坡村委会东至师部农场路，北至海上丝绸之路，西至和盛兴业钢材（包含和盛兴业），南至芒果地边缘"}},{"type":"Feature","geometry":{"type":"Point","coordinates":[109.5749,18.282268]},"properties":{"full_address":"海南省三亚市吉阳区干沟村建材厂职工宿舍小区（西南至围墙，北至盘龙路，东南至兆龙西路）"}},{"type":"Feature","geometry":{"type":"Point","coordinates":[109.50375,18.244219]},"properties":{"full_address":"海南省三亚市天涯区和平社区港务局二区小区（全部）"}},{"type":"Feature","geometry":{"type":"Point","coordinates":[109.503755,18.258864]},"properties":{"full_address":"海南省三亚市天涯区春园社区永升阁A+、A、B、C栋"}},{"type":"Feature","geometry":{"type":"Point","coordinates":[109.504346,18.254154]},"properties":{"full_address":"海南省三亚市天涯区春园社区财政综合楼"}},{"type":"Feature","geometry":{"type":"Point","coordinates":[109.44463,18.288791]},"properties":{"full_address":"海南省三亚市天涯区三亚湾社区金中海蓝钻1、3号楼"}},{"type":"Feature","geometry":{"type":"Point","coordinates":[109.50131,18.255749]},"properties":{"full_address":"海南省三亚市天涯区儋州村社区南三巷，北三巷，北二巷"}},{"type":"Feature","geometry":{"type":"Point","coordinates":[109.503477,18.255351]},"properties":{"full_address":"海南省三亚市天涯区儋州村社区儋州一巷10号，第二市场工商宿舍A栋，儋州社区北四巷10号"}},{"type":"Feature","geometry":{"type":"Point","coordinates":[109.451951,18.296619]},"properties":{"full_address":"海南省三亚市天涯区羊新社区龙眼园路437、438、439号"}},{"type":"Feature","geometry":{"type":"Point","coordinates":[109.388656,18.296868]},"properties":{"full_address":"海南省三亚市天涯区桶井村凤凰村三组20号、31号（大院）"}},{"type":"Feature","geometry":{"type":"Point","coordinates":[109.440284,18.299698]},"properties":{"full_address":"海南省三亚市天涯区回辉社区东至一村五路与一村中路交接处，西至一村五路小巷口，南至一村五路南侧居民楼边界，北至一村五路北侧居民楼边界"}},{"type":"Feature","geometry":{"type":"Point","coordinates":[109.47748,18.280741]},"properties":{"full_address":"海南省三亚市天涯区回新社区回新巷与解放路交叉口西南200米处天山明珠公寓"}},{"type":"Feature","geometry":{"type":"Point","coordinates":[109.477283,18.285247]},"properties":{"full_address":"海南省三亚市天涯区回新社区回新路广慈医院旁边的伊斯兰教协会"}},{"type":"Feature","geometry":{"type":"Point","coordinates":[109.505331,18.242884]},"properties":{"full_address":"海南省三亚市天涯区和平社区绿宝海苑C栋"}},{"type":"Feature","geometry":{"type":"Point","coordinates":[109.505097,18.256051]},"properties":{"full_address":"海南省三亚市天涯区春园社区春园一巷，二巷，三巷"}},{"type":"Feature","geometry":{"type":"Point","coordinates":[109.504599,18.255128]},"properties":{"full_address":"海南省三亚市天涯区春园社区港务局四区34栋、35栋、36栋、37栋、38栋、39栋、40栋、42栋、43栋、48栋"}},{"type":"Feature","geometry":{"type":"Point","coordinates":[109.50451,18.253363]},"properties":{"full_address":"海南省三亚市天涯区春园社区衍宏现代城"}},{"type":"Feature","geometry":{"type":"Point","coordinates":[109.483196,18.295659]},"properties":{"full_address":"海南省三亚市天涯区育春路社区同心家园六期13栋一单元"}},{"type":"Feature","geometry":{"type":"Point","coordinates":[109.34971,18.33724]},"properties":{"full_address":"海南省三亚市天涯区过岭村委会下加育小组26号"}},{"type":"Feature","geometry":{"type":"Point","coordinates":[109.446786,18.309886]},"properties":{"full_address":"海南省三亚市天涯区水蛟村委会东至水蛟路（不包括凤凰八一新村），南至鹿城大道，西至三亚博鑫商旅，北至新开田一组北部田边"}},{"type":"Feature","geometry":{"type":"Point","coordinates":[109.412643,18.298156]},"properties":{"full_address":"海南省三亚市天涯区水蛟村委会新开田村二组的三亚凤凰鑫雨旅租至三亚蚂蚁租车之间的两栋自建房，凤凰鑫雨旅租右前方的吉车汇所在的民宅范围20米"}},{"type":"Feature","geometry":{"type":"Point","coordinates":[109.451631,18.303056]},"properties":{"full_address":"海南省三亚市天涯区羊栏村委会羊栏三家村西三巷二组9号，20号楼"}},{"type":"Feature","geometry":{"type":"Point","coordinates":[109.454758,18.296332]},"properties":{"full_address":"海南省三亚市天涯区羊栏村委会羊西五小组64号楼"}},{"type":"Feature","geometry":{"type":"Point","coordinates":[109.451631,18.303056]},"properties":{"full_address":"海南省三亚市天涯区羊栏村委会羊栏留一间旅租楼栋"}},{"type":"Feature","geometry":{"type":"Point","coordinates":[109.497542,18.263544]},"properties":{"full_address":"海南省三亚市天涯区友谊路社区生产资料小区6栋"}},{"type":"Feature","geometry":{"type":"Point","coordinates":[109.508004,18.223682]},"properties":{"full_address":"海南省三亚市天涯区南海社区渔村路十三巷"}},{"type":"Feature","geometry":{"type":"Point","coordinates":[109.50855,18.228361]},"properties":{"full_address":"海南省三亚市天涯区南海社区麒麟码头"}},{"type":"Feature","geometry":{"type":"Point","coordinates":[109.509221,18.22266]},"properties":{"full_address":"海南省三亚市天涯区南海社区卡纳码头"}},{"type":"Feature","geometry":{"type":"Point","coordinates":[109.505649,18.230332]},"properties":{"full_address":"海南省三亚市天涯区南海社区南边海消防救援站"}},{"type":"Feature","geometry":{"type":"Point","coordinates":[109.502158,18.277139]},"properties":{"full_address":"海南省三亚市天涯区岭北社区金鸡岭村一巷6号、9号至65号"}},{"type":"Feature","geometry":{"type":"Point","coordinates":[109.502607,18.279702]},"properties":{"full_address":"海南省三亚市天涯区岭北社区金鸡岭村三巷6号、8号、10号"}},{"type":"Feature","geometry":{"type":"Point","coordinates":[109.440284,18.299698]},"properties":{"full_address":"海南省三亚市天涯区回辉社区天成远旅租楼栋"}},{"type":"Feature","geometry":{"type":"Point","coordinates":[109.446202,18.300311]},"properties":{"full_address":"海南省三亚市天涯区回辉社区东至金和通建材批发厂边界，西至金和通建材批发厂边界，南至凤凰路，北至金和通建材批发厂边界"}},{"type":"Feature","geometry":{"type":"Point","coordinates":[109.306665,18.448293]},"properties":{"full_address":"海南省三亚市育才生态区育才生态区政府周转楼4栋"}},{"type":"Feature","geometry":{"type":"Point","coordinates":[109.315539,18.426673]},"properties":{"full_address":"海南省三亚市育才生态区龙密村委会卡巴三组"}},{"type":"Feature","geometry":{"type":"Point","coordinates":[109.425828,19.697672]},"properties":{"full_address":"海南省儋州市市辖区东成镇：长坡居委会长胜街"}},{"type":"Feature","geometry":{"type":"Point","coordinates":[109.598778,19.530758]},"properties":{"full_address":"海南省儋州市市辖区那大镇城北社区：亚澜湾7栋1单元"}},{"type":"Feature","geometry":{"type":"Point","coordinates":[109.225156,19.777809]},"properties":{"full_address":"海南省儋州市市辖区三都办事处：黎屋水库大坝陈某所在养殖场"}},{"type":"Feature","geometry":{"type":"Point","coordinates":[108.940894,18.510624]},"properties":{"full_address":"海南省省直辖县级行政单位乐东黎族自治县利国镇赤塘村"}},{"type":"Feature","geometry":{"type":"Point","coordinates":[108.698056,18.523467]},"properties":{"full_address":"海南省省直辖县级行政单位乐东黎族自治县莺歌海镇莺三社区"}},{"type":"Feature","geometry":{"type":"Point","coordinates":[104.148822,30.60085]},"properties":{"full_address":"四川省成都市锦江区成龙路街道锦蓉佳苑1-10栋，包括1栋、7-10栋底层商户"}},{"type":"Feature","geometry":{"type":"Point","coordinates":[104.137695,30.59487]},"properties":{"full_address":"四川省成都市锦江区成龙路街道卓锦城6期1-22栋"}},{"type":"Feature","geometry":{"type":"Point","coordinates":[104.153688,30.603215]},"properties":{"full_address":"四川省成都市锦江区成龙路街道绿地468云玺五期2、4、5栋，包括5栋底商"}},{"type":"Feature","geometry":{"type":"Point","coordinates":[104.117782,30.643461]},"properties":{"full_address":"四川省成都市锦江区成龙路街道绿地468云锦6期1-3栋，包括楼栋底层商户"}},{"type":"Feature","geometry":{"type":"Point","coordinates":[104.146827,30.597429]},"properties":{"full_address":"四川省成都市锦江区三圣街道锦江城市花园三期1-7栋"}},{"type":"Feature","geometry":{"type":"Point","coordinates":[104.136708,30.601901]},"properties":{"full_address":"四川省成都市锦江区成龙路街道四海逸家3期2栋、4栋、5栋"}},{"type":"Feature","geometry":{"type":"Point","coordinates":[104.147602,30.593342]},"properties":{"full_address":"四川省成都市锦江区三圣街道华熙528艺术村盈都2栋，包括2栋底层商户"}},{"type":"Feature","geometry":{"type":"Point","coordinates":[104.144155,30.59372]},"properties":{"full_address":"四川省成都市锦江区三圣街道锦江城市花园1期1-8栋，包括底层商户"}},{"type":"Feature","geometry":{"type":"Point","coordinates":[104.137976,30.602962]},"properties":{"full_address":"四川省成都市锦江区成龙路街道锦江逸家1栋、6-7栋"}},{"type":"Feature","geometry":{"type":"Point","coordinates":[104.151055,30.604652]},"properties":{"full_address":"四川省成都市锦江区成龙路街道东洪广厦1-11栋，包括1、2、4、11栋底层商户"}},{"type":"Feature","geometry":{"type":"Point","coordinates":[104.132163,30.600511]},"properties":{"full_address":"四川省成都市锦江区成龙路街道卓锦城2期24栋、44栋"}},{"type":"Feature","geometry":{"type":"Point","coordinates":[104.142819,30.598946]},"properties":{"full_address":"四川省成都市锦江区成龙路街道鑫苑名家2期1-8栋"}},{"type":"Feature","geometry":{"type":"Point","coordinates":[104.136888,30.598018]},"properties":{"full_address":"四川省成都市锦江区成龙路街道卓锦城4期1栋、5栋"}},{"type":"Feature","geometry":{"type":"Point","coordinates":[104.13812,30.59115]},"properties":{"full_address":"四川省成都市锦江区三圣街道华都美林湾3栋、5栋、9栋、12栋、16栋，包括3栋底商"}},{"type":"Feature","geometry":{"type":"Point","coordinates":[104.142642,30.596983]},"properties":{"full_address":"四川省成都市锦江区成龙路街道鑫苑名家1期2栋、9栋，包括9栋底商"}},{"type":"Feature","geometry":{"type":"Point","coordinates":[104.142578,30.608246]},"properties":{"full_address":"四川省成都市锦江区成龙路街道绿地468公馆一期1栋、9栋"}},{"type":"Feature","geometry":{"type":"Point","coordinates":[104.145334,30.595537]},"properties":{"full_address":"四川省成都市锦江区三圣街道锦江城市花园二期2-5栋"}},{"type":"Feature","geometry":{"type":"Point","coordinates":[104.141372,30.608012]},"properties":{"full_address":"四川省成都市锦江区成龙路街道绿地468公馆三期6栋，包含其底商"}},{"type":"Feature","geometry":{"type":"Point","coordinates":[104.156684,30.602986]},"properties":{"full_address":"四川省成都市锦江区成龙路街道绿地468云玺四期1栋、4栋，包含其底商"}},{"type":"Feature","geometry":{"type":"Point","coordinates":[104.140692,30.600173]},"properties":{"full_address":"四川省成都市锦江区成龙路街道四海逸家蓝钻（二期）1栋、5栋"}},{"type":"Feature","geometry":{"type":"Point","coordinates":[104.126201,30.602079]},"properties":{"full_address":"四川省成都市锦江区成龙路街道蓝谷地5期（蓝谷地天域）2栋，包含其底商"}},{"type":"Feature","geometry":{"type":"Point","coordinates":[104.139444,30.607278]},"properties":{"full_address":"四川省成都市锦江区成龙路街道锦尚春天B区2、3、6栋，包含其底商"}},{"type":"Feature","geometry":{"type":"Point","coordinates":[104.146206,30.604568]},"properties":{"full_address":"四川省成都市锦江区成龙路街道华韵天府1-4栋，包含其底商"}},{"type":"Feature","geometry":{"type":"Point","coordinates":[104.143265,30.594639]},"properties":{"full_address":"四川省成都市锦江区三圣街道合能锦城 3 栋、5 栋及其底商"}},{"type":"Feature","geometry":{"type":"Point","coordinates":[104.14725,30.606512]},"properties":{"full_address":"四川省成都市锦江区成龙路街道绿地468公馆二期2栋、4栋、6栋、8栋，包括其底商"}},{"type":"Feature","geometry":{"type":"Point","coordinates":[104.149131,30.602526]},"properties":{"full_address":"四川省成都市锦江区成龙路街道东锦瑞苑4栋"}},{"type":"Feature","geometry":{"type":"Point","coordinates":[104.13496,30.597185]},"properties":{"full_address":"四川省成都市锦江区成龙路街道卓锦城1期1-20栋"}},{"type":"Feature","geometry":{"type":"Point","coordinates":[104.168732,30.588277]},"properties":{"full_address":"四川省成都市锦江区三圣街道锦和康城·锦绣苑 1-9栋含底商"}},{"type":"Feature","geometry":{"type":"Point","coordinates":[104.17005,30.59013]},"properties":{"full_address":"四川省成都市锦江区三圣街道锦和康城•和贵苑 2 栋含底商"}},{"type":"Feature","geometry":{"type":"Point","coordinates":[104.143981,30.609761]},