{"type":"FeatureCollection","features":[{"type":"Feature","geometry":{"type":"Point","coordinates":[116.315636,39.850109]},"properties":{"province":"北京市","city":"丰台区","county":"新村街道","community":"金丰园小区除2号楼以外的其他区域","full_address":"北京市丰台区新村街道金丰园小区除2号楼以外的其他区域","info":""}},{"type":"Feature","geometry":{"type":"Point","coordinates":[116.36262,39.81026]},"properties":{"province":"北京市","city":"丰台区","county":"南苑街道","community":"新宫家园南区1号楼5单元以外的其他区域","full_address":"北京市丰台区南苑街道新宫家园南区1号楼5单元以外的其他区域","info":""}},{"type":"Feature","geometry":{"type":"Point","coordinates":[116.40661,39.85972]},"properties":{"province":"北京市","city":"丰台区","county":"东铁匠营街道","community":"东木樨园小区除15号楼的其他区域","full_address":"北京市丰台区东铁匠营街道东木樨园小区除15号楼的其他区域","info":""}},{"type":"Feature","geometry":{"type":"Point","coordinates":[116.42059,39.85637]},"properties":{"province":"北京市","city":"丰台区","county":"东铁匠营街道","community":"小铁匠营36号2号楼除2单元以外的其他区域","full_address":"北京市丰台区东铁匠营街道小铁匠营36号2号楼除2单元以外的其他区域","info":""}},{"type":"Feature","geometry":{"type":"Point","coordinates":[116.3985,39.81288]},"properties":{"province":"北京市","city":"丰台区","county":"和义街道","community":"和义西里四区5号楼","full_address":"北京市丰台区和义街道和义西里四区5号楼","info":""}},{"type":"Feature","geometry":{"type":"Point","coordinates":[116.40515,39.81422]},"properties":{"province":"北京市","city":"丰台区","county":"和义街道","community":"和义东里社区除和义东里五区3号楼以外区域","full_address":"北京市丰台区和义街道和义东里社区除和义东里五区3号楼以外区域","info":""}},{"type":"Feature","geometry":{"type":"Point","coordinates":[116.296349,39.86697]},"properties":{"province":"北京市","city":"丰台区","county":"看丹街道","community":"看丹村平房区除明晓中安保安公司宿舍以外区域","full_address":"北京市丰台区看丹街道看丹村平房区除明晓中安保安公司宿舍以外区域","info":""}},{"type":"Feature","geometry":{"type":"Point","coordinates":[116.23632,39.901581]},"properties":{"province":"北京市","city":"石景山区","county":"八宝山街道","community":"74号院24、27、28号楼、26号楼1-4单元以及电子科技情报研究所社区居委会","full_address":"北京市石景山区八宝山街道74号院24、27、28号楼、26号楼1-4单元以及电子科技情报研究所社区居委会","info":""}},{"type":"Feature","geometry":{"type":"Point","coordinates":[116.32713,39.94916]},"properties":{"province":"北京市","city":"海淀区","county":"北下关街道","community":"中关村南大街46号南区7、9、10、18、22号楼","full_address":"北京市海淀区北下关街道中关村南大街46号南区7、9、10、18、22号楼","info":""}},{"type":"Feature","geometry":{"type":"Point","coordinates":[116.323132,39.960196]},"properties":{"province":"北京市","city":"海淀区","county":"北下关街道","community":"中关村南大街12号院11、19、20、21、22、23、24、25号楼及农科院附属小学、 农研派出所","full_address":"北京市海淀区北下关街道中关村南大街12号院11、19、20、21、22、23、24、25号楼及农科院附属小学、 农研派出所","info":""}},{"type":"Feature","geometry":{"type":"Point","coordinates":[116.222423,39.735047]},"properties":{"province":"北京市","city":"房山区","county":"长阳镇","community":"朱岗子村五区16号、2号区域","full_address":"北京市房山区长阳镇朱岗子村五区16号、2号区域","info":""}},{"type":"Feature","geometry":{"type":"Point","coordinates":[116.454781,39.798706]},"properties":{"province":"北京市","city":"大兴区","county":"旧宫（地区）镇","community":"新苑南区除12号楼、7号楼以外其他楼栋","full_address":"北京市大兴区旧宫（地区）镇新苑南区除12号楼、7号楼以外其他楼栋","info":""}},{"type":"Feature","geometry":{"type":"Point","coordinates":[116.451752,39.76152]},"properties":{"province":"北京市","city":"大兴区","county":"旧宫（地区）镇","community":"熙悦林语18号院1-5、7-10号楼","full_address":"北京市大兴区旧宫（地区）镇熙悦林语18号院1-5、7-10号楼","info":""}},{"type":"Feature","geometry":{"type":"Point","coordinates":[117.23298,39.1248]},"properties":{"province":"天津市","city":"天津市","county":"河东区","community":"大王庄街道怡祥园（7号楼除外）","full_address":"天津市天津市河东区大王庄街道怡祥园（7号楼除外）","info":""}},{"type":"Feature","geometry":{"type":"Point","coordinates":[117.298538,39.095581]},"properties":{"province":"天津市","city":"天津市","county":"河东区","community":"二号桥街道龙峰嘉园（7号楼除外）","full_address":"天津市天津市河东区二号桥街道龙峰嘉园（7号楼除外）","info":""}},{"type":"Feature","geometry":{"type":"Point","coordinates":[117.220367,39.121799]},"properties":{"province":"天津市","city":"天津市","county":"河东区","community":"大王庄街道信合苑9号楼、10号楼、11号楼","full_address":"天津市天津市河东区大王庄街道信合苑9号楼、10号楼、11号楼","info":""}},{"type":"Feature","geometry":{"type":"Point","coordinates":[117.255424,39.128566]},"properties":{"province":"天津市","city":"天津市","county":"河东区","community":"上杭路街道金湾公寓1号楼、金湾花园东院1号楼、2号楼、3号楼、5号楼、6号楼、7号楼、33号楼、34号楼、35号楼","full_address":"天津市天津市河东区上杭路街道金湾公寓1号楼、金湾花园东院1号楼、2号楼、3号楼、5号楼、6号楼、7号楼、33号楼、34号楼、35号楼","info":""}},{"type":"Feature","geometry":{"type":"Point","coordinates":[117.2563,39.12464]},"properties":{"province":"天津市","city":"天津市","county":"河东区","community":"上杭路街道尚东雅园4号楼、6号楼、7号楼、8号楼","full_address":"天津市天津市河东区上杭路街道尚东雅园4号楼、6号楼、7号楼、8号楼","info":""}},{"type":"Feature","geometry":{"type":"Point","coordinates":[117.23631,39.11302]},"properties":{"province":"天津市","city":"天津市","county":"河东区","community":"大直沽街道怡安温泉公寓（1号楼除外）","full_address":"天津市天津市河东区大直沽街道怡安温泉公寓（1号楼除外）","info":""}},{"type":"Feature","geometry":{"type":"Point","coordinates":[117.275597,39.158909]},"properties":{"province":"天津市","city":"天津市","county":"河东区","community":"鲁山道街道橙翠园小区22号楼、24号楼、26号楼、30号楼、31号楼、32号楼","full_address":"天津市天津市河东区鲁山道街道橙翠园小区22号楼、24号楼、26号楼、30号楼、31号楼、32号楼","info":""}},{"type":"Feature","geometry":{"type":"Point","coordinates":[117.26267,39.1022]},"properties":{"province":"天津市","city":"天津市","county":"河东区","community":"中山门街道友爱南里2号楼-15号楼、17号楼-28号楼","full_address":"天津市天津市河东区中山门街道友爱南里2号楼-15号楼、17号楼-28号楼","info":""}},{"type":"Feature","geometry":{"type":"Point","coordinates":[117.26229,39.12421]},"properties":{"province":"天津市","city":"天津市","county":"河东区","community":"上杭路街道万和里4号楼、5号楼、6号楼，凤麟里","full_address":"天津市天津市河东区上杭路街道万和里4号楼、5号楼、6号楼，凤麟里","info":""}},{"type":"Feature","geometry":{"type":"Point","coordinates":[117.175041,39.080009]},"properties":{"province":"天津市","city":"天津市","county":"南开区","community":"体育中心街新城市花园3-8号楼","full_address":"天津市天津市南开区体育中心街新城市花园3-8号楼","info":""}},{"type":"Feature","geometry":{"type":"Point","coordinates":[117.244278,39.169418]},"properties":{"province":"天津市","city":"天津市","county":"河北区","community":"月牙河街道靖辰公寓（除3号楼）","full_address":"天津市天津市河北区月牙河街道靖辰公寓（除3号楼）","info":""}},{"type":"Feature","geometry":{"type":"Point","coordinates":[117.146423,39.172501]},"properties":{"province":"天津市","city":"天津市","county":"红桥区","community":"西于庄街秀水苑小区除高风险区外其他区域","full_address":"天津市天津市红桥区西于庄街秀水苑小区除高风险区外其他区域","info":""}},{"type":"Feature","geometry":{"type":"Point","coordinates":[117.322177,39.10076]},"properties":{"province":"天津市","city":"天津市","county":"东丽区","community":"新立街汇海南里小区12号楼","full_address":"天津市天津市东丽区新立街汇海南里小区12号楼","info":""}},{"type":"Feature","geometry":{"type":"Point","coordinates":[117.370579,38.984736]},"properties":{"province":"天津市","city":"天津市","county":"津南区","community":"咸水沽镇金才园24号楼、25号楼、27号楼、28号楼、29号楼、30号楼","full_address":"天津市天津市津南区咸水沽镇金才园24号楼、25号楼、27号楼、28号楼、29号楼、30号楼","info":""}},{"type":"Feature","geometry":{"type":"Point","coordinates":[117.361893,38.917706]},"properties":{"province":"天津市","city":"天津市","county":"津南区","community":"八里台镇观雅庭院3号楼","full_address":"天津市天津市津南区八里台镇观雅庭院3号楼","info":""}},{"type":"Feature","geometry":{"type":"Point","coordinates":[117.638367,39.040482]},"properties":{"province":"天津市","city":"天津市","county":"滨海新区","community":"新河街道西江里除高风险区外其他区域","full_address":"天津市天津市滨海新区新河街道西江里除高风险区外其他区域","info":""}},{"type":"Feature","geometry":{"type":"Point","coordinates":[117.164044,38.903031]},"properties":{"province":"天津市","city":"天津市","county":"静海区","community":"团泊镇泊雅苑小区3号楼","full_address":"天津市天津市静海区团泊镇泊雅苑小区3号楼","info":""}},{"type":"Feature","geometry":{"type":"Point","coordinates":[117.133003,38.872623]},"properties":{"province":"天津市","city":"天津市","county":"静海区","community":"团泊镇碧桂园丽泽府小区全域内除高风险区以外区域","full_address":"天津市天津市静海区团泊镇碧桂园丽泽府小区全域内除高风险区以外区域","info":""}},{"type":"Feature","geometry":{"type":"Point","coordinates":[119.610996,39.936887]},"properties":{"province":"河北省","city":"秦皇岛市","county":"海港区","community":"新建村小区","full_address":"河北省秦皇岛市海港区新建村小区","info":""}},{"type":"Feature","geometry":{"type":"Point","coordinates":[119.623253,39.96867]},"properties":{"province":"河北省","city":"秦皇岛市","county":"海港区","community":"彩龙国际商贸广场D区","full_address":"河北省秦皇岛市海港区彩龙国际商贸广场D区","info":""}},{"type":"Feature","geometry":{"type":"Point","coordinates":[119.64006,39.948479]},"properties":{"province":"河北省","city":"秦皇岛市","county":"海港区","community":"东方明珠城小区A区以外区域","full_address":"河北省秦皇岛市海港区东方明珠城小区A区以外区域","info":""}},{"type":"Feature","geometry":{"type":"Point","coordinates":[119.575516,39.942383]},"properties":{"province":"河北省","city":"秦皇岛市","county":"海港区","community":"铁新里小区二区以外区域","full_address":"河北省秦皇岛市海港区铁新里小区二区以外区域","info":""}},{"type":"Feature","geometry":{"type":"Point","coordinates":[119.69326,39.9505]},"properties":{"province":"河北省","city":"秦皇岛市","county":"海港区","community":"西向河寨村","full_address":"河北省秦皇岛市海港区西向河寨村","info":""}},{"type":"Feature","geometry":{"type":"Point","coordinates":[119.639023,39.942207]},"properties":{"province":"河北省","city":"秦皇岛市","county":"海港区","community":"大秦铁路秦东运用车间","full_address":"河北省秦皇岛市海港区大秦铁路秦东运用车间","info":""}},{"type":"Feature","geometry":{"type":"Point","coordinates":[119.50914,39.987831]},"properties":{"province":"河北省","city":"秦皇岛市","county":"海港区","community":"秦东公寓","full_address":"河北省秦皇岛市海港区秦东公寓","info":""}},{"type":"Feature","geometry":{"type":"Point","coordinates":[114.37266,36.37739]},"properties":{"province":"河北省","city":"邯郸市","county":"磁县","community":"友谊北大街以东、平安路以南、朝阳北大街以西、仁和路以北的区域","full_address":"河北省邯郸市磁县友谊北大街以东、平安路以南、朝阳北大街以西、仁和路以北的区域","info":""}},{"type":"Feature","geometry":{"type":"Point","coordinates":[114.379598,36.365012]},"properties":{"province":"河北省","city":"邯郸市","county":"磁县","community":"朝阳北大街以东、振兴路以南、古御街以西、安康西路以北的区域","full_address":"河北省邯郸市磁县朝阳北大街以东、振兴路以南、古御街以西、安康西路以北的区域","info":""}},{"type":"Feature","geometry":{"type":"Point","coordinates":[114.373971,36.357158]},"properties":{"province":"河北省","city":"邯郸市","county":"磁县","community":"友谊南大街以东、建设西路以南、邮政南街以西、贸易路以北的区域","full_address":"河北省邯郸市磁县友谊南大街以东、建设西路以南、邮政南街以西、贸易路以北的区域","info":""}},{"type":"Feature","geometry":{"type":"Point","coordinates":[115.346024,38.380753]},"properties":{"province":"河北省","city":"保定市","county":"安国市","community":"祁州路街道南仕庄村","full_address":"河北省保定市安国市祁州路街道南仕庄村","info":""}},{"type":"Feature","geometry":{"type":"Point","coordinates":[115.287773,38.378021]},"properties":{"province":"河北省","city":"保定市","county":"安国市","community":"祁州路街道伏村","full_address":"河北省保定市安国市祁州路街道伏村","info":""}},{"type":"Feature","geometry":{"type":"Point","coordinates":[115.315071,38.377422]},"properties":{"province":"河北省","city":"保定市","county":"安国市","community":"祁州路街道东长仕村","full_address":"河北省保定市安国市祁州路街道东长仕村","info":""}},{"type":"Feature","geometry":{"type":"Point","coordinates":[116.037811,39.139771]},"properties":{"province":"河北省","city":"保定市","county":"白沟新城","community":"爱上城小区","full_address":"河北省保定市白沟新城爱上城小区","info":""}},{"type":"Feature","geometry":{"type":"Point","coordinates":[116.057602,39.135811]},"properties":{"province":"河北省","city":"保定市","county":"白沟新城","community":"商贸城小区","full_address":"河北省保定市白沟新城商贸城小区","info":""}},{"type":"Feature","geometry":{"type":"Point","coordinates":[116.039513,39.149338]},"properties":{"province":"河北省","city":"保定市","county":"白沟新城","community":"双泰城小区","full_address":"河北省保定市白沟新城双泰城小区","info":""}},{"type":"Feature","geometry":{"type":"Point","coordinates":[116.038193,39.142593]},"properties":{"province":"河北省","city":"保定市","county":"白沟新城","community":"尚豪国际城小区","full_address":"河北省保定市白沟新城尚豪国际城小区","info":""}},{"type":"Feature","geometry":{"type":"Point","coordinates":[116.039917,39.144814]},"properties":{"province":"河北省","city":"保定市","county":"白沟新城","community":"万兴达广场","full_address":"河北省保定市白沟新城万兴达广场","info":""}},{"type":"Feature","geometry":{"type":"Point","coordinates":[114.919853,40.810539]},"properties":{"province":"河北省","city":"张家口市","county":"桥东区","community":"佳境天城小区","full_address":"河北省张家口市桥东区佳境天城小区","info":""}},{"type":"Feature","geometry":{"type":"Point","coordinates":[114.89436,40.78847]},"properties":{"province":"河北省","city":"张家口市","county":"桥东区","community":"博锐枫景小区","full_address":"河北省张家口市桥东区博锐枫景小区","info":""}},{"type":"Feature","geometry":{"type":"Point","coordinates":[114.887173,40.827186]},"properties":{"province":"河北省","city":"张家口市","county":"桥西区","community":"公园路综合市场（下东营路店）","full_address":"河北省张家口市桥西区公园路综合市场（下东营路店）","info":""}},{"type":"Feature","geometry":{"type":"Point","coordinates":[114.872071,40.810031]},"properties":{"province":"河北省","city":"张家口市","county":"桥西区","community":"蔬菜公司家属楼","full_address":"河北省张家口市桥西区蔬菜公司家属楼","info":""}},{"type":"Feature","geometry":{"type":"Point","coordinates":[114.882774,40.82777]},"properties":{"province":"河北省","city":"张家口市","county":"桥西区","community":"元台子社区","full_address":"河北省张家口市桥西区元台子社区","info":""}},{"type":"Feature","geometry":{"type":"Point","coordinates":[114.883759,40.825745]},"properties":{"province":"河北省","city":"张家口市","county":"桥西区","community":"明德南社区","full_address":"河北省张家口市桥西区明德南社区","info":""}},{"type":"Feature","geometry":{"type":"Point","coordinates":[114.816742,40.852112]},"properties":{"province":"河北省","city":"张家口市","county":"桥西区","community":"永丰街社区","full_address":"河北省张家口市桥西区永丰街社区","info":""}},{"type":"Feature","geometry":{"type":"Point","coordinates":[114.881256,40.823761]},"properties":{"province":"河北省","city":"张家口市","county":"桥西区","community":"新华苑社区","full_address":"河北省张家口市桥西区新华苑社区","info":""}},{"type":"Feature","geometry":{"type":"Point","coordinates":[114.86541,40.803711]},"properties":{"province":"河北省","city":"张家口市","county":"桥西区","community":"西泽园社区除西泽园小区以外的区域","full_address":"河北省张家口市桥西区西泽园社区除西泽园小区以外的区域","info":""}},{"type":"Feature","geometry":{"type":"Point","coordinates":[115.09951,40.608726]},"properties":{"province":"河北省","city":"张家口市","county":"宣化区","community":"义圣宫青云美术班所在楼栋","full_address":"河北省张家口市宣化区义圣宫青云美术班所在楼栋","info":""}},{"type":"Feature","geometry":{"type":"Point","coordinates":[115.064389,40.606121]},"properties":{"province":"河北省","city":"张家口市","county":"宣化区","community":"万字会南路","full_address":"河北省张家口市宣化区万字会南路","info":""}},{"type":"Feature","geometry":{"type":"Point","coordinates":[115.09951,40.608726]},"properties":{"province":"河北省","city":"张家口市","county":"宣化区","community":"宣钢设备能源部气化作业区","full_address":"河北省张家口市宣化区宣钢设备能源部气化作业区","info":""}},{"type":"Feature","geometry":{"type":"Point","coordinates":[115.061134,40.604462]},"properties":{"province":"河北省","city":"张家口市","county":"宣化区","community":"东草市街","full_address":"河北省张家口市宣化区东草市街","info":""}},{"type":"Feature","geometry":{"type":"Point","coordinates":[115.063843,40.605628]},"properties":{"province":"河北省","city":"张家口市","county":"宣化区","community":"东二道巷","full_address":"河北省张家口市宣化区东二道巷","info":""}},{"type":"Feature","geometry":{"type":"Point","coordinates":[115.066071,40.609918]},"properties":{"province":"河北省","city":"张家口市","county":"宣化区","community":"武庙街","full_address":"河北省张家口市宣化区武庙街","info":""}},{"type":"Feature","geometry":{"type":"Point","coordinates":[115.063766,40.616113]},"properties":{"province":"河北省","city":"张家口市","county":"宣化区","community":"钟楼大街（钟楼至花巷段）","full_address":"河北省张家口市宣化区钟楼大街（钟楼至花巷段）","info":""}},{"type":"Feature","geometry":{"type":"Point","coordinates":[115.09951,40.608726]},"properties":{"province":"河北省","city":"张家口市","county":"宣化区","community":"双盛批发大市场","full_address":"河北省张家口市宣化区双盛批发大市场","info":""}},{"type":"Feature","geometry":{"type":"Point","coordinates":[115.063774,40.61261]},"properties":{"province":"河北省","city":"张家口市","county":"宣化区","community":"灵官庙街精英口语培训班所在楼栋","full_address":"河北省张家口市宣化区灵官庙街精英口语培训班所在楼栋","info":""}},{"type":"Feature","geometry":{"type":"Point","coordinates":[115.067296,40.61291]},"properties":{"province":"河北省","city":"张家口市","county":"宣化区","community":"天泰寺街道（牌楼西街社区、大东街社区、西城社区、按院街社区）区域","full_address":"河北省张家口市宣化区天泰寺街道（牌楼西街社区、大东街社区、西城社区、按院街社区）区域","info":""}},{"type":"Feature","geometry":{"type":"Point","coordinates":[115.054466,40.60421]},"properties":{"province":"河北省","city":"张家口市","county":"宣化区","community":"南大街街道（吕祖庙社区、万字会社区、西草市社区）区域","full_address":"河北省张家口市宣化区南大街街道（吕祖庙社区、万字会社区、西草市社区）区域","info":""}},{"type":"Feature","geometry":{"type":"Point","coordinates":[115.096573,40.608192]},"properties":{"province":"河北省","city":"张家口市","county":"宣化区","community":"建国街街道（环保社区、南路社区、建北社区、建宣路社区）区域","full_address":"河北省张家口市宣化区建国街街道（环保社区、南路社区、建北社区、建宣路社区）区域","info":""}},{"type":"Feature","geometry":{"type":"Point","coordinates":[115.039078,40.617065]},"properties":{"province":"河北省","city":"张家口市","county":"宣化区","community":"皇城街道（皇城桥北社区、后府社区、大西街社区、万柳社区）区域","full_address":"河北省张家口市宣化区皇城街道（皇城桥北社区、后府社区、大西街社区、万柳社区）区域","info":""}},{"type":"Feature","geometry":{"type":"Point","coordinates":[115.068627,40.601218]},"properties":{"province":"河北省","city":"张家口市","county":"宣化区","community":"南关街道（顺城街社区、南关桥北社区）区域","full_address":"河北省张家口市宣化区南关街道（顺城街社区、南关桥北社区）区域","info":""}},{"type":"Feature","geometry":{"type":"Point","coordinates":[115.369682,40.676083]},"properties":{"province":"河北省","city":"张家口市","county":"宣化区","community":"赵川镇义合庄村","full_address":"河北省张家口市宣化区赵川镇义合庄村","info":""}},{"type":"Feature","geometry":{"type":"Point","coordinates":[113.986087,41.080042]},"properties":{"province":"河北省","city":"张家口市","county":"尚义县","community":"滨河新城住宅小区南区","full_address":"河北省张家口市尚义县滨河新城住宅小区南区","info":""}},{"type":"Feature","geometry":{"type":"Point","coordinates":[113.980144,41.075618]},"properties":{"province":"河北省","city":"张家口市","county":"尚义县","community":"太平南路新县医院对面华佗药房","full_address":"河北省张家口市尚义县太平南路新县医院对面华佗药房","info":""}},{"type":"Feature","geometry":{"type":"Point","coordinates":[113.986087,41.080042]},"properties":{"province":"河北省","city":"张家口市","county":"尚义县","community":"滨河新城住宅小区底商万德福超市","full_address":"河北省张家口市尚义县滨河新城住宅小区底商万德福超市","info":""}},{"type":"Feature","geometry":{"type":"Point","coordinates":[114.702934,40.680592]},"properties":{"province":"河北省","city":"张家口市","county":"怀安县","community":"左卫镇","full_address":"河北省张家口市怀安县左卫镇","info":""}},{"type":"Feature","geometry":{"type":"Point","coordinates":[115.575554,40.78812]},"properties":{"province":"河北省","city":"张家口市","county":"赤城县","community":"龙关镇福宴楼饭店","full_address":"河北省张家口市赤城县龙关镇福宴楼饭店","info":""}},{"type":"Feature","geometry":{"type":"Point","coordinates":[115.578598,40.785831]},"properties":{"province":"河北省","city":"张家口市","county":"赤城县","community":"龙关镇益盛缘食府","full_address":"河北省张家口市赤城县龙关镇益盛缘食府","info":""}},{"type":"Feature","geometry":{"type":"Point","coordinates":[115.578598,40.785831]},"properties":{"province":"河北省","city":"张家口市","county":"赤城县","community":"龙关镇商业街","full_address":"河北省张家口市赤城县龙关镇商业街","info":""}},{"type":"Feature","geometry":{"type":"Point","coordinates":[114.891304,40.772765]},"properties":{"province":"河北省","city":"张家口市","county":"经开区","community":"南站街道富强路社区河北北方学院东校区","full_address":"河北省张家口市经开区南站街道富强路社区河北北方学院东校区","info":""}},{"type":"Feature","geometry":{"type":"Point","coordinates":[114.929788,40.690771]},"properties":{"province":"河北省","city":"张家口市","county":"经开区","community":"沙岭子镇屈家庄村","full_address":"河北省张家口市经开区沙岭子镇屈家庄村","info":""}},{"type":"Feature","geometry":{"type":"Point","coordinates":[115.630386,37.731007]},"properties":{"province":"河北省","city":"衡水市","county":"高新区","community":"奥体花园小区周边的人民路以南、前进街以西、西外环以东、滏阳路以北区域","full_address":"河北省衡水市高新区奥体花园小区周边的人民路以南、前进街以西、西外环以东、滏阳路以北区域","info":""}},{"type":"Feature","geometry":{"type":"Point","coordinates":[115.141403,38.302505]},"properties":{"province":"河北省","city":"定州市","county":"定州市","community":"李亲顾镇韩家庄村","full_address":"河北省定州市定州市李亲顾镇韩家庄村","info":""}},{"type":"Feature","geometry":{"type":"Point","coordinates":[115.134521,38.300392]},"properties":{"province":"河北省","city":"定州市","county":"定州市","community":"李亲顾镇彭家庄村","full_address":"河北省定州市定州市李亲顾镇彭家庄村","info":""}},{"type":"Feature","geometry":{"type":"Point","coordinates":[115.145912,38.297752]},"properties":{"province":"河北省","city":"定州市","county":"定州市","community":"李亲顾镇楼底村","full_address":"河北省定州市定州市李亲顾镇楼底村","info":""}},{"type":"Feature","geometry":{"type":"Point","coordinates":[112.496889,37.818352]},"properties":{"province":"山西省","city":"太原市","county":"晋源区","community":"琳龙苑5号楼","full_address":"山西省太原市晋源区琳龙苑5号楼","info":""}},{"type":"Feature","geometry":{"type":"Point","coordinates":[112.495092,37.712788]},"properties":{"province":"山西省","city":"太原市","county":"晋源区","community":"翡翠山庄小区","full_address":"山西省太原市晋源区翡翠山庄小区","info":""}},{"type":"Feature","geometry":{"type":"Point","coordinates":[112.496071,37.71022]},"properties":{"province":"山西省","city":"太原市","county":"晋源区","community":"北河下村","full_address":"山西省太原市晋源区北河下村","info":""}},{"type":"Feature","geometry":{"type":"Point","coordinates":[113.276489,40.054096]},"properties":{"province":"山西省","city":"大同市","county":"平城区","community":"都挺好火盆烧烤店","full_address":"山西省大同市平城区都挺好火盆烧烤店","info":""}},{"type":"Feature","geometry":{"type":"Point","coordinates":[113.140221,40.006599]},"properties":{"province":"山西省","city":"大同市","county":"平城区","community":"东海浴园","full_address":"山西省大同市平城区东海浴园","info":""}},{"type":"Feature","geometry":{"type":"Point","coordinates":[113.367859,40.106453]},"properties":{"province":"山西省","city":"大同市","county":"平城区","community":"平城区镜湖园小区","full_address":"山西省大同市平城区平城区镜湖园小区","info":""}},{"type":"Feature","geometry":{"type":"Point","coordinates":[113.273727,40.053822]},"properties":{"province":"山西省","city":"大同市","county":"平城区","community":"平城区魏都新城D区","full_address":"山西省大同市平城区平城区魏都新城D区","info":""}},{"type":"Feature","geometry":{"type":"Point","coordinates":[112.43226,39.298977]},"properties":{"province":"山西省","city":"朔州市","county":"朔城区","community":"清华园小区全域","full_address":"山西省朔州市朔城区清华园小区全域","info":""}},{"type":"Feature","geometry":{"type":"Point","coordinates":[112.409103,39.312408]},"properties":{"province":"山西省","city":"朔州市","county":"朔城区","community":"家和苑中心社区所辖区域","full_address":"山西省朔州市朔城区家和苑中心社区所辖区域","info":""}},{"type":"Feature","geometry":{"type":"Point","coordinates":[112.451563,39.306265]},"properties":{"province":"山西省","city":"朔州市","county":"朔城区","community":"宏兴2区","full_address":"山西省朔州市朔城区宏兴2区","info":""}},{"type":"Feature","geometry":{"type":"Point","coordinates":[112.413066,39.299483]},"properties":{"province":"山西省","city":"朔州市","county":"朔城区","community":"泥河村","full_address":"山西省朔州市朔城区泥河村","info":""}},{"type":"Feature","geometry":{"type":"Point","coordinates":[112.433968,39.3186]},"properties":{"province":"山西省","city":"朔州市","county":"朔城区","community":"南城街道办事处鄯阳街以南辖区","full_address":"山西省朔州市朔城区南城街道办事处鄯阳街以南辖区","info":""}},{"type":"Feature","geometry":{"type":"Point","coordinates":[112.43531,39.289951]},"properties":{"province":"山西省","city":"朔州市","county":"朔城区","community":"北旺庄街道办事处所辖南泉村","full_address":"山西省朔州市朔城区北旺庄街道办事处所辖南泉村","info":""}},{"type":"Feature","geometry":{"type":"Point","coordinates":[112.428619,39.286392]},"properties":{"province":"山西省","city":"朔州市","county":"朔城区","community":"雒儿庄村","full_address":"山西省朔州市朔城区雒儿庄村","info":""}},{"type":"Feature","geometry":{"type":"Point","coordinates":[112.423859,39.292473]},"properties":{"province":"山西省","city":"朔州市","county":"朔城区","community":"京城港中心社区","full_address":"山西省朔州市朔城区京城港中心社区","info":""}},{"type":"Feature","geometry":{"type":"Point","coordinates":[112.413254,39.279312]},"properties":{"province":"山西省","city":"朔州市","county":"朔城区","community":"油房头村","full_address":"山西省朔州市朔城区油房头村","info":""}},{"type":"Feature","geometry":{"type":"Point","coordinates":[112.385384,39.287422]},"properties":{"province":"山西省","city":"朔州市","county":"朔城区","community":"厦阁村","full_address":"山西省朔州市朔城区厦阁村","info":""}},{"type":"Feature","geometry":{"type":"Point","coordinates":[112.394722,39.287621]},"properties":{"province":"山西省","city":"朔州市","county":"朔城区","community":"野狐涧村","full_address":"山西省朔州市朔城区野狐涧村","info":""}},{"type":"Feature","geometry":{"type":"Point","coordinates":[112.400101,39.290092]},"properties":{"province":"山西省","city":"朔州市","county":"朔城区","community":"南磨村","full_address":"山西省朔州市朔城区南磨村","info":""}},{"type":"Feature","geometry":{"type":"Point","coordinates":[111.034621,35.103434]},"properties":{"province":"山西省","city":"运城市","county":"盐湖区","community":"学府名都小区","full_address":"山西省运城市盐湖区学府名都小区","info":""}},{"type":"Feature","geometry":{"type":"Point","coordinates":[110.963202,35.094384]},"properties":{"province":"山西省","city":"运城市","county":"盐湖区","community":"高速小区","full_address":"山西省运城市盐湖区高速小区","info":""}},{"type":"Feature","geometry":{"type":"Point","coordinates":[110.981047,35.047247]},"properties":{"province":"山西省","city":"运城市","county":"盐湖区","community":"北城印象小区","full_address":"山西省运城市盐湖区北城印象小区","info":""}},{"type":"Feature","geometry":{"type":"Point","coordinates":[110.975293,35.050836]},"properties":{"province":"山西省","city":"运城市","county":"盐湖区","community":"时代嘉园小区","full_address":"山西省运城市盐湖区时代嘉园小区","info":""}},{"type":"Feature","geometry":{"type":"Point","coordinates":[110.999996,35.055899]},"properties":{"province":"山西省","city":"运城市","county":"盐湖区","community":"幸福里·铂郡小区","full_address":"山西省运城市盐湖区幸福里·铂郡小区","info":""}},{"type":"Feature","geometry":{"type":"Point","coordinates":[111.014596,35.056925]},"properties":{"province":"山西省","city":"运城市","county":"盐湖区","community":"泰森华林逸墅小区","full_address":"山西省运城市盐湖区泰森华林逸墅小区","info":""}},{"type":"Feature","geometry":{"type":"Point","coordinates":[110.998192,35.011582]},"properties":{"province":"山西省","city":"运城市","county":"盐湖区","community":"盐化社区日化小区","full_address":"山西省运城市盐湖区盐化社区日化小区","info":""}},{"type":"Feature","geometry":{"type":"Point","coordinates":[111.013356,35.065137]},"properties":{"province":"山西省","city":"运城市","county":"盐湖区","community":"港府名都小区","full_address":"山西省运城市盐湖区港府名都小区","info":""}},{"type":"Feature","geometry":{"type":"Point","coordinates":[111.01664,35.044284]},"properties":{"province":"山西省","city":"运城市","county":"盐湖区","community":"东星向上广场B座","full_address":"山西省运城市盐湖区东星向上广场B座","info":""}},{"type":"Feature","geometry":{"type":"Point","coordinates":[110.975016,35.074]},"properties":{"province":"山西省","city":"运城市","county":"盐湖区","community":"安得公寓","full_address":"山西省运城市盐湖区安得公寓","info":""}},{"type":"Feature","geometry":{"type":"Point","coordinates":[110.984009,35.099079]},"properties":{"province":"山西省","city":"运城市","county":"盐湖区","community":"太原铁路公安局临汾公安处运城北车站派出所","full_address":"山西省运城市盐湖区太原铁路公安局临汾公安处运城北车站派出所","info":""}},{"type":"Feature","geometry":{"type":"Point","coordinates":[111.0202,35.023394]},"properties":{"province":"山西省","city":"运城市","county":"盐湖区","community":"金鑫金悦华府小区","full_address":"山西省运城市盐湖区金鑫金悦华府小区","info":""}},{"type":"Feature","geometry":{"type":"Point","coordinates":[110.99817,35.01505]},"properties":{"province":"山西省","city":"运城市","county":"盐湖区","community":"中贸佳苑小区","full_address":"山西省运城市盐湖区中贸佳苑小区","info":""}},{"type":"Feature","geometry":{"type":"Point","coordinates":[111.037498,35.098534]},"properties":{"province":"山西省","city":"运城市","county":"盐湖区","community":"凤鸣苑小区","full_address":"山西省运城市盐湖区凤鸣苑小区","info":""}},{"type":"Feature","geometry":{"type":"Point","coordinates":[110.998839,35.013228]},"properties":{"province":"山西省","city":"运城市","county":"盐湖区","community":"钟楼小区","full_address":"山西省运城市盐湖区钟楼小区","info":""}},{"type":"Feature","geometry":{"type":"Point","coordinates":[110.989656,35.055689]},"properties":{"province":"山西省","city":"运城市","county":"盐湖区","community":"理想城小区","full_address":"山西省运城市盐湖区理想城小区","info":""}},{"type":"Feature","geometry":{"type":"Point","coordinates":[111.026337,35.072338]},"properties":{"province":"山西省","city":"运城市","county":"盐湖区","community":"尚东城小区","full_address":"山西省运城市盐湖区尚东城小区","info":""}},{"type":"Feature","geometry":{"type":"Point","coordinates":[111.023885,35.074824]},"properties":{"province":"山西省","city":"运城市","county":"盐湖区","community":"恺鑫·橄榄城小区","full_address":"山西省运城市盐湖区恺鑫·橄榄城小区","info":""}},{"type":"Feature","geometry":{"type":"Point","coordinates":[110.996986,35.016998]},"properties":{"province":"山西省","city":"运城市","county":"盐湖区","community":"建国饭店","full_address":"山西省运城市盐湖区建国饭店","info":""}},{"type":"Feature","geometry":{"type":"Point","coordinates":[111.001037,35.030251]},"properties":{"province":"山西省","city":"运城市","county":"盐湖区","community":"测绘队家属院2号楼","full_address":"山西省运城市盐湖区测绘队家属院2号楼","info":""}},{"type":"Feature","geometry":{"type":"Point","coordinates":[111.008804,35.058723]},"properties":{"province":"山西省","city":"运城市","county":"盐湖区","community":"留驾庄村","full_address":"山西省运城市盐湖区留驾庄村","info":""}},{"type":"Feature","geometry":{"type":"Point","coordinates":[111.0307,35.07981]},"properties":{"province":"山西省","city":"运城市","county":"盐湖区","community":"大市北村","full_address":"山西省运城市盐湖区大市北村","info":""}},{"type":"Feature","geometry":{"type":"Point","coordinates":[110.953343,34.985025]},"properties":{"province":"山西省","city":"运城市","county":"盐湖区","community":"下堡头村","full_address":"山西省运城市盐湖区下堡头村","info":""}},{"type":"Feature","geometry":{"type":"Point","coordinates":[110.992729,34.946369]},"properties":{"province":"山西省","city":"运城市","county":"盐湖区","community":"银张村","full_address":"山西省运城市盐湖区银张村","info":""}},{"type":"Feature","geometry":{"type":"Point","coordinates":[111.011497,35.096851]},"properties":{"province":"山西省","city":"运城市","county":"盐湖区","community":"下王村","full_address":"山西省运城市盐湖区下王村","info":""}},{"type":"Feature","geometry":{"type":"Point","coordinates":[110.998272,35.015101]},"properties":{"province":"山西省","city":"运城市","county":"盐湖区","community":"新南村","full_address":"山西省运城市盐湖区新南村","info":""}},{"type":"Feature","geometry":{"type":"Point","coordinates":[110.912842,35.075451]},"properties":{"province":"山西省","city":"运城市","county":"盐湖区","community":"南孙坞村","full_address":"山西省运城市盐湖区南孙坞村","info":""}},{"type":"Feature","geometry":{"type":"Point","coordinates":[111.036659,35.081371]},"properties":{"province":"山西省","city":"运城市","county":"盐湖区","community":"山西飞耀汽修有限公司","full_address":"山西省运城市盐湖区山西飞耀汽修有限公司","info":""}},{"type":"Feature","geometry":{"type":"Point","coordinates":[110.99817,35.01505]},"properties":{"province":"山西省","city":"运城市","county":"盐湖区","community":"山西利业管材有限公司","full_address":"山西省运城市盐湖区山西利业管材有限公司","info":""}},{"type":"Feature","geometry":{"type":"Point","coordinates":[110.944595,35.118492]},"properties":{"province":"山西省","city":"运城市","county":"盐湖区","community":"舜德佳园小区除大D区24号楼外其余区域","full_address":"山西省运城市盐湖区舜德佳园小区除大D区24号楼外其余区域","info":""}},{"type":"Feature","geometry":{"type":"Point","coordinates":[111.015106,35.089039]},"properties":{"province":"山西省","city":"运城市","county":"盐湖区","community":"大禹街鼎鼎项目工地","full_address":"山西省运城市盐湖区大禹街鼎鼎项目工地","info":""}},{"type":"Feature","geometry":{"type":"Point","coordinates":[110.9991,35.03907]},"properties":{"province":"山西省","city":"运城市","county":"盐湖区","community":"北海雅苑小区除1号楼外其余区域","full_address":"山西省运城市盐湖区北海雅苑小区除1号楼外其余区域","info":""}},{"type":"Feature","geometry":{"type":"Point","coordinates":[110.99817,35.01505]},"properties":{"province":"山西省","city":"运城市","county":"盐湖区","community":"中铁三局黄河金三角(运城)创新生态集聚区科创城项目","full_address":"山西省运城市盐湖区中铁三局黄河金三角(运城)创新生态集聚区科创城项目","info":""}},{"type":"Feature","geometry":{"type":"Point","coordinates":[110.972931,35.042213]},"properties":{"province":"山西省","city":"运城市","county":"盐湖区","community":"北城办事处东留村水立方小区","full_address":"山西省运城市盐湖区北城办事处东留村水立方小区","info":""}},{"type":"Feature","geometry":{"type":"Point","coordinates":[111.03878,35.06509]},"properties":{"province":"山西省","city":"运城市","county":"盐湖区","community":"安邑办事处西里庄村","full_address":"山西省运城市盐湖区安邑办事处西里庄村","info":""}},{"type":"Feature","geometry":{"type":"Point","coordinates":[111.057571,35.09288]},"properties":{"province":"山西省","city":"运城市","county":"盐湖区","community":"尚上府邸小区除1号楼外其余区域","full_address":"山西省运城市盐湖区尚上府邸小区除1号楼外其余区域","info":""}},{"type":"Feature","geometry":{"type":"Point","coordinates":[110.988045,34.999886]},"properties":{"province":"山西省","city":"运城市","county":"盐湖区","community":"圣惠嘉园小区除40号楼外其余区域","full_address":"山西省运城市盐湖区圣惠嘉园小区除40号楼外其余区域","info":""}},{"type":"Feature","geometry":{"type":"Point","coordinates":[111.021927,35.039188]},"properties":{"province":"山西省","city":"运城市","county":"盐湖区","community":"香榭丽舍小区除7号楼外其余区域","full_address":"山西省运城市盐湖区香榭丽舍小区除7号楼外其余区域","info":""}},{"type":"Feature","geometry":{"type":"Point","coordinates":[111.013824,35.045315]},"properties":{"province":"山西省","city":"运城市","county":"盐湖区","community":"禹香苑小区除31号楼外其余区域","full_address":"山西省运城市盐湖区禹香苑小区除31号楼外其余区域","info":""}},{"type":"Feature","geometry":{"type":"Point","coordinates":[110.970589,35.04026]},"properties":{"province":"山西省","city":"运城市","county":"盐湖区","community":"龙凤苑小区除2号楼外其余区域","full_address":"山西省运城市盐湖区龙凤苑小区除2号楼外其余区域","info":""}},{"type":"Feature","geometry":{"type":"Point","coordinates":[111.017563,35.030361]},"properties":{"province":"山西省","city":"运城市","county":"盐湖区","community":"市委党校除宿舍2、5号楼外其余区域","full_address":"山西省运城市盐湖区市委党校除宿舍2、5号楼外其余区域","info":""}},{"type":"Feature","geometry":{"type":"Point","coordinates":[111.003052,35.065792]},"properties":{"province":"山西省","city":"运城市","county":"盐湖区","community":"华源豪庭北区除17号楼外其余区域","full_address":"山西省运城市盐湖区华源豪庭北区除17号楼外其余区域","info":""}},{"type":"Feature","geometry":{"type":"Point","coordinates":[110.986893,35.019634]},"properties":{"province":"山西省","city":"运城市","county":"盐湖区","community":"市五交化家属院除1号楼外其余区域","full_address":"山西省运城市盐湖区市五交化家属院除1号楼外其余区域","info":""}},{"type":"Feature","geometry":{"type":"Point","coordinates":[110.985939,35.01157]},"properties":{"province":"山西省","city":"运城市","county":"盐湖区","community":"华都佳苑小区除2号楼外其余区域","full_address":"山西省运城市盐湖区华都佳苑小区除2号楼外其余区域","info":""}},{"type":"Feature","geometry":{"type":"Point","coordinates":[111.018547,35.083611]},"properties":{"province":"山西省","city":"运城市","county":"盐湖区","community":"豪德市场","full_address":"山西省运城市盐湖区豪德市场","info":""}},{"type":"Feature","geometry":{"type":"Point","coordinates":[110.97406,34.999992]},"properties":{"province":"山西省","city":"运城市","county":"盐湖区","community":"西城办杜家村","full_address":"山西省运城市盐湖区西城办杜家村","info":""}},{"type":"Feature","geometry":{"type":"Point","coordinates":[110.910583,35.222763]},"properties":{"province":"山西省","city":"运城市","county":"盐湖区","community":"上郭乡中陈村中西巷之外区域","full_address":"山西省运城市盐湖区上郭乡中陈村中西巷之外区域","info":""}},{"type":"Feature","geometry":{"type":"Point","coordinates":[111.016724,35.058319]},"properties":{"province":"山西省","city":"运城市","county":"盐湖区","community":"沁水雅居小区5号楼之外区域","full_address":"山西省运城市盐湖区沁水雅居小区5号楼之外区域","info":""}},{"type":"Feature","geometry":{"type":"Point","coordinates":[110.99317,35.04338]},"properties":{"province":"山西省","city":"运城市","county":"盐湖区","community":"海天花苑小区2号楼之外区域","full_address":"山西省运城市盐湖区海天花苑小区2号楼之外区域","info":""}},{"type":"Feature","geometry":{"type":"Point","coordinates":[111.023872,35.025719]},"properties":{"province":"山西省","city":"运城市","county":"盐湖区","community":"宏运佳园小区1、2、3号楼之外区域","full_address":"山西省运城市盐湖区宏运佳园小区1、2、3号楼之外区域","info":""}},{"type":"Feature","geometry":{"type":"Point","coordinates":[110.935783,35.1432]},"properties":{"province":"山西省","city":"运城市","county":"盐湖区","community":"北相镇北相村","full_address":"山西省运城市盐湖区北相镇北相村","info":""}},{"type":"Feature","geometry":{"type":"Point","coordinates":[111.03878,35.06509]},"properties":{"province":"山西省","city":"运城市","county":"盐湖区","community":"安邑办事处东杨家卓村","full_address":"山西省运城市盐湖区安邑办事处东杨家卓村","info":""}},{"type":"Feature","geometry":{"type":"Point","coordinates":[111.0631,35.10396]},"properties":{"province":"山西省","city":"运城市","county":"盐湖区","community":"哈佛家园小区","full_address":"山西省运城市盐湖区哈佛家园小区","info":""}},{"type":"Feature","geometry":{"type":"Point","coordinates":[111.03878,35.06509]},"properties":{"province":"山西省","city":"运城市","county":"盐湖区","community":"安邑办事处冯家卓村","full_address":"山西省运城市盐湖区安邑办事处冯家卓村","info":""}},{"type":"Feature","geometry":{"type":"Point","coordinates":[110.995018,35.085281]},"properties":{"province":"山西省","city":"运城市","county":"盐湖区","community":"鑫世纪花园小区","full_address":"山西省运城市盐湖区鑫世纪花园小区","info":""}},{"type":"Feature","geometry":{"type":"Point","coordinates":[110.9604,35.04844]},"properties":{"province":"山西省","city":"运城市","county":"盐湖区","community":"华源小区","full_address":"山西省运城市盐湖区华源小区","info":""}},{"type":"Feature","geometry":{"type":"Point","coordinates":[110.9898,35.05265]},"properties":{"province":"山西省","city":"运城市","county":"盐湖区","community":"怡景华庭(条山街)","full_address":"山西省运城市盐湖区怡景华庭(条山街)","info":""}},{"type":"Feature","geometry":{"type":"Point","coordinates":[110.99817,35.01505]},"properties":{"province":"山西省","city":"运城市","county":"盐湖区","community":"大学苑小区","full_address":"山西省运城市盐湖区大学苑小区","info":""}},{"type":"Feature","geometry":{"type":"Point","coordinates":[110.977386,35.069801]},"properties":{"province":"山西省","city":"运城市","county":"盐湖区","community":"花园新居小区","full_address":"山西省运城市盐湖区花园新居小区","info":""}},{"type":"Feature","geometry":{"type":"Point","coordinates":[110.971298,35.074291]},"properties":{"province":"山西省","city":"运城市","county":"盐湖区","community":"姚孟办事处樊村","full_address":"山西省运城市盐湖区姚孟办事处樊村","info":""}},{"type":"Feature","geometry":{"type":"Point","coordinates":[110.912384,35.000183]},"properties":{"province":"山西省","city":"运城市","county":"盐湖区","community":"龙居镇羊村","full_address":"山西省运城市盐湖区龙居镇羊村","info":""}},{"type":"Feature","geometry":{"type":"Point","coordinates":[110.982323,35.033409]},"properties":{"province":"山西省","city":"运城市","county":"盐湖区","community":"运输公司家属院","full_address":"山西省运城市盐湖区运输公司家属院","info":""}},{"type":"Feature","geometry":{"type":"Point","coordinates":[110.9969,35.03959]},"properties":{"province":"山西省","city":"运城市","county":"盐湖区","community":"尚德小区","full_address":"山西省运城市盐湖区尚德小区","info":""}},{"type":"Feature","geometry":{"type":"Point","coordinates":[110.998131,35.008381]},"properties":{"province":"山西省","city":"运城市","county":"盐湖区","community":"泰山巷西5巷","full_address":"山西省运城市盐湖区泰山巷西5巷","info":""}},{"type":"Feature","geometry":{"type":"Point","coordinates":[111.0646,35.10997]},"properties":{"province":"山西省","city":"运城市","county":"盐湖区","community":"幸福小镇小区A区7号楼","full_address":"山西省运城市盐湖区幸福小镇小区A区7号楼","info":""}},{"type":"Feature","geometry":{"type":"Point","coordinates":[111.024,35.0871]},"properties":{"province":"山西省","city":"运城市","county":"盐湖区","community":"安邑办事处军屯村一组除外其余区域","full_address":"山西省运城市盐湖区安邑办事处军屯村一组除外其余区域","info":""}},{"type":"Feature","geometry":{"type":"Point","coordinates":[110.99817,35.01505]},"properties":{"province":"山西省","city":"运城市","county":"盐湖区","community":"北城办事处状元府小区6号楼除外其余区域","full_address":"山西省运城市盐湖区北城办事处状元府小区6号楼除外其余区域","info":""}},{"type":"Feature","geometry":{"type":"Point","coordinates":[110.964844,35.027912]},"properties":{"province":"山西省","city":"运城市","county":"盐湖区","community":"北城办事处新丰花园15号楼除外其余区域","full_address":"山西省运城市盐湖区北城办事处新丰花园15号楼除外其余区域","info":""}},{"type":"Feature","geometry":{"type":"Point","coordinates":[111.020287,35.034218]},"properties":{"province":"山西省","city":"运城市","county":"盐湖区","community":"东城办事处槐东花园18号楼除外其余区域","full_address":"山西省运城市盐湖区东城办事处槐东花园18号楼除外其余区域","info":""}},{"type":"Feature","geometry":{"type":"Point","coordinates":[111.029823,35.091228]},"properties":{"province":"山西省","city":"运城市","county":"盐湖区","community":"安邑办事处东站嘉园10号楼除外其余区域","full_address":"山西省运城市盐湖区安邑办事处东站嘉园10号楼除外其余区域","info":""}},{"type":"Feature","geometry":{"type":"Point","coordinates":[110.994164,35.02364]},"properties":{"province":"山西省","city":"运城市","county":"盐湖区","community":"中城办事处八一市场除二巷之外其余区域","full_address":"山西省运城市盐湖区中城办事处八一市场除二巷之外其余区域","info":""}},{"type":"Feature","geometry":{"type":"Point","coordinates":[110.846302,35.421102]},"properties":{"province":"山西省","city":"运城市","county":"万荣县","community":"香江广场好又多超市","full_address":"山西省运城市万荣县香江广场好又多超市","info":""}},{"type":"Feature","geometry":{"type":"Point","coordinates":[110.838024,35.415254]},"properties":{"province":"山西省","city":"运城市","county":"万荣县","community":"医华小区","full_address":"山西省运城市万荣县医华小区","info":""}},{"type":"Feature","geometry":{"type":"Point","coordinates":[110.838024,35.415254]},"properties":{"province":"山西省","city":"运城市","county":"万荣县","community":"香江公寓整栋楼","full_address":"山西省运城市万荣县香江公寓整栋楼","info":""}},{"type":"Feature","geometry":{"type":"Point","coordinates":[110.832538,35.420272]},"properties":{"province":"山西省","city":"运城市","county":"万荣县","community":"解店镇新城村","full_address":"山西省运城市万荣县解店镇新城村","info":""}},{"type":"Feature","geometry":{"type":"Point","coordinates":[110.828565,35.40569]},"properties":{"province":"山西省","city":"运城市","county":"万荣县","community":"解店镇西解村","full_address":"山西省运城市万荣县解店镇西解村","info":""}},{"type":"Feature","geometry":{"type":"Point","coordinates":[110.598167,35.400913]},"properties":{"province":"山西省","city":"运城市","county":"万荣县","community":"光华乡西光华村","full_address":"山西省运城市万荣县光华乡西光华村","info":""}},{"type":"Feature","geometry":{"type":"Point","coordinates":[110.851112,35.423717]},"properties":{"province":"山西省","city":"运城市","county":"万荣县","community":"龙润庭小区除1号楼外其他区域","full_address":"山西省运城市万荣县龙润庭小区除1号楼外其他区域","info":""}},{"type":"Feature","geometry":{"type":"Point","coordinates":[110.846527,35.420029]},"properties":{"province":"山西省","city":"运城市","county":"万荣县","community":"8090快捷酒店","full_address":"山西省运城市万荣县8090快捷酒店","info":""}},{"type":"Feature","geometry":{"type":"Point","coordinates":[110.852005,35.415062]},"properties":{"province":"山西省","city":"运城市","county":"万荣县","community":"佳馨公寓","full_address":"山西省运城市万荣县佳馨公寓","info":""}},{"type":"Feature","geometry":{"type":"Point","coordinates":[110.820747,35.408123]},"properties":{"province":"山西省","city":"运城市","county":"万荣县","community":"解店镇芦邑村","full_address":"山西省运城市万荣县解店镇芦邑村","info":""}},{"type":"Feature","geometry":{"type":"Point","coordinates":[110.843628,35.41811]},"properties":{"province":"山西省","city":"运城市","county":"万荣县","community":"锦绣华庭小区除6号楼、10号楼外其他区域","full_address":"山西省运城市万荣县锦绣华庭小区除6号楼、10号楼外其他区域","info":""}},{"type":"Feature","geometry":{"type":"Point","coordinates":[110.848385,35.400452]},"properties":{"province":"山西省","city":"运城市","county":"万荣县","community":"恒泰花苑小区","full_address":"山西省运城市万荣县恒泰花苑小区","info":""}},{"type":"Feature","geometry":{"type":"Point","coordinates":[110.846495,35.419044]},"properties":{"province":"山西省","city":"运城市","county":"万荣县","community":"宝鼎新城小区","full_address":"山西省运城市万荣县宝鼎新城小区","info":""}},{"type":"Feature","geometry":{"type":"Point","coordinates":[110.829071,35.421425]},"properties":{"province":"山西省","city":"运城市","county":"万荣县","community":"飞云小区","full_address":"山西省运城市万荣县飞云小区","info":""}},{"type":"Feature","geometry":{"type":"Point","coordinates":[111.22031,35.14136]},"properties":{"province":"山西省","city":"运城市","county":"夏县","community":"苏解村","full_address":"山西省运城市夏县苏解村","info":""}},{"type":"Feature","geometry":{"type":"Point","coordinates":[111.200661,35.152943]},"properties":{"province":"山西省","city":"运城市","county":"夏县","community":"中留西庄自然村","full_address":"山西省运城市夏县中留西庄自然村","info":""}},{"type":"Feature","geometry":{"type":"Point","coordinates":[111.13092,35.111866]},"properties":{"province":"山西省","city":"运城市","county":"夏县","community":"裴介镇老梁超市","full_address":"山西省运城市夏县裴介镇老梁超市","info":""}},{"type":"Feature","geometry":{"type":"Point","coordinates":[110.700851,34.707226]},"properties":{"province":"山西省","city":"运城市","county":"芮城县","community":"金茂首府小区2号楼2单元","full_address":"山西省运城市芮城县金茂首府小区2号楼2单元","info":""}},{"type":"Feature","geometry":{"type":"Point","coordinates":[110.511513,34.616344]},"properties":{"province":"山西省","city":"运城市","county":"芮城县","community":"永乐镇新村行政村下辖的新村自然村北一东巷","full_address":"山西省运城市芮城县永乐镇新村行政村下辖的新村自然村北一东巷","info":""}},{"type":"Feature","geometry":{"type":"Point","coordinates":[110.697487,34.696201]},"properties":{"province":"山西省","city":"运城市","county":"芮城县","community":"古魏镇北关村向阳东巷9号","full_address":"山西省运城市芮城县古魏镇北关村向阳东巷9号","info":""}},{"type":"Feature","geometry":{"type":"Point","coordinates":[110.628311,36.744743]},"properties":{"province":"山西省","city":"临汾市","county":"永和县","community":"芝河镇药家湾村河那边（东至刘五叶住宅（含）；南至段野林住宅（含）；西至河东路（含）；北至刘海泉住宅（含）。）","full_address":"山西省临汾市永和县芝河镇药家湾村河那边（东至刘五叶住宅（含）；南至段野林住宅（含）；西至河东路（含）；北至刘海泉住宅（含）。）","info":""}},{"type":"Feature","geometry":{"type":"Point","coordinates":[111.902893,37.14687]},"properties":{"province":"山西省","city":"吕梁市","county":"孝义市","community":"大孝堡镇南小堡村","full_address":"山西省吕梁市孝义市大孝堡镇南小堡村","info":""}},{"type":"Feature","geometry":{"type":"Point","coordinates":[111.911102,37.14246]},"properties":{"province":"山西省","city":"吕梁市","county":"孝义市","community":"南船头村","full_address":"山西省吕梁市孝义市南船头村","info":""}},{"type":"Feature","geometry":{"type":"Point","coordinates":[111.90197,37.133781]},"properties":{"province":"山西省","city":"吕梁市","county":"孝义市","community":"大堡村","full_address":"山西省吕梁市孝义市大堡村","info":""}},{"type":"Feature","geometry":{"type":"Point","coordinates":[111.70113,40.844453]},"properties":{"province":"内蒙古自治区","city":"呼和浩特市","county":"新城区","community":"丽苑阳光城小区","full_address":"内蒙古自治区呼和浩特市新城区丽苑阳光城小区","info":""}},{"type":"Feature","geometry":{"type":"Point","coordinates":[111.67246,40.816052]},"properties":{"province":"内蒙古自治区","city":"呼和浩特市","county":"新城区","community":"团结巷人事厅宿舍","full_address":"内蒙古自治区呼和浩特市新城区团结巷人事厅宿舍","info":""}},{"type":"Feature","geometry":{"type":"Point","coordinates":[111.942808,40.912936]},"properties":{"province":"内蒙古自治区","city":"呼和浩特市","county":"新城区","community":"保合少镇移民村","full_address":"内蒙古自治区呼和浩特市新城区保合少镇移民村","info":""}},{"type":"Feature","geometry":{"type":"Point","coordinates":[111.748462,40.856862]},"properties":{"province":"内蒙古自治区","city":"呼和浩特市","county":"新城区","community":"南店滨水新村小区","full_address":"内蒙古自治区呼和浩特市新城区南店滨水新村小区","info":""}},{"type":"Feature","geometry":{"type":"Point","coordinates":[111.661205,40.844571]},"properties":{"province":"内蒙古自治区","city":"呼和浩特市","county":"新城区","community":"供电局住宅楼","full_address":"内蒙古自治区呼和浩特市新城区供电局住宅楼","info":""}},{"type":"Feature","geometry":{"type":"Point","coordinates":[111.84718,40.9852]},"properties":{"province":"内蒙古自治区","city":"呼和浩特市","county":"新城区","community":"小井沟素质教育基地","full_address":"内蒙古自治区呼和浩特市新城区小井沟素质教育基地","info":""}},{"type":"Feature","geometry":{"type":"Point","coordinates":[111.749345,40.861456]},"properties":{"province":"内蒙古自治区","city":"呼和浩特市","county":"新城区","community":"衡达丁香河畔","full_address":"内蒙古自治区呼和浩特市新城区衡达丁香河畔","info":""}},{"type":"Feature","geometry":{"type":"Point","coordinates":[111.837072,40.931535]},"properties":{"province":"内蒙古自治区","city":"呼和浩特市","county":"新城区","community":"古路板南村","full_address":"内蒙古自治区呼和浩特市新城区古路板南村","info":""}},{"type":"Feature","geometry":{"type":"Point","coordinates":[111.666354,40.843616]},"properties":{"province":"内蒙古自治区","city":"呼和浩特市","county":"新城区","community":"华新小区","full_address":"内蒙古自治区呼和浩特市新城区华新小区","info":""}},{"type":"Feature","geometry":{"type":"Point","coordinates":[111.692234,40.856735]},"properties":{"province":"内蒙古自治区","city":"呼和浩特市","county":"新城区","community":"5303小区","full_address":"内蒙古自治区呼和浩特市新城区5303小区","info":""}},{"type":"Feature","geometry":{"type":"Point","coordinates":[111.70119,40.860199]},"properties":{"province":"内蒙古自治区","city":"呼和浩特市","county":"新城区","community":"圣廷小区","full_address":"内蒙古自治区呼和浩特市新城区圣廷小区","info":""}},{"type":"Feature","geometry":{"type":"Point","coordinates":[111.691399,40.842815]},"properties":{"province":"内蒙古自治区","city":"呼和浩特市","county":"新城区","community":"公路工程处家属院","full_address":"内蒙古自治区呼和浩特市新城区公路工程处家属院","info":""}},{"type":"Feature","geometry":{"type":"Point","coordinates":[111.685929,40.830762]},"properties":{"province":"内蒙古自治区","city":"呼和浩特市","county":"新城区","community":"煤气小区","full_address":"内蒙古自治区呼和浩特市新城区煤气小区","info":""}},{"type":"Feature","geometry":{"type":"Point","coordinates":[111.69806,40.837317]},"properties":{"province":"内蒙古自治区","city":"呼和浩特市","county":"新城区","community":"鼎盛华世纪广场公寓楼","full_address":"内蒙古自治区呼和浩特市新城区鼎盛华世纪广场公寓楼","info":""}},{"type":"Feature","geometry":{"type":"Point","coordinates":[111.742095,40.867685]},"properties":{"province":"内蒙古自治区","city":"呼和浩特市","county":"新城区","community":"舜和慢城","full_address":"内蒙古自治区呼和浩特市新城区舜和慢城","info":""}},{"type":"Feature","geometry":{"type":"Point","coordinates":[111.665544,40.858289]},"properties":{"province":"内蒙古自治区","city":"呼和浩特市","county":"新城区","community":"科协宿舍楼","full_address":"内蒙古自治区呼和浩特市新城区科协宿舍楼","info":""}},{"type":"Feature","geometry":{"type":"Point","coordinates":[111.673357,40.813964]},"properties":{"province":"内蒙古自治区","city":"呼和浩特市","county":"新城区","community":"内蒙古医院家属院","full_address":"内蒙古自治区呼和浩特市新城区内蒙古医院家属院","info":""}},{"type":"Feature","geometry":{"type":"Point","coordinates":[111.740825,40.877757]},"properties":{"province":"内蒙古自治区","city":"呼和浩特市","county":"新城区","community":"华润置地幸福里2号楼","full_address":"内蒙古自治区呼和浩特市新城区华润置地幸福里2号楼","info":""}},{"type":"Feature","geometry":{"type":"Point","coordinates":[111.677702,40.839498]},"properties":{"province":"内蒙古自治区","city":"呼和浩特市","county":"新城区","community":"凤凰新城小区(除12号楼)","full_address":"内蒙古自治区呼和浩特市新城区凤凰新城小区(除12号楼)","info":""}},{"type":"Feature","geometry":{"type":"Point","coordinates":[111.653183,40.848202]},"properties":{"province":"内蒙古自治区","city":"呼和浩特市","county":"新城区","community":"天府花园(除22号楼)","full_address":"内蒙古自治区呼和浩特市新城区天府花园(除22号楼)","info":""}},{"type":"Feature","geometry":{"type":"Point","coordinates":[111.717595,40.836826]},"properties":{"province":"内蒙古自治区","city":"呼和浩特市","county":"新城区","community":"预制厂小区（除5号楼）","full_address":"内蒙古自治区呼和浩特市新城区预制厂小区（除5号楼）","info":""}},{"type":"Feature","geometry":{"type":"Point","coordinates":[111.65358,40.829342]},"properties":{"province":"内蒙古自治区","city":"呼和浩特市","county":"新城区","community":"石油小区（除1号楼）","full_address":"内蒙古自治区呼和浩特市新城区石油小区（除1号楼）","info":""}},{"type":"Feature","geometry":{"type":"Point","coordinates":[111.659561,40.832821]},"properties":{"province":"内蒙古自治区","city":"呼和浩特市","county":"新城区","community":"道北5小区（除工程5号楼）","full_address":"内蒙古自治区呼和浩特市新城区道北5小区（除工程5号楼）","info":""}},{"type":"Feature","geometry":{"type":"Point","coordinates":[111.651294,40.85633]},"properties":{"province":"内蒙古自治区","city":"呼和浩特市","county":"新城区","community":"维多利橄榄城（除6号楼、11号楼）","full_address":"内蒙古自治区呼和浩特市新城区维多利橄榄城（除6号楼、11号楼）","info":""}},{"type":"Feature","geometry":{"type":"Point","coordinates":[111.679985,40.872517]},"properties":{"province":"内蒙古自治区","city":"呼和浩特市","county":"新城区","community":"团校巷宿舍楼（除2号楼）","full_address":"内蒙古自治区呼和浩特市新城区团校巷宿舍楼（除2号楼）","info":""}},{"type":"Feature","geometry":{"type":"Point","coordinates":[111.698868,40.832932]},"properties":{"province":"内蒙古自治区","city":"呼和浩特市","county":"新城区","community":"城建小区（除16号楼）","full_address":"内蒙古自治区呼和浩特市新城区城建小区（除16号楼）","info":""}},{"type":"Feature","geometry":{"type":"Point","coordinates":[111.676659,40.825119]},"properties":{"province":"内蒙古自治区","city":"呼和浩特市","county":"新城区","community":"财院西小区（西院）（除2号楼）","full_address":"内蒙古自治区呼和浩特市新城区财院西小区（西院）（除2号楼）","info":""}},{"type":"Feature","geometry":{"type":"Point","coordinates":[111.719063,40.836548]},"properties":{"province":"内蒙古自治区","city":"呼和浩特市","county":"新城区","community":"电建二公司家属楼","full_address":"内蒙古自治区呼和浩特市新城区电建二公司家属楼","info":""}},{"type":"Feature","geometry":{"type":"Point","coordinates":[111.686104,40.824791]},"properties":{"province":"内蒙古自治区","city":"呼和浩特市","county":"新城区","community":"公安厅小区统建楼（除2号楼、3号楼）","full_address":"内蒙古自治区呼和浩特市新城区公安厅小区统建楼（除2号楼、3号楼）","info":""}},{"type":"Feature","geometry":{"type":"Point","coordinates":[111.685188,40.830677]},"properties":{"province":"内蒙古自治区","city":"呼和浩特市","county":"新城区","community":"曙光街电子研究所家属楼（除2号楼）","full_address":"内蒙古自治区呼和浩特市新城区曙光街电子研究所家属楼（除2号楼）","info":""}},{"type":"Feature","geometry":{"type":"Point","coordinates":[111.667305,40.854332]},"properties":{"province":"内蒙古自治区","city":"呼和浩特市","county":"新城区","community":"琦琳北辰小区（除1号楼）","full_address":"内蒙古自治区呼和浩特市新城区琦琳北辰小区（除1号楼）","info":""}},{"type":"Feature","geometry":{"type":"Point","coordinates":[111.683693,40.853432]},"properties":{"province":"内蒙古自治区","city":"呼和浩特市","county":"新城区","community":"公园世家小区（除3号楼）","full_address":"内蒙古自治区呼和浩特市新城区公园世家小区（除3号楼）","info":""}},{"type":"Feature","geometry":{"type":"Point","coordinates":[111.649048,40.850849]},"properties":{"province":"内蒙古自治区","city":"呼和浩特市","county":"新城区","community":"公主花园小区（除13号楼）","full_address":"内蒙古自治区呼和浩特市新城区公主花园小区（除13号楼）","info":""}},{"type":"Feature","geometry":{"type":"Point","coordinates":[111.71553,40.837791]},"properties":{"province":"内蒙古自治区","city":"呼和浩特市","county":"新城区","community":"芳汀花园（除8号楼）","full_address":"内蒙古自治区呼和浩特市新城区芳汀花园（除8号楼）","info":""}},{"type":"Feature","geometry":{"type":"Point","coordinates":[111.675018,40.841503]},"properties":{"province":"内蒙古自治区","city":"呼和浩特市","county":"新城区","community":"八一小区（除44号楼）","full_address":"内蒙古自治区呼和浩特市新城区八一小区（除44号楼）","info":""}},{"type":"Feature","geometry":{"type":"Point","coordinates":[111.709244,40.834064]},"properties":{"province":"内蒙古自治区","city":"呼和浩特市","county":"新城区","community":"金都园B座（除2号楼）","full_address":"内蒙古自治区呼和浩特市新城区金都园B座（除2号楼）","info":""}},{"type":"Feature","geometry":{"type":"Point","coordinates":[111.656608,40.815228]},"properties":{"province":"内蒙古自治区","city":"呼和浩特市","county":"回民区","community":"三顺店西巷祥和四区","full_address":"内蒙古自治区呼和浩特市回民区三顺店西巷祥和四区","info":""}},{"type":"Feature","geometry":{"type":"Point","coordinates":[111.658964,40.816931]},"properties":{"province":"内蒙古自治区","city":"呼和浩特市","county":"回民区","community":"三顺店西巷电影公司家属楼南楼","full_address":"内蒙古自治区呼和浩特市回民区三顺店西巷电影公司家属楼南楼","info":""}},{"type":"Feature","geometry":{"type":"Point","coordinates":[111.654712,40.820255]},"properties":{"province":"内蒙古自治区","city":"呼和浩特市","county":"回民区","community":"歌舞剧院家属院","full_address":"内蒙古自治区呼和浩特市回民区歌舞剧院家属院","info":""}},{"type":"Feature","geometry":{"type":"Point","coordinates":[111.659582,40.822896]},"properties":{"province":"内蒙古自治区","city":"呼和浩特市","county":"回民区","community":"医学院住宅小区","full_address":"内蒙古自治区呼和浩特市回民区医学院住宅小区","info":""}},{"type":"Feature","geometry":{"type":"Point","coordinates":[111.658655,40.805693]},"properties":{"province":"内蒙古自治区","city":"呼和浩特市","county":"回民区","community":"城市之光","full_address":"内蒙古自治区呼和浩特市回民区城市之光","info":""}},{"type":"Feature","geometry":{"type":"Point","coordinates":[111.607103,40.830662]},"properties":{"province":"内蒙古自治区","city":"呼和浩特市","county":"回民区","community":"万达华府","full_address":"内蒙古自治区呼和浩特市回民区万达华府","info":""}},{"type":"Feature","geometry":{"type":"Point","coordinates":[111.623692,40.808608]},"properties":{"province":"内蒙古自治区","city":"呼和浩特市","county":"回民区","community":"京蒙大院","full_address":"内蒙古自治区呼和浩特市回民区京蒙大院","info":""}},{"type":"Feature","geometry":{"type":"Point","coordinates":[111.667675,40.812542]},"properties":{"province":"内蒙古自治区","city":"呼和浩特市","county":"回民区","community":"市委六号院","full_address":"内蒙古自治区呼和浩特市回民区市委六号院","info":""}},{"type":"Feature","geometry":{"type":"Point","coordinates":[111.658381,40.811744]},"properties":{"province":"内蒙古自治区","city":"呼和浩特市","county":"回民区","community":"祥和二区","full_address":"内蒙古自治区呼和浩特市回民区祥和二区","info":""}},{"type":"Feature","geometry":{"type":"Point","coordinates":[111.635338,40.815807]},"properties":{"province":"内蒙古自治区","city":"呼和浩特市","county":"回民区","community":"工行家属院","full_address":"内蒙古自治区呼和浩特市回民区工行家属院","info":""}},{"type":"Feature","geometry":{"type":"Point","coordinates":[111.671733,40.858129]},"properties":{"province":"内蒙古自治区","city":"呼和浩特市","county":"回民区","community":"新华桥铁路小区","full_address":"内蒙古自治区呼和浩特市回民区新华桥铁路小区","info":""}},{"type":"Feature","geometry":{"type":"Point","coordinates":[111.660044,40.805878]},"properties":{"province":"内蒙古自治区","city":"呼和浩特市","county":"回民区","community":"世纪御园","full_address":"内蒙古自治区呼和浩特市回民区世纪御园","info":""}},{"type":"Feature","geometry":{"type":"Point","coordinates":[111.633392,40.849754]},"properties":{"province":"内蒙古自治区","city":"呼和浩特市","county":"回民区","community":"一间房村(呼武公路西)","full_address":"内蒙古自治区呼和浩特市回民区一间房村(呼武公路西)","info":""}},{"type":"Feature","geometry":{"type":"Point","coordinates":[111.5922,40.791621]},"properties":{"province":"内蒙古自治区","city":"呼和浩特市","county":"回民区","community":"西华庭","full_address":"内蒙古自治区呼和浩特市回民区西华庭","info":""}},{"type":"Feature","geometry":{"type":"Point","coordinates":[111.641071,40.835913]},"properties":{"province":"内蒙古自治区","city":"呼和浩特市","county":"回民区","community":"昌盛小区","full_address":"内蒙古自治区呼和浩特市回民区昌盛小区","info":""}},{"type":"Feature","geometry":{"type":"Point","coordinates":[111.651428,40.82917]},"properties":{"province":"内蒙古自治区","city":"呼和浩特市","county":"回民区","community":"动力小区","full_address":"内蒙古自治区呼和浩特市回民区动力小区","info":""}},{"type":"Feature","geometry":{"type":"Point","coordinates":[111.640387,40.820356]},"properties":{"province":"内蒙古自治区","city":"呼和浩特市","county":"回民区","community":"龙翔苑","full_address":"内蒙古自治区呼和浩特市回民区龙翔苑","info":""}},{"type":"Feature","geometry":{"type":"Point","coordinates":[111.612271,40.846598]},"properties":{"province":"内蒙古自治区","city":"呼和浩特市","county":"回民区","community":"探矿机械厂家属楼","full_address":"内蒙古自治区呼和浩特市回民区探矿机械厂家属楼","info":""}},{"type":"Feature","geometry":{"type":"Point","coordinates":[111.603177,40.835517]},"properties":{"province":"内蒙古自治区","city":"呼和浩特市","county":"回民区","community":"慧谷兰庭","full_address":"内蒙古自治区呼和浩特市回民区慧谷兰庭","info":""}},{"type":"Feature","geometry":{"type":"Point","coordinates":[111.658958,40.808491]},"properties":{"province":"内蒙古自治区","city":"呼和浩特市","county":"回民区","community":"星月美食街及心月小区","full_address":"内蒙古自治区呼和浩特市回民区星月美食街及心月小区","info":""}},{"type":"Feature","geometry":{"type":"Point","coordinates":[111.656133,40.823893]},"properties":{"province":"内蒙古自治区","city":"呼和浩特市","county":"回民区","community":"华建小区","full_address":"内蒙古自治区呼和浩特市回民区华建小区","info":""}},{"type":"Feature","geometry":{"type":"Point","coordinates":[111.645554,40.838207]},"properties":{"province":"内蒙古自治区","city":"呼和浩特市","county":"回民区","community":"昌盛家园3号楼","full_address":"内蒙古自治区呼和浩特市回民区昌盛家园3号楼","info":""}},{"type":"Feature","geometry":{"type":"Point","coordinates":[111.641289,40.8456]},"properties":{"province":"内蒙古自治区","city":"呼和浩特市","county":"回民区","community":"塔布板村(除塔布板住宅小区)","full_address":"内蒙古自治区呼和浩特市回民区塔布板村(除塔布板住宅小区)","info":""}},{"type":"Feature","geometry":{"type":"Point","coordinates":[111.625707,40.802867]},"properties":{"province":"内蒙古自治区","city":"呼和浩特市","county":"回民区","community":"锦泽园小区(除11号楼)","full_address":"内蒙古自治区呼和浩特市回民区锦泽园小区(除11号楼)","info":""}},{"type":"Feature","geometry":{"type":"Point","coordinates":[111.605333,40.825209]},"properties":{"province":"内蒙古自治区","city":"呼和浩特市","county":"回民区","community":"明珠丽景西区(除5号楼)","full_address":"内蒙古自治区呼和浩特市回民区明珠丽景西区(除5号楼)","info":""}},{"type":"Feature","geometry":{"type":"Point","coordinates":[111.644272,40.838249]},"properties":{"province":"内蒙古自治区","city":"呼和浩特市","county":"回民区","community":"昌盛家园(除3号楼)","full_address":"内蒙古自治区呼和浩特市回民区昌盛家园(除3号楼)","info":""}},{"type":"Feature","geometry":{"type":"Point","coordinates":[111.639519,40.849014]},"properties":{"province":"内蒙古自治区","city":"呼和浩特市","county":"回民区","community":"广龙苑小区（除17号楼）","full_address":"内蒙古自治区呼和浩特市回民区广龙苑小区（除17号楼）","info":""}},{"type":"Feature","geometry":{"type":"Point","coordinates":[111.602558,40.840202]},"properties":{"province":"内蒙古自治区","city":"呼和浩特市","county":"回民区","community":"大天森林小区（除13号楼）","full_address":"内蒙古自治区呼和浩特市回民区大天森林小区（除13号楼）","info":""}},{"type":"Feature","geometry":{"type":"Point","coordinates":[111.60713,40.84041]},"properties":{"province":"内蒙古自治区","city":"呼和浩特市","county":"回民区","community":"新西蓝小区北区（除6号楼）","full_address":"内蒙古自治区呼和浩特市回民区新西蓝小区北区（除6号楼）","info":""}},{"type":"Feature","geometry":{"type":"Point","coordinates":[111.616264,40.809315]},"properties":{"province":"内蒙古自治区","city":"呼和浩特市","county":"回民区","community":"光明城小区（除3号楼）","full_address":"内蒙古自治区呼和浩特市回民区光明城小区（除3号楼）","info":""}},{"type":"Feature","geometry":{"type":"Point","coordinates":[111.586913,40.831283]},"properties":{"province":"内蒙古自治区","city":"呼和浩特市","county":"回民区","community":"东乌素图旧村（除前营子、二道营）","full_address":"内蒙古自治区呼和浩特市回民区东乌素图旧村（除前营子、二道营）","info":""}},{"type":"Feature","geometry":{"type":"Point","coordinates":[111.640892,40.837563]},"properties":{"province":"内蒙古自治区","city":"呼和浩特市","county":"回民区","community":"阀门厂小区（除3号楼）","full_address":"内蒙古自治区呼和浩特市回民区阀门厂小区（除3号楼）","info":""}},{"type":"Feature","geometry":{"type":"Point","coordinates":[111.647644,40.848766]},"properties":{"province":"内蒙古自治区","city":"呼和浩特市","county":"回民区","community":"呼运花园（除2号楼）","full_address":"内蒙古自治区呼和浩特市回民区呼运花园（除2号楼）","info":""}},{"type":"Feature","geometry":{"type":"Point","coordinates":[111.637794,40.806313]},"properties":{"province":"内蒙古自治区","city":"呼和浩特市","county":"回民区","community":"桃源水榭南区（除3号楼）","full_address":"内蒙古自治区呼和浩特市回民区桃源水榭南区（除3号楼）","info":""}},{"type":"Feature","geometry":{"type":"Point","coordinates":[111.670502,40.8125]},"properties":{"province":"内蒙古自治区","city":"呼和浩特市","county":"回民区","community":"海亮名门（除11号楼）","full_address":"内蒙古自治区呼和浩特市回民区海亮名门（除11号楼）","info":""}},{"type":"Feature","geometry":{"type":"Point","coordinates":[111.618004,40.793457]},"properties":{"province":"内蒙古自治区","city":"呼和浩特市","county":"回民区","community":"金苑小区（除2号楼）","full_address":"内蒙古自治区呼和浩特市回民区金苑小区（除2号楼）","info":""}},{"type":"Feature","geometry":{"type":"Point","coordinates":[111.636375,40.814335]},"properties":{"province":"内蒙古自治区","city":"呼和浩特市","county":"回民区","community":"家和小区（除4号楼）","full_address":"内蒙古自治区呼和浩特市回民区家和小区（除4号楼）","info":""}},{"type":"Feature","geometry":{"type":"Point","coordinates":[111.649986,40.841221]},"properties":{"province":"内蒙古自治区","city":"呼和浩特市","county":"回民区","community":"机电学院宿舍（除3号楼）","full_address":"内蒙古自治区呼和浩特市回民区机电学院宿舍（除3号楼）","info":""}},{"type":"Feature","geometry":{"type":"Point","coordinates":[111.584641,40.835499]},"properties":{"province":"内蒙古自治区","city":"呼和浩特市","county":"回民区","community":"塞外安康新居（除10号楼)","full_address":"内蒙古自治区呼和浩特市回民区塞外安康新居（除10号楼)","info":""}},{"type":"Feature","geometry":{"type":"Point","coordinates":[111.615601,40.802391]},"properties":{"province":"内蒙古自治区","city":"呼和浩特市","county":"回民区","community":"阙里人家C区（除5号楼）","full_address":"内蒙古自治区呼和浩特市回民区阙里人家C区（除5号楼）","info":""}},{"type":"Feature","geometry":{"type":"Point","coordinates":[111.587036,40.827038]},"properties":{"province":"内蒙古自治区","city":"呼和浩特市","county":"回民区","community":"中铁诺德龙湾四地块（除2号楼）","full_address":"内蒙古自治区呼和浩特市回民区中铁诺德龙湾四地块（除2号楼）","info":""}},{"type":"Feature","geometry":{"type":"Point","coordinates":[111.638092,40.796658]},"properties":{"province":"内蒙古自治区","city":"呼和浩特市","county":"回民区","community":"水润嘉苑（除30号楼）","full_address":"内蒙古自治区呼和浩特市回民区水润嘉苑（除30号楼）","info":""}},{"type":"Feature","geometry":{"type":"Point","coordinates":[111.650284,40.821022]},"properties":{"province":"内蒙古自治区","city":"呼和浩特市","county":"回民区","community":"浩鑫丽景苑小区（除2号楼）","full_address":"内蒙古自治区呼和浩特市回民区浩鑫丽景苑小区（除2号楼）","info":""}},{"type":"Feature","geometry":{"type":"Point","coordinates":[111.634903,40.8134]},"properties":{"province":"内蒙古自治区","city":"呼和浩特市","county":"回民区","community":"呼钢小区(除12号楼）","full_address":"内蒙古自治区呼和浩特市回民区呼钢小区(除12号楼）","info":""}},{"type":"Feature","geometry":{"type":"Point","coordinates":[111.640999,40.817841]},"properties":{"province":"内蒙古自治区","city":"呼和浩特市","county":"回民区","community":"金园社区铁路小区（除1号楼、8号楼、9号楼）","full_address":"内蒙古自治区呼和浩特市回民区金园社区铁路小区（除1号楼、8号楼、9号楼）","info":""}},{"type":"Feature","geometry":{"type":"Point","coordinates":[111.676727,40.800129]},"properties":{"province":"内蒙古自治区","city":"呼和浩特市","county":"回民区","community":"电厂宿舍楼（除14号楼）","full_address":"内蒙古自治区呼和浩特市回民区电厂宿舍楼（除14号楼）","info":""}},{"type":"Feature","geometry":{"type":"Point","coordinates":[111.636181,40.777323]},"properties":{"province":"内蒙古自治区","city":"呼和浩特市","county":"玉泉区","community":"怡景萃华林","full_address":"内蒙古自治区呼和浩特市玉泉区怡景萃华林","info":""}},{"type":"Feature","geometry":{"type":"Point","coordinates":[111.646552,40.793089]},"properties":{"province":"内蒙古自治区","city":"呼和浩特市","county":"玉泉区","community":"云中小区","full_address":"内蒙古自治区呼和浩特市玉泉区云中小区","info":""}},{"type":"Feature","geometry":{"type":"Point","coordinates":[111.672636,40.789044]},"properties":{"province":"内蒙古自治区","city":"呼和浩特市","county":"玉泉区","community":"石羊桥路名品建筑","full_address":"内蒙古自治区呼和浩特市玉泉区石羊桥路名品建筑","info":""}},{"type":"Feature","geometry":{"type":"Point","coordinates":[111.683663,40.813871]},"properties":{"province":"内蒙古自治区","city":"呼和浩特市","county":"玉泉区","community":"纪检委小区","full_address":"内蒙古自治区呼和浩特市玉泉区纪检委小区","info":""}},{"type":"Feature","geometry":{"type":"Point","coordinates":[111.678251,40.766285]},"properties":{"province":"内蒙古自治区","city":"呼和浩特市","county":"玉泉区","community":"万锦香韵","full_address":"内蒙古自治区呼和浩特市玉泉区万锦香韵","info":""}},{"type":"Feature","geometry":{"type":"Point","coordinates":[111.628441,40.792377]},"properties":{"province":"内蒙古自治区","city":"呼和浩特市","county":"玉泉区","community":"兴隆小区","full_address":"内蒙古自治区呼和浩特市玉泉区兴隆小区","info":""}},{"type":"Feature","geometry":{"type":"Point","coordinates":[111.663303,40.804753]},"properties":{"province":"内蒙古自治区","city":"呼和浩特市","county":"玉泉区","community":"嘉豪广场","full_address":"内蒙古自治区呼和浩特市玉泉区嘉豪广场","info":""}},{"type":"Feature","geometry":{"type":"Point","coordinates":[111.651166,40.767263]},"properties":{"province":"内蒙古自治区","city":"呼和浩特市","county":"玉泉区","community":"馨苑小区","full_address":"内蒙古自治区呼和浩特市玉泉区馨苑小区","info":""}},{"type":"Feature","geometry":{"type":"Point","coordinates":[111.68215,40.746887]},"properties":{"province":"内蒙古自治区","city":"呼和浩特市","county":"玉泉区","community":"昕雅名苑","full_address":"内蒙古自治区呼和浩特市玉泉区昕雅名苑","info":""}},{"type":"Feature","geometry":{"type":"Point","coordinates":[111.653415,40.792762]},"properties":{"province":"内蒙古自治区","city":"呼和浩特市","county":"玉泉区","community":"联通小区","full_address":"内蒙古自治区呼和浩特市玉泉区联通小区","info":""}},{"type":"Feature","geometry":{"type":"Point","coordinates":[111.671569,40.751346]},"properties":{"province":"内蒙古自治区","city":"呼和浩特市","county":"玉泉区","community":"上国佳苑","full_address":"内蒙古自治区呼和浩特市玉泉区上国佳苑","info":""}},{"type":"Feature","geometry":{"type":"Point","coordinates":[111.65969,40.800821]},"properties":{"province":"内蒙古自治区","city":"呼和浩特市","county":"玉泉区","community":"小召前街街道规划楼","full_address":"内蒙古自治区呼和浩特市玉泉区小召前街街道规划楼","info":""}},{"type":"Feature","geometry":{"type":"Point","coordinates":[111.663575,40.784104]},"properties":{"province":"内蒙古自治区","city":"呼和浩特市","county":"玉泉区","community":"草库巷呼市木器厂宿舍","full_address":"内蒙古自治区呼和浩特市玉泉区草库巷呼市木器厂宿舍","info":""}},{"type":"Feature","geometry":{"type":"Point","coordinates":[111.637619,40.789043]},"properties":{"province":"内蒙古自治区","city":"呼和浩特市","county":"玉泉区","community":"西苑家园","full_address":"内蒙古自治区呼和浩特市玉泉区西苑家园","info":""}},{"type":"Feature","geometry":{"type":"Point","coordinates":[111.67041,40.81567]},"properties":{"province":"内蒙古自治区","city":"呼和浩特市","county":"玉泉区","community":"阿木南营","full_address":"内蒙古自治区呼和浩特市玉泉区阿木南营","info":""}},{"type":"Feature","geometry":{"type":"Point","coordinates":[111.653415,40.792762]},"properties":{"province":"内蒙古自治区","city":"呼和浩特市","county":"玉泉区","community":"昭君路联通小区旁中国联通呼和浩特分公司运维技能培训实操基地(地球站工地)","full_address":"内蒙古自治区呼和浩特市玉泉区昭君路联通小区旁中国联通呼和浩特分公司运维技能培训实操基地(地球站工地)","info":""}},{"type":"Feature","geometry":{"type":"Point","coordinates":[111.626128,40.793782]},"properties":{"province":"内蒙古自治区","city":"呼和浩特市","county":"玉泉区","community":"新苑家园","full_address":"内蒙古自治区呼和浩特市玉泉区新苑家园","info":""}},{"type":"Feature","geometry":{"type":"Point","coordinates":[111.648682,40.802569]},"properties":{"province":"内蒙古自治区","city":"呼和浩特市","county":"玉泉区","community":"汇豪天下","full_address":"内蒙古自治区呼和浩特市玉泉区汇豪天下","info":""}},{"type":"Feature","geometry":{"type":"Point","coordinates":[111.676972,40.787266]},"properties":{"province":"内蒙古自治区","city":"呼和浩特市","county":"玉泉区","community":"富丽城B区4号楼","full_address":"内蒙古自治区呼和浩特市玉泉区富丽城B区4号楼","info":""}},{"type":"Feature","geometry":{"type":"Point","coordinates":[111.688972,40.776634]},"properties":{"province":"内蒙古自治区","city":"呼和浩特市","county":"玉泉区","community":"秋实璟峯汇(除3号楼，A座、B座)","full_address":"内蒙古自治区呼和浩特市玉泉区秋实璟峯汇(除3号楼，A座、B座)","info":""}},{"type":"Feature","geometry":{"type":"Point","coordinates":[111.665435,40.798913]},"properties":{"province":"内蒙古自治区","city":"呼和浩特市","county":"玉泉区","community":"五里营东小区","full_address":"内蒙古自治区呼和浩特市玉泉区五里营东小区","info":""}},{"type":"Feature","geometry":{"type":"Point","coordinates":[111.640121,40.793163]},"properties":{"province":"内蒙古自治区","city":"呼和浩特市","county":"玉泉区","community":"西苑北小区(除3号楼)","full_address":"内蒙古自治区呼和浩特市玉泉区西苑北小区(除3号楼)","info":""}},{"type":"Feature","geometry":{"type":"Point","coordinates":[111.673881,40.753655]},"properties":{"province":"内蒙古自治区","city":"呼和浩特市","county":"玉泉区","community":"福缘名居(除5号楼)","full_address":"内蒙古自治区呼和浩特市玉泉区福缘名居(除5号楼)","info":""}},{"type":"Feature","geometry":{"type":"Point","coordinates":[111.696851,40.733399]},"properties":{"province":"内蒙古自治区","city":"呼和浩特市","county":"玉泉区","community":"天颐尚居(除B1号楼)","full_address":"内蒙古自治区呼和浩特市玉泉区天颐尚居(除B1号楼)","info":""}},{"type":"Feature","geometry":{"type":"Point","coordinates":[111.678345,40.779458]},"properties":{"province":"内蒙古自治区","city":"呼和浩特市","county":"玉泉区","community":"闻都世界城(除18A)","full_address":"内蒙古自治区呼和浩特市玉泉区闻都世界城(除18A)","info":""}},{"type":"Feature","geometry":{"type":"Point","coordinates":[111.67543,40.75319]},"properties":{"province":"内蒙古自治区","city":"呼和浩特市","county":"玉泉区","community":"恒奥世纪华府（除5号楼）","full_address":"内蒙古自治区呼和浩特市玉泉区恒奥世纪华府（除5号楼）","info":""}},{"type":"Feature","geometry":{"type":"Point","coordinates":[111.676706,40.779523]},"properties":{"province":"内蒙古自治区","city":"呼和浩特市","county":"玉泉区","community":"华隆小区（除13号楼）","full_address":"内蒙古自治区呼和浩特市玉泉区华隆小区（除13号楼）","info":""}},{"type":"Feature","geometry":{"type":"Point","coordinates":[111.658684,40.800179]},"properties":{"province":"内蒙古自治区","city":"呼和浩特市","county":"玉泉区","community":"小召前街兴盛苑小区（除8号楼）","full_address":"内蒙古自治区呼和浩特市玉泉区小召前街兴盛苑小区（除8号楼）","info":""}},{"type":"Feature","geometry":{"type":"Point","coordinates":[111.67543,40.75319]},"properties":{"province":"内蒙古自治区","city":"呼和浩特市","county":"玉泉区","community":"恒奥凤凰城（除5号楼）","full_address":"内蒙古自治区呼和浩特市玉泉区恒奥凤凰城（除5号楼）","info":""}},{"type":"Feature","geometry":{"type":"Point","coordinates":[111.660698,40.797138]},"properties":{"province":"内蒙古自治区","city":"呼和浩特市","county":"玉泉区","community":"金角苑小区（除1号楼、2号楼）","full_address":"内蒙古自治区呼和浩特市玉泉区金角苑小区（除1号楼、2号楼）","info":""}},{"type":"Feature","geometry":{"type":"Point","coordinates":[111.657051,40.79092]},"properties":{"province":"内蒙古自治区","city":"呼和浩特市","county":"玉泉区","community":"永兴达小区（除1号楼）","full_address":"内蒙古自治区呼和浩特市玉泉区永兴达小区（除1号楼）","info":""}},{"type":"Feature","geometry":{"type":"Point","coordinates":[111.675133,40.798061]},"properties":{"province":"内蒙古自治区","city":"呼和浩特市","county":"玉泉区","community":"烟厂苁蓉小区（除8号楼、19号楼、22号楼）","full_address":"内蒙古自治区呼和浩特市玉泉区烟厂苁蓉小区（除8号楼、19号楼、22号楼）","info":""}},{"type":"Feature","geometry":{"type":"Point","coordinates":[111.668747,40.78688]},"properties":{"province":"内蒙古自治区","city":"呼和浩特市","county":"玉泉区","community":"俪城小区A（除7号楼）","full_address":"内蒙古自治区呼和浩特市玉泉区俪城小区A（除7号楼）","info":""}},{"type":"Feature","geometry":{"type":"Point","coordinates":[111.684807,40.773041]},"properties":{"province":"内蒙古自治区","city":"呼和浩特市","county":"玉泉区","community":"万锦枫泽湾（除1号楼）","full_address":"内蒙古自治区呼和浩特市玉泉区万锦枫泽湾（除1号楼）","info":""}},{"type":"Feature","geometry":{"type":"Point","coordinates":[111.672577,40.765129]},"properties":{"province":"内蒙古自治区","city":"呼和浩特市","county":"玉泉区","community":"蓝色港湾（除3号楼）","full_address":"内蒙古自治区呼和浩特市玉泉区蓝色港湾（除3号楼）","info":""}},{"type":"Feature","geometry":{"type":"Point","coordinates":[111.668159,40.799995]},"properties":{"province":"内蒙古自治区","city":"呼和浩特市","county":"玉泉区","community":"养鱼池东巷小白楼","full_address":"内蒙古自治区呼和浩特市玉泉区养鱼池东巷小白楼","info":""}},{"type":"Feature","geometry":{"type":"Point","coordinates":[111.61512,40.776306]},"properties":{"province":"内蒙古自治区","city":"呼和浩特市","county":"玉泉区","community":"玉泉人家4号楼","full_address":"内蒙古自治区呼和浩特市玉泉区玉泉人家4号楼","info":""}},{"type":"Feature","geometry":{"type":"Point","coordinates":[111.66655,40.794689]},"properties":{"province":"内蒙古自治区","city":"呼和浩特市","county":"玉泉区","community":"大正小区1号楼","full_address":"内蒙古自治区呼和浩特市玉泉区大正小区1号楼","info":""}},{"type":"Feature","geometry":{"type":"Point","coordinates":[111.680046,40.788589]},"properties":{"province":"内蒙古自治区","city":"呼和浩特市","county":"玉泉区","community":"颐和景园2号楼","full_address":"内蒙古自治区呼和浩特市玉泉区颐和景园2号楼","info":""}},{"type":"Feature","geometry":{"type":"Point","coordinates":[111.661713,40.803944]},"properties":{"province":"内蒙古自治区","city":"呼和浩特市","county":"玉泉区","community":"新华小区1号楼","full_address":"内蒙古自治区呼和浩特市玉泉区新华小区1号楼","info":""}},{"type":"Feature","geometry":{"type":"Point","coordinates":[111.647789,40.795269]},"properties":{"province":"内蒙古自治区","city":"呼和浩特市","county":"玉泉区","community":"印象江南东门（除5号院）","full_address":"内蒙古自治区呼和浩特市玉泉区印象江南东门（除5号院）","info":""}},{"type":"Feature","geometry":{"type":"Point","coordinates":[111.661713,40.803944]},"properties":{"province":"内蒙古自治区","city":"呼和浩特市","county":"玉泉区","community":"新华小区（除1号楼）","full_address":"内蒙古自治区呼和浩特市玉泉区新华小区（除1号楼）","info":""}},{"type":"Feature","geometry":{"type":"Point","coordinates":[111.638603,40.778156]},"properties":{"province":"内蒙古自治区","city":"呼和浩特市","county":"玉泉区","community":"天骄熙岸（除8号楼）","full_address":"内蒙古自治区呼和浩特市玉泉区天骄熙岸（除8号楼）","info":""}},{"type":"Feature","geometry":{"type":"Point","coordinates":[111.685432,40.748158]},"properties":{"province":"内蒙古自治区","city":"呼和浩特市","county":"玉泉区","community":"鼎盛国际（除B8号楼、G2号楼、G1号楼）","full_address":"内蒙古自治区呼和浩特市玉泉区鼎盛国际（除B8号楼、G2号楼、G1号楼）","info":""}},{"type":"Feature","geometry":{"type":"Point","coordinates":[111.664597,40.795082]},"properties":{"province":"内蒙古自治区","city":"呼和浩特市","county":"玉泉区","community":"御景苑北区（除1号楼）","full_address":"内蒙古自治区呼和浩特市玉泉区御景苑北区（除1号楼）","info":""}},{"type":"Feature","geometry":{"type":"Point","coordinates":[111.670189,40.782181]},"properties":{"province":"内蒙古自治区","city":"呼和浩特市","county":"玉泉区","community":"万象天地小区（除4号楼）","full_address":"内蒙古自治区呼和浩特市玉泉区万象天地小区（除4号楼）","info":""}},{"type":"Feature","geometry":{"type":"Point","coordinates":[111.665756,40.792309]},"properties":{"province":"内蒙古自治区","city":"呼和浩特市","county":"玉泉区","community":"二建小区（除2号楼）","full_address":"内蒙古自治区呼和浩特市玉泉区二建小区（除2号楼）","info":""}},{"type":"Feature","geometry":{"type":"Point","coordinates":[111.714264,40.826572]},"properties":{"province":"内蒙古自治区","city":"呼和浩特市","county":"赛罕区","community":"亚信小区","full_address":"内蒙古自治区呼和浩特市赛罕区亚信小区","info":""}},{"type":"Feature","geometry":{"type":"Point","coordinates":[111.760537,40.78115]},"properties":{"province":"内蒙古自治区","city":"呼和浩特市","county":"赛罕区","community":"阳光美居","full_address":"内蒙古自治区呼和浩特市赛罕区阳光美居","info":""}},{"type":"Feature","geometry":{"type":"Point","coordinates":[111.68635,40.808234]},"properties":{"province":"内蒙古自治区","city":"呼和浩特市","county":"赛罕区","community":"地质局宿舍148号院","full_address":"内蒙古自治区呼和浩特市赛罕区地质局宿舍148号院","info":""}},{"type":"Feature","geometry":{"type":"Point","coordinates":[111.729437,40.81867]},"properties":{"province":"内蒙古自治区","city":"呼和浩特市","county":"赛罕区","community":"春雨小区","full_address":"内蒙古自治区呼和浩特市赛罕区春雨小区","info":""}},{"type":"Feature","geometry":{"type":"Point","coordinates":[111.689947,40.802901]},"properties":{"province":"内蒙古自治区","city":"呼和浩特市","county":"赛罕区","community":"科委小区","full_address":"内蒙古自治区呼和浩特市赛罕区科委小区","info":""}},{"type":"Feature","geometry":{"type":"Point","coordinates":[111.711412,40.82558]},"properties":{"province":"内蒙古自治区","city":"呼和浩特市","county":"赛罕区","community":"乐业小区","full_address":"内蒙古自治区呼和浩特市赛罕区乐业小区","info":""}},{"type":"Feature","geometry":{"type":"Point","coordinates":[111.680569,40.799866]},"properties":{"province":"内蒙古自治区","city":"呼和浩特市","county":"赛罕区","community":"山丹小区","full_address":"内蒙古自治区呼和浩特市赛罕区山丹小区","info":""}},{"type":"Feature","geometry":{"type":"Point","coordinates":[111.695418,40.789874]},"properties":{"province":"内蒙古自治区","city":"呼和浩特市","county":"赛罕区","community":"舒心园小区","full_address":"内蒙古自治区呼和浩特市赛罕区舒心园小区","info":""}},{"type":"Feature","geometry":{"type":"Point","coordinates":[111.698247,40.807542]},"properties":{"province":"内蒙古自治区","city":"呼和浩特市","county":"赛罕区","community":"林场小区","full_address":"内蒙古自治区呼和浩特市赛罕区林场小区","info":""}},{"type":"Feature","geometry":{"type":"Point","coordinates":[111.680407,40.79093]},"properties":{"province":"内蒙古自治区","city":"呼和浩特市","county":"赛罕区","community":"灯泡厂小区","full_address":"内蒙古自治区呼和浩特市赛罕区灯泡厂小区","info":""}},{"type":"Feature","geometry":{"type":"Point","coordinates":[111.720742,40.794795]},"properties":{"province":"内蒙古自治区","city":"呼和浩特市","county":"赛罕区","community":"恒大名都小区","full_address":"内蒙古自治区呼和浩特市赛罕区恒大名都小区","info":""}},{"type":"Feature","geometry":{"type":"Point","coordinates":[111.733515,40.777816]},"properties":{"province":"内蒙古自治区","city":"呼和浩特市","county":"赛罕区","community":"馨康花园中区","full_address":"内蒙古自治区呼和浩特市赛罕区馨康花园中区","info":""}},{"type":"Feature","geometry":{"type":"Point","coordinates":[111.724411,40.825523]},"properties":{"province":"内蒙古自治区","city":"呼和浩特市","county":"赛罕区","community":"御景101公馆","full_address":"内蒙古自治区呼和浩特市赛罕区御景101公馆","info":""}},{"type":"Feature","geometry":{"type":"Point","coordinates":[111.751229,40.789765]},"properties":{"province":"内蒙古自治区","city":"呼和浩特市","county":"赛罕区","community":"保全庄新村","full_address":"内蒙古自治区呼和浩特市赛罕区保全庄新村","info":""}},{"type":"Feature","geometry":{"type":"Point","coordinates":[111.706001,40.777121]},"properties":{"province":"内蒙古自治区","city":"呼和浩特市","county":"赛罕区","community":"税苑小区","full_address":"内蒙古自治区呼和浩特市赛罕区税苑小区","info":""}},{"type":"Feature","geometry":{"type":"Point","coordinates":[111.730701,40.818926]},"properties":{"province":"内蒙古自治区","city":"呼和浩特市","county":"赛罕区","community":"丰泽园小区","full_address":"内蒙古自治区呼和浩特市赛罕区丰泽园小区","info":""}},{"type":"Feature","geometry":{"type":"Point","coordinates":[111.732696,40.773385]},"properties":{"province":"内蒙古自治区","city":"呼和浩特市","county":"赛罕区","community":"旺第嘉华小区","full_address":"内蒙古自治区呼和浩特市赛罕区旺第嘉华小区","info":""}},{"type":"Feature","geometry":{"type":"Point","coordinates":[111.712494,40.817697]},"properties":{"province":"内蒙古自治区","city":"呼和浩特市","county":"赛罕区","community":"河西乌兰小区","full_address":"内蒙古自治区呼和浩特市赛罕区河西乌兰小区","info":""}},{"type":"Feature","geometry":{"type":"Point","coordinates":[111.675194,40.815689]},"properties":{"province":"内蒙古自治区","city":"呼和浩特市","county":"赛罕区","community":"土地局宿舍","full_address":"内蒙古自治区呼和浩特市赛罕区土地局宿舍","info":""}},{"type":"Feature","geometry":{"type":"Point","coordinates":[111.73024,40.787365]},"properties":{"province":"内蒙古自治区","city":"呼和浩特市","county":"赛罕区","community":"万豪美墅城","full_address":"内蒙古自治区呼和浩特市赛罕区万豪美墅城","info":""}},{"type":"Feature","geometry":{"type":"Point","coordinates":[111.918987,40.798066]},"properties":{"province":"内蒙古自治区","city":"呼和浩特市","county":"赛罕区","community":"添密湾村","full_address":"内蒙古自治区呼和浩特市赛罕区添密湾村","info":""}},{"type":"Feature","geometry":{"type":"Point","coordinates":[111.741588,40.805633]},"properties":{"province":"内蒙古自治区","city":"呼和浩特市","county":"赛罕区","community":"竹园小区东区","full_address":"内蒙古自治区呼和浩特市赛罕区竹园小区东区","info":""}},{"type":"Feature","geometry":{"type":"Point","coordinates":[111.735646,40.749944]},"properties":{"province":"内蒙古自治区","city":"呼和浩特市","county":"赛罕区","community":"东黑河村","full_address":"内蒙古自治区呼和浩特市赛罕区东黑河村","info":""}},{"type":"Feature","geometry":{"type":"Point","coordinates":[111.731976,40.778921]},"properties":{"province":"内蒙古自治区","city":"呼和浩特市","county":"赛罕区","community":"馨康花园34号楼","full_address":"内蒙古自治区呼和浩特市赛罕区馨康花园34号楼","info":""}},{"type":"Feature","geometry":{"type":"Point","coordinates":[111.730279,40.82155]},"properties":{"province":"内蒙古自治区","city":"呼和浩特市","county":"赛罕区","community":"徐家沙梁小区","full_address":"内蒙古自治区呼和浩特市赛罕区徐家沙梁小区","info":""}},{"type":"Feature","geometry":{"type":"Point","coordinates":[111.71508,40.82769]},"properties":{"province":"内蒙古自治区","city":"呼和浩特市","county":"赛罕区","community":"三干社区海外公寓（除3号楼）","full_address":"内蒙古自治区呼和浩特市赛罕区三干社区海外公寓（除3号楼）","info":""}},{"type":"Feature","geometry":{"type":"Point","coordinates":[111.733044,40.815657]},"properties":{"province":"内蒙古自治区","city":"呼和浩特市","county":"赛罕区","community":"巨海城10区（除1号楼）","full_address":"内蒙古自治区呼和浩特市赛罕区巨海城10区（除1号楼）","info":""}},{"type":"Feature","geometry":{"type":"Point","coordinates":[111.767593,40.78846]},"properties":{"province":"内蒙古自治区","city":"呼和浩特市","county":"赛罕区","community":"民富家园（除2号楼）","full_address":"内蒙古自治区呼和浩特市赛罕区民富家园（除2号楼）","info":""}},{"type":"Feature","geometry":{"type":"Point","coordinates":[111.731819,40.7537]},"properties":{"province":"内蒙古自治区","city":"呼和浩特市","county":"赛罕区","community":"南锦绣嘉苑C区（除1号楼）","full_address":"内蒙古自治区呼和浩特市赛罕区南锦绣嘉苑C区（除1号楼）","info":""}},{"type":"Feature","geometry":{"type":"Point","coordinates":[111.711661,40.826727]},"properties":{"province":"内蒙古自治区","city":"呼和浩特市","county":"赛罕区","community":"中行小区（除3号楼）","full_address":"内蒙古自治区呼和浩特市赛罕区中行小区（除3号楼）","info":""}},{"type":"Feature","geometry":{"type":"Point","coordinates":[111.72564,40.76666]},"properties":{"province":"内蒙古自治区","city":"呼和浩特市","county":"赛罕区","community":"金城小区1号楼（1单元，3单元）","full_address":"内蒙古自治区呼和浩特市赛罕区金城小区1号楼（1单元，3单元）","info":""}},{"type":"Feature","geometry":{"type":"Point","coordinates":[111.72583,40.76334]},"properties":{"province":"内蒙古自治区","city":"呼和浩特市","county":"赛罕区","community":"民智苑小区B1号楼（除2单元）","full_address":"内蒙古自治区呼和浩特市赛罕区民智苑小区B1号楼（除2单元）","info":""}},{"type":"Feature","geometry":{"type":"Point","coordinates":[111.696617,40.798429]},"properties":{"province":"内蒙古自治区","city":"呼和浩特市","county":"赛罕区","community":"东苑小区中心区7号楼","full_address":"内蒙古自治区呼和浩特市赛罕区东苑小区中心区7号楼","info":""}},{"type":"Feature","geometry":{"type":"Point","coordinates":[111.670102,40.816002]},"properties":{"province":"内蒙古自治区","city":"呼和浩特市","county":"赛罕区","community":"万锦合泰3号楼","full_address":"内蒙古自治区呼和浩特市赛罕区万锦合泰3号楼","info":""}},{"type":"Feature","geometry":{"type":"Point","coordinates":[111.699059,40.801044]},"properties":{"province":"内蒙古自治区","city":"呼和浩特市","county":"赛罕区","community":"巧报镇政府家属院（除2号楼）","full_address":"内蒙古自治区呼和浩特市赛罕区巧报镇政府家属院（除2号楼）","info":""}},{"type":"Feature","geometry":{"type":"Point","coordinates":[111.787224,40.804493]},"properties":{"province":"内蒙古自治区","city":"呼和浩特市","county":"赛罕区","community":"东方领海A区（除6号楼）","full_address":"内蒙古自治区呼和浩特市赛罕区东方领海A区（除6号楼）","info":""}},{"type":"Feature","geometry":{"type":"Point","coordinates":[111.776779,40.797722]},"properties":{"province":"内蒙古自治区","city":"呼和浩特市","county":"赛罕区","community":"东方科苑（除9号楼）","full_address":"内蒙古自治区呼和浩特市赛罕区东方科苑（除9号楼）","info":""}},{"type":"Feature","geometry":{"type":"Point","coordinates":[111.766243,40.795692]},"properties":{"province":"内蒙古自治区","city":"呼和浩特市","county":"赛罕区","community":"南苑小区（除19号楼）","full_address":"内蒙古自治区呼和浩特市赛罕区南苑小区（除19号楼）","info":""}},{"type":"Feature","geometry":{"type":"Point","coordinates":[111.732712,40.818459]},"properties":{"province":"内蒙古自治区","city":"呼和浩特市","county":"赛罕区","community":"澳华城市花园1期（除10号楼）","full_address":"内蒙古自治区呼和浩特市赛罕区澳华城市花园1期（除10号楼）","info":""}},{"type":"Feature","geometry":{"type":"Point","coordinates":[111.717819,40.82782]},"properties":{"province":"内蒙古自治区","city":"呼和浩特市","county":"赛罕区","community":"长乐湾小区（除5号楼）","full_address":"内蒙古自治区呼和浩特市赛罕区长乐湾小区（除5号楼）","info":""}},{"type":"Feature","geometry":{"type":"Point","coordinates":[111.72412,40.82439]},"properties":{"province":"内蒙古自治区","city":"呼和浩特市","county":"赛罕区","community":"东乐花园西区（除3号楼）","full_address":"内蒙古自治区呼和浩特市赛罕区东乐花园西区（除3号楼）","info":""}},{"type":"Feature","geometry":{"type":"Point","coordinates":[111.710564,40.818691]},"properties":{"province":"内蒙古自治区","city":"呼和浩特市","county":"赛罕区","community":"祖光小区（除12号楼）","full_address":"内蒙古自治区呼和浩特市赛罕区祖光小区（除12号楼）","info":""}},{"type":"Feature","geometry":{"type":"Point","coordinates":[111.706978,40.797729]},"properties":{"province":"内蒙古自治区","city":"呼和浩特市","county":"赛罕区","community":"牧机所小区（除8号楼）","full_address":"内蒙古自治区呼和浩特市赛罕区牧机所小区（除8号楼）","info":""}},{"type":"Feature","geometry":{"type":"Point","coordinates":[111.681747,40.804375]},"properties":{"province":"内蒙古自治区","city":"呼和浩特市","county":"赛罕区","community":"书香门第小区（除4号楼）","full_address":"内蒙古自治区呼和浩特市赛罕区书香门第小区（除4号楼）","info":""}},{"type":"Feature","geometry":{"type":"Point","coordinates":[111.713257,40.816952]},"properties":{"province":"内蒙古自治区","city":"呼和浩特市","county":"赛罕区","community":"乌兰小区（除11、12、13号楼）","full_address":"内蒙古自治区呼和浩特市赛罕区乌兰小区（除11、12、13号楼）","info":""}},{"type":"Feature","geometry":{"type":"Point","coordinates":[111.768738,40.796383]},"properties":{"province":"内蒙古自治区","city":"呼和浩特市","county":"赛罕区","community":"秀水佳园（除10号楼）","full_address":"内蒙古自治区呼和浩特市赛罕区秀水佳园（除10号楼）","info":""}},{"type":"Feature","geometry":{"type":"Point","coordinates":[111.781303,40.795399]},"properties":{"province":"内蒙古自治区","city":"呼和浩特市","county":"赛罕区","community":"东达景苑（除9号楼）","full_address":"内蒙古自治区呼和浩特市赛罕区东达景苑（除9号楼）","info":""}},{"type":"Feature","geometry":{"type":"Point","coordinates":[111.708679,40.827141]},"properties":{"province":"内蒙古自治区","city":"呼和浩特市","county":"赛罕区","community":"金川地税局艺校家属楼（除1号楼）","full_address":"内蒙古自治区呼和浩特市赛罕区金川地税局艺校家属楼（除1号楼）","info":""}},{"type":"Feature","geometry":{"type":"Point","coordinates":[111.855064,40.891586]},"properties":{"province":"内蒙古自治区","city":"呼和浩特市","county":"赛罕区","community":"巴彦街道罗家营村陶然雅居B（除8号楼）","full_address":"内蒙古自治区呼和浩特市赛罕区巴彦街道罗家营村陶然雅居B（除8号楼）","info":""}},{"type":"Feature","geometry":{"type":"Point","coordinates":[111.722839,40.785751]},"properties":{"province":"内蒙古自治区","city":"呼和浩特市","county":"赛罕区","community":"中海蓝湾南区（除1号楼）","full_address":"内蒙古自治区呼和浩特市赛罕区中海蓝湾南区（除1号楼）","info":""}},{"type":"Feature","geometry":{"type":"Point","coordinates":[111.708672,40.823383]},"properties":{"province":"内蒙古自治区","city":"呼和浩特市","county":"赛罕区","community":"自来水宿舍楼1号大院（除2号楼）","full_address":"内蒙古自治区呼和浩特市赛罕区自来水宿舍楼1号大院（除2号楼）","info":""}},{"type":"Feature","geometry":{"type":"Point","coordinates":[111.752754,40.80394]},"properties":{"province":"内蒙古自治区","city":"呼和浩特市","county":"赛罕区","community":"锦绣福源B区（除8号楼）","full_address":"内蒙古自治区呼和浩特市赛罕区锦绣福源B区（除8号楼）","info":""}},{"type":"Feature","geometry":{"type":"Point","coordinates":[111.818825,40.785694]},"properties":{"province":"内蒙古自治区","city":"呼和浩特市","county":"赛罕区","community":"六犋牛村（除奶牛小区）","full_address":"内蒙古自治区呼和浩特市赛罕区六犋牛村（除奶牛小区）","info":""}},{"type":"Feature","geometry":{"type":"Point","coordinates":[111.739357,40.824032]},"properties":{"province":"内蒙古自治区","city":"呼和浩特市","county":"赛罕区","community":"检察家园（除3号楼）","full_address":"内蒙古自治区呼和浩特市赛罕区检察家园（除3号楼）","info":""}},{"type":"Feature","geometry":{"type":"Point","coordinates":[111.696724,40.772041]},"properties":{"province":"内蒙古自治区","city":"呼和浩特市","county":"赛罕区","community":"祥瑞家园（除8号楼）","full_address":"内蒙古自治区呼和浩特市赛罕区祥瑞家园（除8号楼）","info":""}},{"type":"Feature","geometry":{"type":"Point","coordinates":[111.713501,40.790794]},"properties":{"province":"内蒙古自治区","city":"呼和浩特市","county":"赛罕区","community":"永泰城（除4号楼）","full_address":"内蒙古自治区呼和浩特市赛罕区永泰城（除4号楼）","info":""}},{"type":"Feature","geometry":{"type":"Point","coordinates":[111.6912,40.790199]},"properties":{"province":"内蒙古自治区","city":"呼和浩特市","county":"赛罕区","community":"司法厅住宅小区（除1号楼）","full_address":"内蒙古自治区呼和浩特市赛罕区司法厅住宅小区（除1号楼）","info":""}},{"type":"Feature","geometry":{"type":"Point","coordinates":[111.719872,40.770367]},"properties":{"province":"内蒙古自治区","city":"呼和浩特市","county":"赛罕区","community":"化肥厂生活小区（除8号楼）","full_address":"内蒙古自治区呼和浩特市赛罕区化肥厂生活小区（除8号楼）","info":""}},{"type":"Feature","geometry":{"type":"Point","coordinates":[111.710281,40.828339]},"properties":{"province":"内蒙古自治区","city":"呼和浩特市","county":"赛罕区","community":"巨华朗域小区（除6号楼）","full_address":"内蒙古自治区呼和浩特市赛罕区巨华朗域小区（除6号楼）","info":""}},{"type":"Feature","geometry":{"type":"Point","coordinates":[111.692749,40.785542]},"properties":{"province":"内蒙古自治区","city":"呼和浩特市","county":"赛罕区","community":"景馨家园二区（除3号楼）","full_address":"内蒙古自治区呼和浩特市赛罕区景馨家园二区（除3号楼）","info":""}},{"type":"Feature","geometry":{"type":"Point","coordinates":[111.860283,40.718254]},"properties":{"province":"内蒙古自治区","city":"呼和浩特市","county":"赛罕区","community":"金河镇东达赖营村","full_address":"内蒙古自治区呼和浩特市赛罕区金河镇东达赖营村","info":""}},{"type":"Feature","geometry":{"type":"Point","coordinates":[111.717455,40.812806]},"properties":{"province":"内蒙古自治区","city":"呼和浩特市","county":"赛罕区","community":"桥华园","full_address":"内蒙古自治区呼和浩特市赛罕区桥华园","info":""}},{"type":"Feature","geometry":{"type":"Point","coordinates":[111.529131,40.791776]},"properties":{"province":"内蒙古自治区","city":"呼和浩特市","county":"土默特左旗","community":"台阁牧镇溪峰尚居小区二期","full_address":"内蒙古自治区呼和浩特市土默特左旗台阁牧镇溪峰尚居小区二期","info":""}},{"type":"Feature","geometry":{"type":"Point","coordinates":[111.528647,40.764602]},"properties":{"province":"内蒙古自治区","city":"呼和浩特市","county":"土默特左旗","community":"台阁牧镇沙家营村","full_address":"内蒙古自治区呼和浩特市土默特左旗台阁牧镇沙家营村","info":""}},{"type":"Feature","geometry":{"type":"Point","coordinates":[111.566463,40.785521]},"properties":{"province":"内蒙古自治区","city":"呼和浩特市","county":"土默特左旗","community":"台阁牧镇大东营村","full_address":"内蒙古自治区呼和浩特市土默特左旗台阁牧镇大东营村","info":""}},{"type":"Feature","geometry":{"type":"Point","coordinates":[111.446453,40.759519]},"properties":{"province":"内蒙古自治区","city":"呼和浩特市","county":"土默特左旗","community":"台阁牧镇沟门村","full_address":"内蒙古自治区呼和浩特市土默特左旗台阁牧镇沟门村","info":""}},{"type":"Feature","geometry":{"type":"Point","coordinates":[111.535652,40.788833]},"properties":{"province":"内蒙古自治区","city":"呼和浩特市","county":"土默特左旗","community":"宽城小区东区","full_address":"内蒙古自治区呼和浩特市土默特左旗宽城小区东区","info":""}},{"type":"Feature","geometry":{"type":"Point","coordinates":[111.537048,40.790703]},"properties":{"province":"内蒙古自治区","city":"呼和浩特市","county":"土默特左旗","community":"泰和熙地小区","full_address":"内蒙古自治区呼和浩特市土默特左旗泰和熙地小区","info":""}},{"type":"Feature","geometry":{"type":"Point","coordinates":[111.54834,40.779392]},"properties":{"province":"内蒙古自治区","city":"呼和浩特市","county":"土默特左旗","community":"金润华府小区B区","full_address":"内蒙古自治区呼和浩特市土默特左旗金润华府小区B区","info":""}},{"type":"Feature","geometry":{"type":"Point","coordinates":[111.103577,40.727413]},"properties":{"province":"内蒙古自治区","city":"呼和浩特市","county":"土默特左旗","community":"金华学府小区","full_address":"内蒙古自治区呼和浩特市土默特左旗金华学府小区","info":""}},{"type":"Feature","geometry":{"type":"Point","coordinates":[111.544681,40.780462]},"properties":{"province":"内蒙古自治区","city":"呼和浩特市","county":"土默特左旗","community":"金澜湾小区","full_address":"内蒙古自治区呼和浩特市土默特左旗金澜湾小区","info":""}},{"type":"Feature","geometry":{"type":"Point","coordinates":[111.544427,40.788621]},"properties":{"province":"内蒙古自治区","city":"呼和浩特市","county":"土默特左旗","community":"天佑花园小区","full_address":"内蒙古自治区呼和浩特市土默特左旗天佑花园小区","info":""}},{"type":"Feature","geometry":{"type":"Point","coordinates":[111.540553,40.77934]},"properties":{"province":"内蒙古自治区","city":"呼和浩特市","county":"土默特左旗","community":"公元大道小区","full_address":"内蒙古自治区呼和浩特市土默特左旗公元大道小区","info":""}},{"type":"Feature","geometry":{"type":"Point","coordinates":[111.542054,40.783489]},"properties":{"province":"内蒙古自治区","city":"呼和浩特市","county":"土默特左旗","community":"雅格花园小区","full_address":"内蒙古自治区呼和浩特市土默特左旗雅格花园小区","info":""}},{"type":"Feature","geometry":{"type":"Point","coordinates":[111.474894,40.759804]},"properties":{"province":"内蒙古自治区","city":"呼和浩特市","county":"土默特左旗","community":"金山开发区易购城小区B4栋","full_address":"内蒙古自治区呼和浩特市土默特左旗金山开发区易购城小区B4栋","info":""}},{"type":"Feature","geometry":{"type":"Point","coordinates":[111.55682,40.66949]},"properties":{"province":"内蒙古自治区","city":"呼和浩特市","county":"土默特左旗","community":"白庙子镇汇福煤炭物流园区","full_address":"内蒙古自治区呼和浩特市土默特左旗白庙子镇汇福煤炭物流园区","info":""}},{"type":"Feature","geometry":{"type":"Point","coordinates":[111.534264,40.781517]},"properties":{"province":"内蒙古自治区","city":"呼和浩特市","county":"土默特左旗","community":"半山半水A区（除2号楼）","full_address":"内蒙古自治区呼和浩特市土默特左旗半山半水A区（除2号楼）","info":""}},{"type":"Feature","geometry":{"type":"Point","coordinates":[111.549561,40.79834]},"properties":{"province":"内蒙古自治区","city":"呼和浩特市","county":"土默特左旗","community":"汇金区域服务中心御景嘉园小区（除4号楼）","full_address":"内蒙古自治区呼和浩特市土默特左旗汇金区域服务中心御景嘉园小区（除4号楼）","info":""}},{"type":"Feature","geometry":{"type":"Point","coordinates":[111.395073,40.589653]},"properties":{"province":"内蒙古自治区","city":"呼和浩特市","county":"土默特左旗","community":"金浩区域服务中心宽城西区寿园（除5号楼）","full_address":"内蒙古自治区呼和浩特市土默特左旗金浩区域服务中心宽城西区寿园（除5号楼）","info":""}},{"type":"Feature","geometry":{"type":"Point","coordinates":[111.821953,40.59919]},"properties":{"province":"内蒙古自治区","city":"呼和浩特市","county":"和林格尔县","community":"盛乐镇古力半村","full_address":"内蒙古自治区呼和浩特市和林格尔县盛乐镇古力半村","info":""}},{"type":"Feature","geometry":{"type":"Point","coordinates":[111.7261,41.247205]},"properties":{"province":"内蒙古自治区","city":"呼和浩特市","county":"武川县","community":"哈乐镇三合泉村","full_address":"内蒙古自治区呼和浩特市武川县哈乐镇三合泉村","info":""}},{"type":"Feature","geometry":{"type":"Point","coordinates":[111.463371,41.078578]},"properties":{"province":"内蒙古自治区","city":"呼和浩特市","county":"武川县","community":"可镇荣金小区","full_address":"内蒙古自治区呼和浩特市武川县可镇荣金小区","info":""}},{"type":"Feature","geometry":{"type":"Point","coordinates":[111.459646,41.079562]},"properties":{"province":"内蒙古自治区","city":"呼和浩特市","county":"武川县","community":"花香丽舍7号楼","full_address":"内蒙古自治区呼和浩特市武川县花香丽舍7号楼","info":""}},{"type":"Feature","geometry":{"type":"Point","coordinates":[110.031248,40.594462]},"properties":{"province":"内蒙古自治区","city":"包头市","county":"东河区","community":"东站街道办事处维多利新天地小区","full_address":"内蒙古自治区包头市东河区东站街道办事处维多利新天地小区","info":""}},{"type":"Feature","geometry":{"type":"Point","coordinates":[110.034557,40.594993]},"properties":{"province":"内蒙古自治区","city":"包头市","county":"东河区","community":"回民街道办事处福瑞瓦东小区","full_address":"内蒙古自治区包头市东河区回民街道办事处福瑞瓦东小区","info":""}},{"type":"Feature","geometry":{"type":"Point","coordinates":[110.03651,40.57821]},"properties":{"province":"内蒙古自治区","city":"包头市","county":"东河区","community":"南门外街道办事处盛世小区8号楼","full_address":"内蒙古自治区包头市东河区南门外街道办事处盛世小区8号楼","info":""}},{"type":"Feature","geometry":{"type":"Point","coordinates":[109.990971,40.596508]},"properties":{"province":"内蒙古自治区","city":"包头市","county":"东河区","community":"铁西街道办事处三街二区9号楼","full_address":"内蒙古自治区包头市东河区铁西街道办事处三街二区9号楼","info":""}},{"type":"Feature","geometry":{"type":"Point","coordinates":[110.039413,40.601883]},"properties":{"province":"内蒙古自治区","city":"包头市","county":"东河区","community":"回民街道办事处北梁西二区","full_address":"内蒙古自治区包头市东河区回民街道办事处北梁西二区","info":""}},{"type":"Feature","geometry":{"type":"Point","coordinates":[110.053635,40.573608]},"properties":{"province":"内蒙古自治区","city":"包头市","county":"东河区","community":"河东街道办事处阳光天福小区","full_address":"内蒙古自治区包头市东河区河东街道办事处阳光天福小区","info":""}},{"type":"Feature","geometry":{"type":"Point","coordinates":[110.031136,40.564766]},"properties":{"province":"内蒙古自治区","city":"包头市","county":"东河区","community":"天骄街道办事处二里半地矿小区AB区","full_address":"内蒙古自治区包头市东河区天骄街道办事处二里半地矿小区AB区","info":""}},{"type":"Feature","geometry":{"type":"Point","coordinates":[110.055771,40.563381]},"properties":{"province":"内蒙古自治区","city":"包头市","county":"东河区","community":"杨圪塄街道办事处北梁新区南六区","full_address":"内蒙古自治区包头市东河区杨圪塄街道办事处北梁新区南六区","info":""}},{"type":"Feature","geometry":{"type":"Point","coordinates":[110.029892,40.570431]},"properties":{"province":"内蒙古自治区","city":"包头市","county":"东河区","community":"南门外街道办事处东官房小区","full_address":"内蒙古自治区包头市东河区南门外街道办事处东官房小区","info":""}},{"type":"Feature","geometry":{"type":"Point","coordinates":[110.011307,40.586189]},"properties":{"province":"内蒙古自治区","city":"包头市","county":"东河区","community":"西脑包街道办事处西河景苑小区","full_address":"内蒙古自治区包头市东河区西脑包街道办事处西河景苑小区","info":""}},{"type":"Feature","geometry":{"type":"Point","coordinates":[109.988579,40.595043]},"properties":{"province":"内蒙古自治区","city":"包头市","county":"东河区","community":"铁西街道办事处部分小区居民楼（总段1号楼，总段2号楼，合作7号楼，公安楼）","full_address":"内蒙古自治区包头市东河区铁西街道办事处部分小区居民楼（总段1号楼，总段2号楼，合作7号楼，公安楼）","info":""}},{"type":"Feature","geometry":{"type":"Point","coordinates":[109.820468,40.632908]},"properties":{"province":"内蒙古自治区","city":"包头市","county":"昆都仑区","community":"东亚世纪城文雅苑小区","full_address":"内蒙古自治区包头市昆都仑区东亚世纪城文雅苑小区","info":""}},{"type":"Feature","geometry":{"type":"Point","coordinates":[109.840393,40.680221]},"properties":{"province":"内蒙古自治区","city":"包头市","county":"昆都仑区","community":"居然新城小区","full_address":"内蒙古自治区包头市昆都仑区居然新城小区","info":""}},{"type":"Feature","geometry":{"type":"Point","coordinates":[109.82304,40.62243]},"properties":{"province":"内蒙古自治区","city":"包头市","county":"昆都仑区","community":"天疆骊城小区","full_address":"内蒙古自治区包头市昆都仑区天疆骊城小区","info":""}},{"type":"Feature","geometry":{"type":"Point","coordinates":[109.842949,40.639961]},"properties":{"province":"内蒙古自治区","city":"包头市","county":"昆都仑区","community":"华丽家族小区","full_address":"内蒙古自治区包头市昆都仑区华丽家族小区","info":""}},{"type":"Feature","geometry":{"type":"Point","coordinates":[109.800941,40.681023]},"properties":{"province":"内蒙古自治区","city":"包头市","county":"昆都仑区","community":"天赐新城小区","full_address":"内蒙古自治区包头市昆都仑区天赐新城小区","info":""}},{"type":"Feature","geometry":{"type":"Point","coordinates":[109.808868,40.689621]},"properties":{"province":"内蒙古自治区","city":"包头市","county":"昆都仑区","community":"南排四组新村致富路北35—40栋，43、44栋，54、55栋","full_address":"内蒙古自治区包头市昆都仑区南排四组新村致富路北35—40栋，43、44栋，54、55栋","info":""}},{"type":"Feature","geometry":{"type":"Point","coordinates":[109.808777,40.692986]},"properties":{"province":"内蒙古自治区","city":"包头市","county":"昆都仑区","community":"南排四组新村企业路中段南48、52、53栋","full_address":"内蒙古自治区包头市昆都仑区南排四组新村企业路中段南48、52、53栋","info":""}},{"type":"Feature","geometry":{"type":"Point","coordinates":[109.804108,40.67173]},"properties":{"province":"内蒙古自治区","city":"包头市","county":"昆都仑区","community":"胜利佳苑小区","full_address":"内蒙古自治区包头市昆都仑区胜利佳苑小区","info":""}},{"type":"Feature","geometry":{"type":"Point","coordinates":[109.663582,40.664013]},"properties":{"province":"内蒙古自治区","city":"包头市","county":"昆都仑区","community":"背锅窑村","full_address":"内蒙古自治区包头市昆都仑区背锅窑村","info":""}},{"type":"Feature","geometry":{"type":"Point","coordinates":[109.82959,40.663601]},"properties":{"province":"内蒙古自治区","city":"包头市","county":"昆都仑区","community":"少先31街坊79小区","full_address":"内蒙古自治区包头市昆都仑区少先31街坊79小区","info":""}},{"type":"Feature","geometry":{"type":"Point","coordinates":[109.833359,40.643349]},"properties":{"province":"内蒙古自治区","city":"包头市","county":"昆都仑区","community":"友谊小区","full_address":"内蒙古自治区包头市昆都仑区友谊小区","info":""}},{"type":"Feature","geometry":{"type":"Point","coordinates":[109.833359,40.643349]},"properties":{"province":"内蒙古自治区","city":"包头市","county":"昆都仑区","community":"友谊南小区","full_address":"内蒙古自治区包头市昆都仑区友谊南小区","info":""}},{"type":"Feature","geometry":{"type":"Point","coordinates":[109.825684,40.672142]},"properties":{"province":"内蒙古自治区","city":"包头市","county":"昆都仑区","community":"国际新城北区","full_address":"内蒙古自治区包头市昆都仑区国际新城北区","info":""}},{"type":"Feature","geometry":{"type":"Point","coordinates":[109.83859,40.64178]},"properties":{"province":"内蒙古自治区","city":"包头市","county":"昆都仑区","community":"团13街坊包钢院小区","full_address":"内蒙古自治区包头市昆都仑区团13街坊包钢院小区","info":""}},{"type":"Feature","geometry":{"type":"Point","coordinates":[109.823326,40.62669]},"properties":{"province":"内蒙古自治区","city":"包头市","county":"昆都仑区","community":"帝景小区","full_address":"内蒙古自治区包头市昆都仑区帝景小区","info":""}},{"type":"Feature","geometry":{"type":"Point","coordinates":[109.78363,40.641113]},"properties":{"province":"内蒙古自治区","city":"包头市","county":"昆都仑区","community":"孟家河湾村","full_address":"内蒙古自治区包头市昆都仑区孟家河湾村","info":""}},{"type":"Feature","geometry":{"type":"Point","coordinates":[109.813263,40.609901]},"properties":{"province":"内蒙古自治区","city":"包头市","county":"昆都仑区","community":"万和城二期","full_address":"内蒙古自治区包头市昆都仑区万和城二期","info":""}},{"type":"Feature","geometry":{"type":"Point","coordinates":[109.816399,40.63575]},"properties":{"province":"内蒙古自治区","city":"包头市","county":"昆都仑区","community":"黄河四区","full_address":"内蒙古自治区包头市昆都仑区黄河四区","info":""}},{"type":"Feature","geometry":{"type":"Point","coordinates":[109.817955,40.649094]},"properties":{"province":"内蒙古自治区","city":"包头市","county":"昆都仑区","community":"友谊20街坊育华小区","full_address":"内蒙古自治区包头市昆都仑区友谊20街坊育华小区","info":""}},{"type":"Feature","geometry":{"type":"Point","coordinates":[109.833267,40.663502]},"properties":{"province":"内蒙古自治区","city":"包头市","county":"昆都仑区","community":"佳园小区","full_address":"内蒙古自治区包头市昆都仑区佳园小区","info":""}},{"type":"Feature","geometry":{"type":"Point","coordinates":[109.879875,40.6685]},"properties":{"province":"内蒙古自治区","city":"包头市","county":"青山区","community":"松石国际城石榴园11栋","full_address":"内蒙古自治区包头市青山区松石国际城石榴园11栋","info":""}},{"type":"Feature","geometry":{"type":"Point","coordinates":[109.885861,40.669555]},"properties":{"province":"内蒙古自治区","city":"包头市","county":"青山区","community":"呼得木林新天地二区九号楼","full_address":"内蒙古自治区包头市青山区呼得木林新天地二区九号楼","info":""}},{"type":"Feature","geometry":{"type":"Point","coordinates":[109.898252,40.651781]},"properties":{"province":"内蒙古自治区","city":"包头市","county":"青山区","community":"光辉三区","full_address":"内蒙古自治区包头市青山区光辉三区","info":""}},{"type":"Feature","geometry":{"type":"Point","coordinates":[109.865282,40.69486]},"properties":{"province":"内蒙古自治区","city":"包头市","county":"青山区","community":"银海社区阳光上城上景园小区西区","full_address":"内蒙古自治区包头市青山区银海社区阳光上城上景园小区西区","info":""}},{"type":"Feature","geometry":{"type":"Point","coordinates":[109.857063,40.659628]},"properties":{"province":"内蒙古自治区","city":"包头市","county":"青山区","community":"棉纺小区","full_address":"内蒙古自治区包头市青山区棉纺小区","info":""}},{"type":"Feature","geometry":{"type":"Point","coordinates":[109.865409,40.648995]},"properties":{"province":"内蒙古自治区","city":"包头市","county":"青山区","community":"春光四区","full_address":"内蒙古自治区包头市青山区春光四区","info":""}},{"type":"Feature","geometry":{"type":"Point","coordinates":[109.91065,40.64492]},