{"type":"FeatureCollection","features":[{"type":"Feature","geometry":{"type":"Point","coordinates":[116.47545713083456,39.916120140497846]},"properties":{"full_address":"北京市朝阳区呼家楼街道金台里8号楼3单元某户"}},{"type":"Feature","geometry":{"type":"Point","coordinates":[116.46034003085506,39.92580880574333]},"properties":{"full_address":"北京市朝阳区呼家楼街道向军北里7号楼1门某户"}},{"type":"Feature","geometry":{"type":"Point","coordinates":[116.50727666462139,39.952388642057834]},"properties":{"full_address":"北京市朝阳区朝外街道99优选某房间"}},{"type":"Feature","geometry":{"type":"Point","coordinates":[116.43734741931384,39.9393241790901]},"properties":{"full_address":"北京市朝阳区朝外街道工体西路朝外便民早市旁新下四条垃圾楼某户"}},{"type":"Feature","geometry":{"type":"Point","coordinates":[116.43846177758354,39.926206634484345]},"properties":{"full_address":"北京市朝阳区朝外街道吉祥里115号楼某些户"}},{"type":"Feature","geometry":{"type":"Point","coordinates":[116.44810664573191,39.92039719116672]},"properties":{"full_address":"北京市朝阳区朝外街道侨福芳草地北巷甲1号楼员工宿舍"}},{"type":"Feature","geometry":{"type":"Point","coordinates":[116.44174766131387,39.919856426655066]},"properties":{"full_address":"北京市朝阳区朝外街道日坛北路17号某户"}},{"type":"Feature","geometry":{"type":"Point","coordinates":[116.44670155640702,39.91797488968848]},"properties":{"full_address":"北京市朝阳区朝外街道日坛北路7号某户"}},{"type":"Feature","geometry":{"type":"Point","coordinates":[116.43805445378553,39.91952261398775]},"properties":{"full_address":"北京市朝阳区朝外街道三丰里12号楼6单元某户"}},{"type":"Feature","geometry":{"type":"Point","coordinates":[116.43970364598347,39.91926274951891]},"properties":{"full_address":"北京市朝阳区朝外街道三丰里25号楼2单元某户"}},{"type":"Feature","geometry":{"type":"Point","coordinates":[116.44801306271437,39.92529694462836]},"properties":{"full_address":"北京市朝阳区朝外街道山水铂宫B3某户"}},{"type":"Feature","geometry":{"type":"Point","coordinates":[116.44377940654303,39.91905006071504]},"properties":{"full_address":"北京市朝阳区朝外街道神路街39号日坛上街3号楼某户"}},{"type":"Feature","geometry":{"type":"Point","coordinates":[116.47107263846361,39.89871483222402]},"properties":{"full_address":"北京市朝阳区双井街道百子湾路32号苹果社区南区11A某户"}},{"type":"Feature","geometry":{"type":"Point","coordinates":[116.46673981386101,39.89685920069498]},"properties":{"full_address":"北京市朝阳区双井街道北汽摩北楼二层某些户"}},{"type":"Feature","geometry":{"type":"Point","coordinates":[116.45915423840867,39.88769822628445]},"properties":{"full_address":"北京市朝阳区双井街道垂杨柳南街2号某户"}},{"type":"Feature","geometry":{"type":"Point","coordinates":[116.45634511204192,39.896004995473355]},"properties":{"full_address":"北京市朝阳区双井街道富力城D51—B1—某房间"}},{"type":"Feature","geometry":{"type":"Point","coordinates":[116.45379893670902,39.889729715932965]},"properties":{"full_address":"北京市朝阳区双井街道广和东里中街1号某户"}},{"type":"Feature","geometry":{"type":"Point","coordinates":[116.48543099155368,39.89403028065301]},"properties":{"full_address":"北京市朝阳区双井街道广渠金茂府66号院地下二层保洁办公室"}},{"type":"Feature","geometry":{"type":"Point","coordinates":[116.45375651720573,39.893173254325774]},"properties":{"full_address":"北京市朝阳区双井街道广渠门外大街32栋6单元某房间"}},{"type":"Feature","geometry":{"type":"Point","coordinates":[116.44534117772328,39.888528871860835]},"properties":{"full_address":"北京市朝阳区双井街道汉庭酒店（北京站店）8层某些房间"}},{"type":"Feature","geometry":{"type":"Point","coordinates":[116.44921639646302,39.88690013854834]},"properties":{"full_address":"北京市朝阳区双井街道和平村F区2号楼某户"}},{"type":"Feature","geometry":{"type":"Point","coordinates":[116.45817194443991,39.89254453523478]},"properties":{"full_address":"北京市朝阳区双井街道黄木庄6号院2号楼1单元某户"}},{"type":"Feature","geometry":{"type":"Point","coordinates":[116.47528111232413,39.895530866211494]},"properties":{"full_address":"北京市朝阳区双井街道石韵浩庭4号楼1单元某户"}},{"type":"Feature","geometry":{"type":"Point","coordinates":[116.45522461164371,39.89755982470819]},"properties":{"full_address":"北京市朝阳区双井街道天力街19号院十号地某户"}},{"type":"Feature","geometry":{"type":"Point","coordinates":[116.45828988986213,39.92901023285257]},"properties":{"full_address":"北京市朝阳区三里屯街道白家庄西里2号楼某户"}},{"type":"Feature","geometry":{"type":"Point","coordinates":[116.44656081912109,39.936972978549456]},"properties":{"full_address":"北京市朝阳区三里屯街道锦绣园公寓b某户"}},{"type":"Feature","geometry":{"type":"Point","coordinates":[116.45690512565066,39.9331804930322]},"properties":{"full_address":"北京市朝阳区三里屯街道凯富温泉俱乐部12层某户"}},{"type":"Feature","geometry":{"type":"Point","coordinates":[116.45429461774106,39.927339576879405]},"properties":{"full_address":"北京市朝阳区三里屯街道中纺里5号楼1单元某户"}},{"type":"Feature","geometry":{"type":"Point","coordinates":[116.58641931202965,39.91125340291205]},"properties":{"full_address":"北京市朝阳区管庄（地区）乡管庄世通大厦E座某号"}},{"type":"Feature","geometry":{"type":"Point","coordinates":[116.59386475541748,39.91999610242475]},"properties":{"full_address":"北京市朝阳区管庄（地区）乡科技大学回民食堂10号楼后面某号"}},{"type":"Feature","geometry":{"type":"Point","coordinates":[116.56393463766537,39.87461261359103]},"properties":{"full_address":"北京市朝阳区管庄（地区）乡双桥路双桥东一巷平房13排"}},{"type":"Feature","geometry":{"type":"Point","coordinates":[116.59296263561572,39.902415125691135]},"properties":{"full_address":"北京市朝阳区管庄（地区）乡塔营北街3号院9号楼1单元某号"}},{"type":"Feature","geometry":{"type":"Point","coordinates":[116.44791888392342,39.966152291207706]},"properties":{"full_address":"北京市朝阳区左家庄街道西坝河东里12号楼6单元某户"}},{"type":"Feature","geometry":{"type":"Point","coordinates":[116.44104888321449,39.95940015072558]},"properties":{"full_address":"北京市朝阳区左家庄街道左家庄北里甲2号2单元某户"}},{"type":"Feature","geometry":{"type":"Point","coordinates":[116.44484905206896,39.95253120991718]},"properties":{"full_address":"北京市朝阳区左家庄街道左南里2号楼某户"}},{"type":"Feature","geometry":{"type":"Point","coordinates":[116.50848345895749,39.855806994400126]},"properties":{"full_address":"北京市朝阳区垡头街道翠城雅园社区226楼某户"}},{"type":"Feature","geometry":{"type":"Point","coordinates":[116.5035990967394,39.85677287073092]},"properties":{"full_address":"北京市朝阳区垡头街道翠城馨园307-1-某户"}},{"type":"Feature","geometry":{"type":"Point","coordinates":[116.50974308873808,39.85326536183645]},"properties":{"full_address":"北京市朝阳区垡头街道翠城馨园503-某户"}},{"type":"Feature","geometry":{"type":"Point","coordinates":[116.49907857725411,39.91780222311679]},"properties":{"full_address":"北京市朝阳区垡头街道东里社区东里东院13排某号"}},{"type":"Feature","geometry":{"type":"Point","coordinates":[116.52746402499525,39.855807345597476]},"properties":{"full_address":"北京市朝阳区垡头街道双合小区南街2号院1号楼1单元某户"}},{"type":"Feature","geometry":{"type":"Point","coordinates":[116.50997884330752,39.865206107729314]},"properties":{"full_address":"北京市朝阳区垡头街道垡头西里二区22号楼1单元某户"}},{"type":"Feature","geometry":{"type":"Point","coordinates":[116.5035990967394,39.85677287073092]},"properties":{"full_address":"北京市朝阳区垡头街道翠城馨园421号楼某号"}},{"type":"Feature","geometry":{"type":"Point","coordinates":[116.50899479500534,39.86221059839375]},"properties":{"full_address":"北京市朝阳区垡头街道垡头三区3号院12排某号"}},{"type":"Feature","geometry":{"type":"Point","coordinates":[116.43172639927158,39.952940679139]},"properties":{"full_address":"北京市朝阳区和平街街道东土城路9号院3号楼2单元某户"}},{"type":"Feature","geometry":{"type":"Point","coordinates":[116.49346875680503,39.98859702081653]},"properties":{"full_address":"北京市朝阳区酒仙桥街道酒仙桥北路9号C1一层某户"}},{"type":"Feature","geometry":{"type":"Point","coordinates":[116.49346875680503,39.98859702081653]},"properties":{"full_address":"北京市朝阳区酒仙桥街道酒仙桥北路9号某户"}},{"type":"Feature","geometry":{"type":"Point","coordinates":[116.48722004619677,39.963790121587216]},"properties":{"full_address":"北京市朝阳区酒仙桥街道十街坊22号院某户"}},{"type":"Feature","geometry":{"type":"Point","coordinates":[116.50275527884993,39.987312071218746]},"properties":{"full_address":"北京市朝阳区酒仙桥街道星地中心某户"}},{"type":"Feature","geometry":{"type":"Point","coordinates":[116.49361182253986,39.965275392158624]},"properties":{"full_address":"北京市朝阳区酒仙桥街道一街坊6号某户"}},{"type":"Feature","geometry":{"type":"Point","coordinates":[116.50019684949403,39.916974386123684]},"properties":{"full_address":"北京市朝阳区八里庄街道八里庄八东社区A01某些户"}},{"type":"Feature","geometry":{"type":"Point","coordinates":[116.499081665906,39.924826296490984]},"properties":{"full_address":"北京市朝阳区八里庄街道八里庄北里217号楼10层4单元某号"}},{"type":"Feature","geometry":{"type":"Point","coordinates":[116.49644874450338,39.91989404817893]},"properties":{"full_address":"北京市朝阳区八里庄街道八里庄东里北巷9号楼某户"}},{"type":"Feature","geometry":{"type":"Point","coordinates":[116.51399026041334,39.91657042509619]},"properties":{"full_address":"北京市朝阳区八里庄街道甘露园南里20号楼某些户"}},{"type":"Feature","geometry":{"type":"Point","coordinates":[116.48130862653392,39.91465546687218]},"properties":{"full_address":"北京市朝阳区八里庄街道红庙路口柴家湾5号楼南侧飘HOME酒店某些房间"}},{"type":"Feature","geometry":{"type":"Point","coordinates":[116.5052897538524,39.914531395328254]},"properties":{"full_address":"北京市朝阳区八里庄街道十里堡爱这城2号楼4单元某户"}},{"type":"Feature","geometry":{"type":"Point","coordinates":[116.49952475362156,39.91190422815787]},"properties":{"full_address":"北京市朝阳区八里庄街道东恒时代2期 A区2某户"}},{"type":"Feature","geometry":{"type":"Point","coordinates":[116.59296470427202,40.05016193735294]},"properties":{"full_address":"北京市朝阳区首都机场街道机场南路西里7号楼3单元某户"}},{"type":"Feature","geometry":{"type":"Point","coordinates":[116.46690817396686,39.93022749514265]},"properties":{"full_address":"北京市朝阳区团结湖街道白家庄东里34号楼3单元某户"}},{"type":"Feature","geometry":{"type":"Point","coordinates":[116.4685842927536,39.93343629513633]},"properties":{"full_address":"北京市朝阳区团结湖街道北三条4号楼2单元某户"}},{"type":"Feature","geometry":{"type":"Point","coordinates":[116.46645859720418,39.959035469363954]},"properties":{"full_address":"北京市朝阳区望京街道坝北京顺园公园宿舍某些房间"}},{"type":"Feature","geometry":{"type":"Point","coordinates":[116.47279941970747,39.991963788115974]},"properties":{"full_address":"北京市朝阳区望京街道东亚中心公厕旁边的平房"}},{"type":"Feature","geometry":{"type":"Point","coordinates":[116.45445455991864,39.910869564223255]},"properties":{"full_address":"北京市朝阳区望京街道光华里19号楼4单元某户"}},{"type":"Feature","geometry":{"type":"Point","coordinates":[116.45902047527879,39.99090726647632]},"properties":{"full_address":"北京市朝阳区望京街道花家地西里三区居委会平房院内"}},{"type":"Feature","geometry":{"type":"Point","coordinates":[116.48816030464913,39.993169460725305]},"properties":{"full_address":"北京市朝阳区望京街道建外Soho西区12号楼地下室B1"}},{"type":"Feature","geometry":{"type":"Point","coordinates":[116.47003728561593,39.988750765663276]},"properties":{"full_address":"北京市朝阳区望京街道望花路西里20号楼某户"}},{"type":"Feature","geometry":{"type":"Point","coordinates":[116.47193926949535,39.99680405467026]},"properties":{"full_address":"北京市朝阳区望京街道望京西园四区422楼某户"}},{"type":"Feature","geometry":{"type":"Point","coordinates":[116.46920223873867,39.99745693857767]},"properties":{"full_address":"北京市朝阳区望京街道望京西园四区社区401号楼某户"}},{"type":"Feature","geometry":{"type":"Point","coordinates":[116.47403207437723,39.90572395907414]},"properties":{"full_address":"北京市朝阳区建外街道光辉南里4号楼1单元"}},{"type":"Feature","geometry":{"type":"Point","coordinates":[116.47629817007473,39.91120909507733]},"properties":{"full_address":"北京市朝阳区建外街道西大望路蓝堡国际公寓某户"}},{"type":"Feature","geometry":{"type":"Point","coordinates":[116.44456906181301,39.90529793284234]},"properties":{"full_address":"北京市朝阳区建外街道永安里南里8号楼2单元"}},{"type":"Feature","geometry":{"type":"Point","coordinates":[116.37877297161445,39.98992157599324]},"properties":{"full_address":"北京市朝阳区亚运村街道丝竹园社区1号楼3单元某户"}},{"type":"Feature","geometry":{"type":"Point","coordinates":[116.50316266285935,39.939358922031346]},"properties":{"full_address":"北京市朝阳区东风（地区）乡东风苑小区6号院1号楼2单元"}},{"type":"Feature","geometry":{"type":"Point","coordinates":[116.50368877104167,39.93498540070585]},"properties":{"full_address":"北京市朝阳区东风（地区）乡石佛营东里105号院4号楼3单元"}},{"type":"Feature","geometry":{"type":"Point","coordinates":[116.50705954215971,39.933069364144814]},"properties":{"full_address":"北京市朝阳区东风（地区）乡石佛营东里128号楼1单元某户"}},{"type":"Feature","geometry":{"type":"Point","coordinates":[116.49515429403716,39.93088110998518]},"properties":{"full_address":"北京市朝阳区东风（地区）乡高庙村118号"}},{"type":"Feature","geometry":{"type":"Point","coordinates":[116.46662451068005,39.82758354497414]},"properties":{"full_address":"北京市朝阳区小红门（地区）乡鸿博家园二期B区5号楼2单元某户"}},{"type":"Feature","geometry":{"type":"Point","coordinates":[116.47550395076782,39.83035643513979]},"properties":{"full_address":"北京市朝阳区小红门（地区）乡鸿博家园一期A区9号楼2单元、3单元某些户"}},{"type":"Feature","geometry":{"type":"Point","coordinates":[116.47321261307522,39.83993411051521]},"properties":{"full_address":"北京市朝阳区十八里店（地区）乡吕家营南里甲1号"}},{"type":"Feature","geometry":{"type":"Point","coordinates":[116.45882229470548,39.86114027979519]},"properties":{"full_address":"北京市朝阳区十八里店（地区）乡十里河村352号"}},{"type":"Feature","geometry":{"type":"Point","coordinates":[116.46301626312182,39.86185174132807]},"properties":{"full_address":"北京市朝阳区十八里店（地区）乡十里河村广客缘公寓某房间"}},{"type":"Feature","geometry":{"type":"Point","coordinates":[116.45255073861358,39.86756699429238]},"properties":{"full_address":"北京市朝阳区十八里店（地区）乡十里河饮马井494号"}},{"type":"Feature","geometry":{"type":"Point","coordinates":[116.47403361151447,39.86464381338452]},"properties":{"full_address":"北京市朝阳区十八里店（地区）乡周庄嘉园东里27号楼某些户"}},{"type":"Feature","geometry":{"type":"Point","coordinates":[116.44014969250341,39.98016130027844]},"properties":{"full_address":"北京市朝阳区太阳宫（地区）乡红玺台3号院2单元某户"}},{"type":"Feature","geometry":{"type":"Point","coordinates":[116.63447005118653,39.99216680587556]},"properties":{"full_address":"北京市朝阳区太阳宫（地区）乡莱太花卉工地某房间"}},{"type":"Feature","geometry":{"type":"Point","coordinates":[116.4105242127331,40.00082198987427]},"properties":{"full_address":"北京市朝阳区大屯街道安园6号楼某户"}},{"type":"Feature","geometry":{"type":"Point","coordinates":[116.42084229833242,40.00147243867263]},"properties":{"full_address":"北京市朝阳区大屯街道大屯220号院3号楼某户"}},{"type":"Feature","geometry":{"type":"Point","coordinates":[116.41261647033294,40.00460022921725]},"properties":{"full_address":"北京市朝阳区大屯街道大屯里金泉家园306号楼某户"}},{"type":"Feature","geometry":{"type":"Point","coordinates":[116.43535165412351,39.994934939770715]},"properties":{"full_address":"北京市朝阳区大屯街道中华女子学院某些户"}},{"type":"Feature","geometry":{"type":"Point","coordinates":[116.53089488620945,39.97774573173027]},"properties":{"full_address":"北京市朝阳区来广营（地区）乡城锦苑5-2-某户"}},{"type":"Feature","geometry":{"type":"Point","coordinates":[116.41549439878814,40.054262737217506]},"properties":{"full_address":"北京市朝阳区来广营（地区）乡立城苑梦创公寓某户"}},{"type":"Feature","geometry":{"type":"Point","coordinates":[116.50615066970988,39.998365054860955]},"properties":{"full_address":"北京市朝阳区崔各庄（地区）乡草场地村A01"}},{"type":"Feature","geometry":{"type":"Point","coordinates":[116.50625406845693,40.00712468175027]},"properties":{"full_address":"北京市朝阳区崔各庄（地区）乡东辛店53号某户"}},{"type":"Feature","geometry":{"type":"Point","coordinates":[116.4330573084801,40.0517551237498]},"properties":{"full_address":"北京市朝阳区崔各庄（地区）乡广善第一社区某户"}},{"type":"Feature","geometry":{"type":"Point","coordinates":[116.49582058091563,40.04225908910165]},"properties":{"full_address":"北京市朝阳区崔各庄（地区）乡何各庄125"}},{"type":"Feature","geometry":{"type":"Point","coordinates":[116.52808551015198,40.00755339405488]},"properties":{"full_address":"北京市朝阳区崔各庄（地区）乡京旺家园2区12号楼3单元某户"}},{"type":"Feature","geometry":{"type":"Point","coordinates":[116.52880867442111,40.011220388108015]},"properties":{"full_address":"北京市朝阳区崔各庄（地区）乡京旺家园第二社区某户"}},{"type":"Feature","geometry":{"type":"Point","coordinates":[116.45486839324633,39.96153266067615]},"properties":{"full_address":"北京市朝阳区崔各庄（地区）乡三元物流园区某些户"}},{"type":"Feature","geometry":{"type":"Point","coordinates":[116.44299964206726,39.920600876341226]},"properties":{"full_address":"北京市朝阳区崔各庄（地区）乡新锦社区A座某户"}},{"type":"Feature","geometry":{"type":"Point","coordinates":[116.50625406845693,40.00712468175027]},"properties":{"full_address":"北京市朝阳区崔各庄（地区）乡东辛店302号某户"}},{"type":"Feature","geometry":{"type":"Point","coordinates":[116.4566947648987,39.98991863501036]},"properties":{"full_address":"北京市朝阳区黑庄户（地区）乡朗悦北区1号院某户"}},{"type":"Feature","geometry":{"type":"Point","coordinates":[116.43984527705919,39.922879990422594]},"properties":{"full_address":"北京市朝阳区黑庄户（地区）乡朗悦南区5-2-某些户"}},{"type":"Feature","geometry":{"type":"Point","coordinates":[116.56537255756838,39.89695420169521]},"properties":{"full_address":"北京市朝阳区三间房（地区）乡金家坟西里23栋"}},{"type":"Feature","geometry":{"type":"Point","coordinates":[116.55600910115987,39.91993764525444]},"properties":{"full_address":"北京市朝阳区三间房（地区）乡天泰定福苑8号楼2单元某户"}},{"type":"Feature","geometry":{"type":"Point","coordinates":[116.60054819271961,39.92698644271274]},"properties":{"full_address":"北京市朝阳区常营乡常营中路畅心阳光小区2号院12号楼某户"}},{"type":"Feature","geometry":{"type":"Point","coordinates":[116.59367023865377,39.92326920879755]},"properties":{"full_address":"北京市朝阳区常营乡朝阳北路29号宿舍某些房间"}},{"type":"Feature","geometry":{"type":"Point","coordinates":[116.60050918286996,39.928548428021706]},"properties":{"full_address":"北京市朝阳区常营乡福第社区6号2号楼2单元某户"}},{"type":"Feature","geometry":{"type":"Point","coordinates":[116.61115698393374,39.92056054349742]},"properties":{"full_address":"北京市朝阳区常营乡连心园社区46号楼5单元某户"}},{"type":"Feature","geometry":{"type":"Point","coordinates":[116.58200181451883,39.93043219263849]},"properties":{"full_address":"北京市朝阳区常营乡民族家园社区93号楼7单元某户"}},{"type":"Feature","geometry":{"type":"Point","coordinates":[116.61514324572228,39.927961308301015]},"properties":{"full_address":"北京市朝阳区常营乡像素北五里桥二街1号院1号楼11、13层某户"}},{"type":"Feature","geometry":{"type":"Point","coordinates":[116.60151944424213,39.929978426952346]},"properties":{"full_address":"北京市朝阳区常营乡常营福第社区中区10号楼2单元某户"}},{"type":"Feature","geometry":{"type":"Point","coordinates":[116.58200181451883,39.93043219263849]},"properties":{"full_address":"北京市朝阳区常营乡常营民族家园社区96-4某户"}},{"type":"Feature","geometry":{"type":"Point","coordinates":[116.61514324572228,39.927961308301015]},"properties":{"full_address":"北京市朝阳区常营乡常营像素北五里桥二街1号院1号楼13层某户"}},{"type":"Feature","geometry":{"type":"Point","coordinates":[116.59237884071422,39.92407708333361]},"properties":{"full_address":"北京市朝阳区常营乡燕宝常营11号楼15层某户"}},{"type":"Feature","geometry":{"type":"Point","coordinates":[116.5196100371239,40.049444146375336]},"properties":{"full_address":"北京市朝阳区孙河（地区）乡中粮瑞府工地某房间"}},{"type":"Feature","geometry":{"type":"Point","coordinates":[116.46099975917578,40.01277984796299]},"properties":{"full_address":"北京市朝阳区东湖街道澳洲康都8号楼3单元某户"}},{"type":"Feature","geometry":{"type":"Point","coordinates":[116.4602477118421,40.00678693351171]},"properties":{"full_address":"北京市朝阳区东湖街道东湖湾西区4号楼1单元某户"}},{"type":"Feature","geometry":{"type":"Point","coordinates":[116.46528791710902,40.012977343496964]},"properties":{"full_address":"北京市朝阳区东湖街道利泽西园一区104号楼某户"}},{"type":"Feature","geometry":{"type":"Point","coordinates":[116.46528791710902,40.012977343496964]},"properties":{"full_address":"北京市朝阳区东湖街道利泽西园一区111楼某户"}},{"type":"Feature","geometry":{"type":"Point","coordinates":[116.46591042028972,40.003612481131576]},"properties":{"full_address":"北京市朝阳区东湖街道南湖东园112号某些户"}},{"type":"Feature","geometry":{"type":"Point","coordinates":[116.36220872043691,39.80826632589913]},"properties":{"full_address":"北京市丰台区南苑街道范家庄北街1号院4号楼"}},{"type":"Feature","geometry":{"type":"Point","coordinates":[116.3848997097061,39.804505030560755]},"properties":{"full_address":"北京市丰台区南苑街道北马路399号"}},{"type":"Feature","geometry":{"type":"Point","coordinates":[116.37258007458198,39.806395293078054]},"properties":{"full_address":"北京市丰台区南苑街道诚苑路北侧诚苑中里16号楼小区外底商"}},{"type":"Feature","geometry":{"type":"Point","coordinates":[116.37088886205136,39.80632452081644]},"properties":{"full_address":"北京市丰台区南苑街道南庭新苑北区21号楼地下室"}},{"type":"Feature","geometry":{"type":"Point","coordinates":[116.38394961782856,39.804091414654046]},"properties":{"full_address":"北京市丰台区南苑街道北马路415号"}},{"type":"Feature","geometry":{"type":"Point","coordinates":[116.37769844939777,39.809044123540104]},"properties":{"full_address":"北京市丰台区南苑街道嘉则庄路8号"}},{"type":"Feature","geometry":{"type":"Point","coordinates":[116.210022,39.82637]},"properties":{"full_address":"北京市丰台区长辛店街道IU酒店"}},{"type":"Feature","geometry":{"type":"Point","coordinates":[116.39845269472023,39.85194312111425]},"properties":{"full_address":"北京市丰台区大红门街道海户屯10号楼1单元"}},{"type":"Feature","geometry":{"type":"Point","coordinates":[116.39763665818023,39.84986820836407]},"properties":{"full_address":"北京市丰台区大红门街道海户屯1号楼5单元"}},{"type":"Feature","geometry":{"type":"Point","coordinates":[116.39764560579219,39.84949726120289]},"properties":{"full_address":"北京市丰台区大红门街道海户屯2号楼5单元风险户"}},{"type":"Feature","geometry":{"type":"Point","coordinates":[116.28200479055988,39.85367576836631]},"properties":{"full_address":"北京市丰台区五里店街道北大地一里小区3号楼"}},{"type":"Feature","geometry":{"type":"Point","coordinates":[116.26848292014293,39.85066513849215]},"properties":{"full_address":"北京市丰台区五里店街道彩虹家园南区4号楼2单元"}},{"type":"Feature","geometry":{"type":"Point","coordinates":[116.27472676777846,39.86426252404064]},"properties":{"full_address":"北京市丰台区五里店街道丰体南路8号院2楼22层"}},{"type":"Feature","geometry":{"type":"Point","coordinates":[116.2559409513527,39.907907404263945]},"properties":{"full_address":"北京市丰台区五里店街道63号院西3楼1单元风险户"}},{"type":"Feature","geometry":{"type":"Point","coordinates":[116.27249417598429,39.86832265377082]},"properties":{"full_address":"北京市丰台区五里店街道大井北里14号楼2单元风险户"}},{"type":"Feature","geometry":{"type":"Point","coordinates":[116.27330609208956,39.869325127102954]},"properties":{"full_address":"北京市丰台区五里店街道大井北里5号楼4单元风险户"}},{"type":"Feature","geometry":{"type":"Point","coordinates":[116.27245064995657,39.86896237413686]},"properties":{"full_address":"北京市丰台区五里店街道大井北里8号楼4单元风险户"}},{"type":"Feature","geometry":{"type":"Point","coordinates":[116.27245064995657,39.86896237413686]},"properties":{"full_address":"北京市丰台区五里店街道大井北里8号楼6单元风险户"}},{"type":"Feature","geometry":{"type":"Point","coordinates":[116.273430325751,39.86636816215271]},"properties":{"full_address":"北京市丰台区五里店街道大井南里1号楼1单元风险户"}},{"type":"Feature","geometry":{"type":"Point","coordinates":[116.27316265083071,39.86600724579164]},"properties":{"full_address":"北京市丰台区五里店街道大井南里3号楼5单元风险户"}},{"type":"Feature","geometry":{"type":"Point","coordinates":[116.2724556889301,39.8663426812327]},"properties":{"full_address":"北京市丰台区五里店街道大井南里5号楼1单元风险户"}},{"type":"Feature","geometry":{"type":"Point","coordinates":[116.27186777905233,39.866436635947224]},"properties":{"full_address":"北京市丰台区五里店街道大井南里6号楼3单元风险户"}},{"type":"Feature","geometry":{"type":"Point","coordinates":[116.25710924456038,39.85946035526766]},"properties":{"full_address":"北京市丰台区五里店街道和光里15楼1单元风险户"}},{"type":"Feature","geometry":{"type":"Point","coordinates":[116.25271992687016,39.85966024778763]},"properties":{"full_address":"北京市丰台区五里店街道头条19号院26楼3单元风险户"}},{"type":"Feature","geometry":{"type":"Point","coordinates":[116.25271992687016,39.85966024778763]},"properties":{"full_address":"北京市丰台区五里店街道头条19号院43楼1单元风险户"}},{"type":"Feature","geometry":{"type":"Point","coordinates":[116.25904269271892,39.85521405845956]},"properties":{"full_address":"北京市丰台区五里店街道五里店南里小区35号楼2单元风险户"}},{"type":"Feature","geometry":{"type":"Point","coordinates":[116.25904269271892,39.85521405845956]},"properties":{"full_address":"北京市丰台区五里店街道五里店南里小区6号楼1门风险户"}},{"type":"Feature","geometry":{"type":"Point","coordinates":[116.26786592344726,39.8793675590054]},"properties":{"full_address":"北京市丰台区青塔街道珠江峰景15号楼"}},{"type":"Feature","geometry":{"type":"Point","coordinates":[116.27959214044365,39.879732162466304]},"properties":{"full_address":"北京市丰台区青塔街道阅园三区2号楼3单元16层同层、上1703、下1503"}},{"type":"Feature","geometry":{"type":"Point","coordinates":[116.27959214044365,39.879732162466304]},"properties":{"full_address":"北京市丰台区青塔街道阅园三区2号楼4单元11层同层，上1201-1，下1001-1"}},{"type":"Feature","geometry":{"type":"Point","coordinates":[116.273376,39.874939]},"properties":{"full_address":"北京市丰台区青塔街道碾子坟007号院"}},{"type":"Feature","geometry":{"type":"Point","coordinates":[116.273705,39.876614]},"properties":{"full_address":"北京市丰台区青塔街道碾子坟031号院"}},{"type":"Feature","geometry":{"type":"Point","coordinates":[116.27290989409416,39.877203438152385]},"properties":{"full_address":"北京市丰台区青塔街道碾子坟298号院"}},{"type":"Feature","geometry":{"type":"Point","coordinates":[116.27290989409416,39.877203438152385]},"properties":{"full_address":"北京市丰台区青塔街道碾子坟临027号院"}},{"type":"Feature","geometry":{"type":"Point","coordinates":[116.273705,39.876614]},"properties":{"full_address":"北京市丰台区青塔街道岳各庄村碾子坟265号院"}},{"type":"Feature","geometry":{"type":"Point","coordinates":[116.25885265258974,39.89138850395205]},"properties":{"full_address":"北京市丰台区青塔街道芳园小区20号楼6单元"}},{"type":"Feature","geometry":{"type":"Point","coordinates":[116.25762189467434,39.895389171769665]},"properties":{"full_address":"北京市丰台区青塔街道蔚园23号楼14层"}},{"type":"Feature","geometry":{"type":"Point","coordinates":[116.25983786777574,39.895570987753246]},"properties":{"full_address":"北京市丰台区青塔街道蔚园2号楼"}},{"type":"Feature","geometry":{"type":"Point","coordinates":[116.27827647012649,39.87999430758049]},"properties":{"full_address":"北京市丰台区青塔街道岳各庄三站平房区635"}},{"type":"Feature","geometry":{"type":"Point","coordinates":[116.2599219825581,39.88916744141547]},"properties":{"full_address":"北京市丰台区青塔街道大成南里一区1号楼4单元6-8层"}},{"type":"Feature","geometry":{"type":"Point","coordinates":[116.2699744381449,39.87977228529506]},"properties":{"full_address":"北京市丰台区青塔街道民岳家园西区12号院7号楼1单元"}},{"type":"Feature","geometry":{"type":"Point","coordinates":[116.25394098026467,39.893956408648656]},"properties":{"full_address":"北京市丰台区青塔街道博龙家园底商99优选酒店"}},{"type":"Feature","geometry":{"type":"Point","coordinates":[116.3107039141179,39.873823032706845]},"properties":{"full_address":"北京市丰台区青塔街道桔子酒店"}},{"type":"Feature","geometry":{"type":"Point","coordinates":[116.2699744381449,39.87977228529506]},"properties":{"full_address":"北京市丰台区青塔街道民岳家园西区12号院8号楼1单元20层及上下户"}},{"type":"Feature","geometry":{"type":"Point","coordinates":[116.2699744381449,39.87977228529506]},"properties":{"full_address":"北京市丰台区青塔街道民岳家园西区12号院8号楼4单元15层及上下户"}},{"type":"Feature","geometry":{"type":"Point","coordinates":[116.32140796492234,39.88568533517255]},"properties":{"full_address":"北京市丰台区青塔街道99优选酒店"}},{"type":"Feature","geometry":{"type":"Point","coordinates":[116.27135532850589,39.89050806682868]},"properties":{"full_address":"北京市丰台区青塔街道和光逸境1单元"}},{"type":"Feature","geometry":{"type":"Point","coordinates":[116.25519683440844,39.89466308888662]},"properties":{"full_address":"北京市丰台区青塔街道汇锦苑1-3-23层及病例房间上下层住户"}},{"type":"Feature","geometry":{"type":"Point","coordinates":[116.25519683440844,39.89466308888662]},"properties":{"full_address":"北京市丰台区青塔街道汇锦苑2-4层及病例房间上下层住户"}},{"type":"Feature","geometry":{"type":"Point","coordinates":[116.26500274181954,39.87603995888195]},"properties":{"full_address":"北京市丰台区青塔街道万绿园8号楼3单元"}},{"type":"Feature","geometry":{"type":"Point","coordinates":[116.25394098026467,39.893956408648656]},"properties":{"full_address":"北京市丰台区青塔街道博龙家园5号楼1单元19层及病例上下户"}},{"type":"Feature","geometry":{"type":"Point","coordinates":[116.27070197216393,39.89167903010621]},"properties":{"full_address":"北京市丰台区青塔街道青塔东里25号楼2单元6层及病例上下户"}},{"type":"Feature","geometry":{"type":"Point","coordinates":[116.27153055203037,39.894536146606384]},"properties":{"full_address":"北京市丰台区青塔街道青塔东里十号院13号楼8单元2层及病例上下户"}},{"type":"Feature","geometry":{"type":"Point","coordinates":[116.27005789121753,39.882946949198555]},"properties":{"full_address":"北京市丰台区青塔街道西府景园2号楼3单元17层及病例房间上下层户"}},{"type":"Feature","geometry":{"type":"Point","coordinates":[116.27098063057755,39.88238811082605]},"properties":{"full_address":"北京市丰台区青塔街道西府景园4号楼1单元8层及上下户"}},{"type":"Feature","geometry":{"type":"Point","coordinates":[116.27259405461312,39.89249492082868]},"properties":{"full_address":"北京市丰台区青塔街道西四环中路79号院2号楼14层及病例上下户"}},{"type":"Feature","geometry":{"type":"Point","coordinates":[116.25885265258974,39.89138850395205]},"properties":{"full_address":"北京市丰台区青塔街道青塔芳园6号楼4单元"}},{"type":"Feature","geometry":{"type":"Point","coordinates":[116.20948034170199,39.84125119409768]},"properties":{"full_address":"北京市丰台区北宫镇京坤长兴5号院1号楼3单元"}},{"type":"Feature","geometry":{"type":"Point","coordinates":[116.20948034170199,39.84125119409768]},"properties":{"full_address":"北京市丰台区北宫镇京坤长兴5号院2号楼1单元"}},{"type":"Feature","geometry":{"type":"Point","coordinates":[116.16655719206729,39.87012956810297]},"properties":{"full_address":"北京市丰台区北宫镇盛德东兴家园西区2号楼风险户"}},{"type":"Feature","geometry":{"type":"Point","coordinates":[116.16655719206729,39.87012956810297]},"properties":{"full_address":"北京市丰台区北宫镇盛德东兴家园西区4号楼2单元风险户"}},{"type":"Feature","geometry":{"type":"Point","coordinates":[116.16655719206729,39.87012956810297]},"properties":{"full_address":"北京市丰台区北宫镇盛德东兴西区6号楼1单元风险户"}},{"type":"Feature","geometry":{"type":"Point","coordinates":[116.16736423712258,39.86969842312595]},"properties":{"full_address":"北京市丰台区北宫镇盛德东兴西区8号楼1单元风险户"}},{"type":"Feature","geometry":{"type":"Point","coordinates":[116.16736423712258,39.86969842312595]},"properties":{"full_address":"北京市丰台区北宫镇盛德东兴西区8号楼2单元风险户"}},{"type":"Feature","geometry":{"type":"Point","coordinates":[116.19075187434224,39.87590751276189]},"properties":{"full_address":"北京市丰台区北宫镇园博园Soho3号楼2单元风险户"}},{"type":"Feature","geometry":{"type":"Point","coordinates":[116.23488609908846,39.90238194555127]},"properties":{"full_address":"北京市石景山区八宝山街道永乐小区67号院3号楼病例户同层相邻的左、右各一户、垂直上一户和垂直下一户"}},{"type":"Feature","geometry":{"type":"Point","coordinates":[116.23959612489266,39.89759795185289]},"properties":{"full_address":"北京市石景山区八宝山街道玉泉西里2区36楼5门病例户同层相邻的左、右各一户、垂直上一户和垂直下一户"}},{"type":"Feature","geometry":{"type":"Point","coordinates":[116.17169316710716,39.92998555642411]},"properties":{"full_address":"北京市石景山区金顶街街道金顶北路9号院1号楼10单元病例户同层相邻的左、右各一户、垂直上一户和垂直下一户"}},{"type":"Feature","geometry":{"type":"Point","coordinates":[116.1687604253566,39.925149081553776]},"properties":{"full_address":"北京市石景山区金顶街街道金顶街五区9楼病例户同层相邻的左、右各一户、垂直上一户和垂直下一户"}},{"type":"Feature","geometry":{"type":"Point","coordinates":[116.16048777798905,39.93103353977501]},"properties":{"full_address":"北京市石景山区金顶街街道模式口南里22号楼病例户同层相邻的左、右各一户、垂直上一户和垂直下一户"}},{"type":"Feature","geometry":{"type":"Point","coordinates":[116.15440781045899,39.93227956798498]},"properties":{"full_address":"北京市石景山区金顶街街道模式口西里28号楼病例户同层相邻的左、右各一户、垂直上一户和垂直下一户"}},{"type":"Feature","geometry":{"type":"Point","coordinates":[116.15633958908916,39.93088393610305]},"properties":{"full_address":"北京市石景山区金顶街街道模式口西里56号楼2单元病例户同层相邻的左、右各一户、垂直上一户和垂直下一户"}},{"type":"Feature","geometry":{"type":"Point","coordinates":[116.15422767137227,39.92627363370277]},"properties":{"full_address":"北京市石景山区金顶街街道铸造村一区16号楼病例户（另一户）同层相邻的左、右各一户、垂直上一户和垂直下一户"}},{"type":"Feature","geometry":{"type":"Point","coordinates":[116.15422767137227,39.92627363370277]},"properties":{"full_address":"北京市石景山区金顶街街道铸造村一区16号楼病例户同层相邻的左、右各一户、垂直上一户和垂直下一户"}},{"type":"Feature","geometry":{"type":"Point","coordinates":[116.15513280551441,39.926970700900725]},"properties":{"full_address":"北京市石景山区金顶街街道铸造村一区18号楼病例户（另一户）同层相邻的左、右各一户、垂直上一户和垂直下一户"}},{"type":"Feature","geometry":{"type":"Point","coordinates":[116.15513280551441,39.926970700900725]},"properties":{"full_address":"北京市石景山区金顶街街道铸造村一区18号楼病例户同层相邻的左、右各一户、垂直上一户和垂直下一户"}},{"type":"Feature","geometry":{"type":"Point","coordinates":[116.15567586470623,39.9255116452127]},"properties":{"full_address":"北京市石景山区金顶街街道铸造村一区4号楼2单元号楼病例户同层相邻的左、右各一户、垂直上一户和垂直下一户"}},{"type":"Feature","geometry":{"type":"Point","coordinates":[116.22811783068312,39.881837171232604]},"properties":{"full_address":"北京市石景山区苹果园街道福田寺50号院"}},{"type":"Feature","geometry":{"type":"Point","coordinates":[116.20318082505756,39.93441290473842]},"properties":{"full_address":"北京市石景山区苹果园街道叠翠庭院2号楼2单元病例户同层相邻的左、右各一户、垂直上一户和垂直下一户"}},{"type":"Feature","geometry":{"type":"Point","coordinates":[116.19093068159528,39.933567291554205]},"properties":{"full_address":"北京市石景山区苹果园街道海特花园45号楼病例户同层相邻的左、右各一户、垂直上一户和垂直下一户"}},{"type":"Feature","geometry":{"type":"Point","coordinates":[116.18809353678421,39.93370637325455]},"properties":{"full_address":"北京市石景山区苹果园街道海特花园5号楼4单元病例户同层相邻的左、右各一户、垂直上一户和垂直下一户"}},{"type":"Feature","geometry":{"type":"Point","coordinates":[116.1898819980337,39.93105858242247]},"properties":{"full_address":"北京市石景山区苹果园街道苹果园二区3栋病例户同层相邻的左、右各一户、垂直上一户和垂直下一户"}},{"type":"Feature","geometry":{"type":"Point","coordinates":[116.18780714017994,39.93083925039839]},"properties":{"full_address":"北京市石景山区苹果园街道苹果园二区9号楼病例户同层相邻的左、右各一户、垂直上一户和垂直下一户"}},{"type":"Feature","geometry":{"type":"Point","coordinates":[116.18797347911536,39.9282051755239]},"properties":{"full_address":"北京市石景山区苹果园街道苹果园南路东口9号楼1单元病例户同层相邻的左、右各一户、垂直上一户和垂直下一户"}},{"type":"Feature","geometry":{"type":"Point","coordinates":[116.1919316807765,39.93108973694636]},"properties":{"full_address":"北京市石景山区苹果园街道苹果园一区4号楼1单元病例户同层相邻的左、右各一户、垂直上一户和垂直下一户"}},{"type":"Feature","geometry":{"type":"Point","coordinates":[116.19117203042673,39.92996985872072]},"properties":{"full_address":"北京市石景山区苹果园街道苹果园一区7号楼2单元病例户同层相邻的左、右各一户、垂直上一户和垂直下一户"}},{"type":"Feature","geometry":{"type":"Point","coordinates":[116.19158705794733,39.93168989437612]},"properties":{"full_address":"北京市石景山区苹果园街道西井4区9栋10门病例户同层相邻的左、右各一户、垂直上一户和垂直下一户"}},{"type":"Feature","geometry":{"type":"Point","coordinates":[116.19736188004867,39.933356518409816]},"properties":{"full_address":"北京市石景山区苹果园街道西井二区1号楼病例户同层相邻的左、右各一户、垂直上一户和垂直下一户"}},{"type":"Feature","geometry":{"type":"Point","coordinates":[116.19236086574676,39.93152748696243]},"properties":{"full_address":"北京市石景山区苹果园街道西井四区10号楼4单元病例户同层相邻的左、右各一户、垂直上一户和垂直下一户"}},{"type":"Feature","geometry":{"type":"Point","coordinates":[116.1782423510461,39.93686575690468]},"properties":{"full_address":"北京市石景山区苹果园街道西山奥园6号楼1单元病例户同层相邻的左、右各一户、垂直上一户和垂直下一户"}},{"type":"Feature","geometry":{"type":"Point","coordinates":[116.20455584134459,39.942960995004455]},"properties":{"full_address":"北京市石景山区苹果园街道西山枫林2区2号楼4单元病例户同层相邻的左、右各一户、垂直上一户和垂直下一户"}},{"type":"Feature","geometry":{"type":"Point","coordinates":[116.20082083305057,39.94714593553719]},"properties":{"full_address":"北京市石景山区苹果园街道西山荟景家园1号楼7单元病例户同层相邻的左、右各一户、垂直上一户和垂直下一户"}},{"type":"Feature","geometry":{"type":"Point","coordinates":[116.19969687146933,39.945279861611404]},"properties":{"full_address":"北京市石景山区苹果园街道西下庄1号楼2单元病例户同层相邻的左、右各一户、垂直上一户和垂直下一户"}},{"type":"Feature","geometry":{"type":"Point","coordinates":[116.20902471938417,39.9375305427003]},"properties":{"full_address":"北京市石景山区苹果园街道禧悦学府维保单位生活区"}},{"type":"Feature","geometry":{"type":"Point","coordinates":[116.17748684946999,39.89357118819907]},"properties":{"full_address":"北京市石景山区古城街道水泥厂社区南坑区域"}},{"type":"Feature","geometry":{"type":"Point","coordinates":[116.19079797834111,39.91499213774361]},"properties":{"full_address":"北京市石景山区古城街道财富中心大厦B座病例户（两户）同层相邻的左、右各一户、垂直上一户和垂直下一户"}},{"type":"Feature","geometry":{"type":"Point","coordinates":[116.19138261862207,39.89527391000483]},"properties":{"full_address":"北京市石景山区古城街道长安云尚二期7号楼1单元病例户同层相邻的左、右各一户、垂直上一户和垂直下一户"}},{"type":"Feature","geometry":{"type":"Point","coordinates":[116.17484830582123,39.91553122117491]},"properties":{"full_address":"北京市石景山区古城街道丁香苑13号楼病例户同层相邻的左、右各一户、垂直上一户和垂直下一户"}},{"type":"Feature","geometry":{"type":"Point","coordinates":[116.18814686406819,39.91957420366247]},"properties":{"full_address":"北京市石景山区古城街道古城北里环卫小区4号楼4单元病例户同层相邻的左、右各一户、垂直上一户和垂直下一户"}},{"type":"Feature","geometry":{"type":"Point","coordinates":[116.1911837036833,39.91577918144277]},"properties":{"full_address":"北京市石景山区古城街道古城北路13号楼2单元病例户同层相邻的左、右各一户、垂直上一户和垂直下一户"}},{"type":"Feature","geometry":{"type":"Point","coordinates":[116.19042415364565,39.917053639927765]},"properties":{"full_address":"北京市石景山区古城街道古城北路17栋病例户同层相邻的左、右各一户、垂直上一户和垂直下一户"}},{"type":"Feature","geometry":{"type":"Point","coordinates":[116.18709362175007,39.914862238502494]},"properties":{"full_address":"北京市石景山区古城街道古城路1号楼2单元病例户同层相邻的左、右各一户、垂直上一户和垂直下一户"}},{"type":"Feature","geometry":{"type":"Point","coordinates":[116.18142710504804,39.90880969971616]},"properties":{"full_address":"北京市石景山区古城街道古城西路66号院1号楼2单元病例户同层相邻的左、右各一户、垂直上一户和垂直下一户"}},{"type":"Feature","geometry":{"type":"Point","coordinates":[116.17878788753397,39.91424772270984]},"properties":{"full_address":"北京市石景山区古城街道古城现代嘉园1号楼4单元病例户同层相邻的左、右各一户、垂直上一户和垂直下一户"}},{"type":"Feature","geometry":{"type":"Point","coordinates":[116.17835206637876,39.913899975658296]},"properties":{"full_address":"北京市石景山区古城街道古城现代嘉园66号院1号楼2单元病例户同层相邻的左、右各一户、垂直上一户和垂直下一户"}},{"type":"Feature","geometry":{"type":"Point","coordinates":[116.17528252742066,39.89247512814813]},"properties":{"full_address":"北京市石景山区古城街道金隅滨和园2号院4号楼2单元病例户同层相邻的左、右各一户、垂直上一户和垂直下一户"}},{"type":"Feature","geometry":{"type":"Point","coordinates":[116.17038864206027,39.89482826778244]},"properties":{"full_address":"北京市石景山区古城街道金隅滨和园6号院1号楼1单元病例户同层相邻的左、右各一户、垂直上一户和垂直下一户"}},{"type":"Feature","geometry":{"type":"Point","coordinates":[116.18109137722548,39.908158370405495]},"properties":{"full_address":"北京市石景山区古城街道老古城9栋病例户同层相邻的左、右各一户、垂直上一户和垂直下一户"}},{"type":"Feature","geometry":{"type":"Point","coordinates":[116.18812915173648,39.90158151905255]},"properties":{"full_address":"北京市石景山区古城街道绿地古城南街9号院6号楼病例户同层相邻的左、右各一户、垂直上一户和垂直下一户"}},{"type":"Feature","geometry":{"type":"Point","coordinates":[116.17701898298925,39.91600740895085]},"properties":{"full_address":"北京市石景山区古城街道石榴苑2号楼病例户（两户）同层相邻的左、右各一户、垂直上一户和垂直下一户"}},{"type":"Feature","geometry":{"type":"Point","coordinates":[116.19117332021041,39.913966734897414]},"properties":{"full_address":"北京市石景山区古城街道首钢四宿舍3栋病例户同层相邻的左、右各一户、垂直上一户和垂直下一户"}},{"type":"Feature","geometry":{"type":"Point","coordinates":[116.16345509252452,39.921270704069656]},"properties":{"full_address":"北京市石景山区古城街道天和街9号院景山府3单元病例户同层相邻的左、右各一户、垂直上一户和垂直下一户"}},{"type":"Feature","geometry":{"type":"Point","coordinates":[116.17835206637876,39.913899975658296]},"properties":{"full_address":"北京市石景山区古城街道现代嘉园66院东1号楼4单元病例户同层相邻的左、右各一户、垂直上一户和垂直下一户"}},{"type":"Feature","geometry":{"type":"Point","coordinates":[116.17097099255298,39.89485374019562]},"properties":{"full_address":"北京市石景山区古城街道燕堤西街6号3号楼1单元病例户同层相邻的左、右各一户、垂直上一户和垂直下一户"}},{"type":"Feature","geometry":{"type":"Point","coordinates":[116.17639554635736,39.894163135766256]},"properties":{"full_address":"北京市石景山区古城街道燕堤中街6号院2号楼1单元病例户同层相邻的左、右各一户、垂直上一户和垂直下一户"}},{"type":"Feature","geometry":{"type":"Point","coordinates":[116.1748082932886,39.91744755329177]},"properties":{"full_address":"北京市石景山区古城街道樱花园12号楼1单元病例户同层相邻的左、右各一户、垂直上一户和垂直下一户"}},{"type":"Feature","geometry":{"type":"Point","coordinates":[116.1921289869017,39.91367308190377]},"properties":{"full_address":"北京市石景山区古城街道37度公寓平房病例户"}},{"type":"Feature","geometry":{"type":"Point","coordinates":[116.20386363948609,39.91509655984073]},"properties":{"full_address":"北京市石景山区八角街道八角北里20号楼1单元病例户同层相邻的左、右各一户、垂直上一户和垂直下一户"}},{"type":"Feature","geometry":{"type":"Point","coordinates":[116.19840797987449,39.91243097112211]},"properties":{"full_address":"北京市石景山区八角街道八角路18号楼病例户同层相邻的左、右各一户、垂直上一户和垂直下一户"}},{"type":"Feature","geometry":{"type":"Point","coordinates":[116.1953547753757,39.91130343404965]},"properties":{"full_address":"北京市石景山区八角街道八角路26楼2单元病例户同层相邻的左、右各一户、垂直上一户和垂直下一户"}},{"type":"Feature","geometry":{"type":"Point","coordinates":[116.19369131558928,39.9181775702214]},"properties":{"full_address":"北京市石景山区八角街道地铁古城家园6号楼病例户同层相邻的左、右各一户、垂直上一户和垂直下一户"}},{"type":"Feature","geometry":{"type":"Point","coordinates":[116.20535221207172,39.891430117517416]},"properties":{"full_address":"北京市石景山区八角街道景阳东街69号院1栋病例户同层相邻的左、右各一户、垂直上一户和垂直下一户"}},{"type":"Feature","geometry":{"type":"Point","coordinates":[116.20535221207172,39.891430117517416]},"properties":{"full_address":"北京市石景山区八角街道景阳东街69号院4栋病例户同层相邻的左、右各一户、垂直上一户和垂直下一户"}},{"type":"Feature","geometry":{"type":"Point","coordinates":[116.21513947416585,39.933749211825926]},"properties":{"full_address":"北京市石景山区八角街道丽枫假日酒店6层病例户同层相邻的左、右各一户、垂直上一户和垂直下一户"}},{"type":"Feature","geometry":{"type":"Point","coordinates":[116.20183956446729,39.91845162187586]},"properties":{"full_address":"北京市石景山区八角街道时代花园社区9号院3号楼病例户同层相邻的左、右各一户、垂直上一户和垂直下一户"}},{"type":"Feature","geometry":{"type":"Point","coordinates":[116.1937089099145,39.9170011894247]},"properties":{"full_address":"北京市石景山区八角街道特钢小区9号楼12单元病例户同层相邻的左、右各一户、垂直上一户和垂直下一户"}},{"type":"Feature","geometry":{"type":"Point","coordinates":[116.1906662584662,39.92753419279265]},"properties":{"full_address":"北京市石景山区八角街道杨庄北区5号金鼎大学生学生公寓2单元病例户同层相邻的左、右各一户、垂直上一户和垂直下一户"}},{"type":"Feature","geometry":{"type":"Point","coordinates":[116.19158453677939,39.92545713876499]},"properties":{"full_address":"北京市石景山区八角街道杨庄北区西现代城28号楼1单元病例户同层相邻的左、右各一户、垂直上一户和垂直下一户"}},{"type":"Feature","geometry":{"type":"Point","coordinates":[116.19295013649791,39.92285976437081]},"properties":{"full_address":"北京市石景山区八角街道杨庄中区御景山7号楼3单元病例户同层相邻的左、右各一户、垂直上一户和垂直下一户"}},{"type":"Feature","geometry":{"type":"Point","coordinates":[116.1363536008003,39.94503292650288]},"properties":{"full_address":"北京市石景山区广宁街道高井23号楼5单元病例户同层相邻的左、右各一户、垂直上一户和垂直下一户"}},{"type":"Feature","geometry":{"type":"Point","coordinates":[116.14553359142273,39.92920744123098]},"properties":{"full_address":"北京市石景山区广宁街道广宁村新立楼5号楼3单元病例户同层相邻的左、右各一户、垂直上一户和垂直下一户"}},{"type":"Feature","geometry":{"type":"Point","coordinates":[116.24395767617924,39.91650300008901]},"properties":{"full_address":"北京市石景山区老山街道翠谷玉景苑11号楼1单元病例户同层相邻的左、右各一户、垂直上一户和垂直下一户"}},{"type":"Feature","geometry":{"type":"Point","coordinates":[116.24220035195981,39.916728555984584]},"properties":{"full_address":"北京市石景山区老山街道何家坟143号"}},{"type":"Feature","geometry":{"type":"Point","coordinates":[116.22391217838756,39.90783813234218]},"properties":{"full_address":"北京市石景山区老山街道老山东里1号楼病例户同层相邻的左、右各一户、垂直上一户和垂直下一户"}},{"type":"Feature","geometry":{"type":"Point","coordinates":[116.22588386168053,39.90916540055595]},"properties":{"full_address":"北京市石景山区老山街道老山东里7号楼1单元病例户同层相邻的左、右各一户、垂直上一户和垂直下一户"}},{"type":"Feature","geometry":{"type":"Point","coordinates":[116.2226198216814,39.91040977532216]},"properties":{"full_address":"北京市石景山区老山街道老山街道梁公庵丙4号3排11号"}},{"type":"Feature","geometry":{"type":"Point","coordinates":[116.2157235277919,39.909056401593574]},"properties":{"full_address":"北京市石景山区老山街道老山西街27号院3号楼4单元病例户同层相邻的左、右各一户，垂直上一户和垂直下一户"}},{"type":"Feature","geometry":{"type":"Point","coordinates":[116.2226198216814,39.91040977532216]},"properties":{"full_address":"北京市石景山区老山街道梁公庵14号内院3-4号"}},{"type":"Feature","geometry":{"type":"Point","coordinates":[116.2226198216814,39.91040977532216]},"properties":{"full_address":"北京市石景山区老山街道梁公庵14号外院2-4号"}},{"type":"Feature","geometry":{"type":"Point","coordinates":[116.2226198216814,39.91040977532216]},"properties":{"full_address":"北京市石景山区老山街道梁公庵25号"}},{"type":"Feature","geometry":{"type":"Point","coordinates":[116.2226198216814,39.91040977532216]},"properties":{"full_address":"北京市石景山区老山街道梁公庵27号"}},{"type":"Feature","geometry":{"type":"Point","coordinates":[116.2226198216814,39.91040977532216]},"properties":{"full_address":"北京市石景山区老山街道梁公庵甲1号南1排108号"}},{"type":"Feature","geometry":{"type":"Point","coordinates":[116.2226198216814,39.91040977532216]},"properties":{"full_address":"北京市石景山区老山街道梁公庵甲1甲2南排68号"}},{"type":"Feature","geometry":{"type":"Point","coordinates":[116.2226198216814,39.91040977532216]},"properties":{"full_address":"北京市石景山区老山街道水厂宿舍5排20号"}},{"type":"Feature","geometry":{"type":"Point","coordinates":[116.2470904029863,39.918627621913096]},"properties":{"full_address":"北京市石景山区老山街道玉泉北里二区29号楼2单元病例户（三户）同层相邻的左、右各一户、垂直上一户和垂直下一户"}},{"type":"Feature","geometry":{"type":"Point","coordinates":[116.24511101733164,39.91061869779331]},"properties":{"full_address":"北京市石景山区老山街道玉泉西街8号C座病例户同层相邻的左、右各一户、垂直上一户和垂直下一户"}},{"type":"Feature","geometry":{"type":"Point","coordinates":[116.21669755287573,39.909873634566246]},"properties":{"full_address":"北京市石景山区老山街道老山小区综改项目部生活区"}},{"type":"Feature","geometry":{"type":"Point","coordinates":[116.1236429728563,39.96324015675756]},"properties":{"full_address":"北京市石景山区五里坨街道隆恩寺路17号院万家酒店病例房间同层相邻的左、右各一户、垂直上一户和垂直下一户"}},{"type":"Feature","geometry":{"type":"Point","coordinates":[116.12697321717359,39.96195468738986]},"properties":{"full_address":"北京市石景山区五里坨街道南宫嘉园7号楼2单元病例户同层相邻的左、右各一户、垂直上一户和垂直下一户"}},{"type":"Feature","geometry":{"type":"Point","coordinates":[116.22244888321006,39.89472686058914]},"properties":{"full_address":"北京市石景山区鲁谷街道聚兴园小区2号楼4单元病例户同层相邻的左、右各一户、垂直上一户和垂直下一户"}},{"type":"Feature","geometry":{"type":"Point","coordinates":[116.21823969898966,39.899106642736974]},"properties":{"full_address":"北京市石景山区鲁谷街道六合园13号楼2单元病例户同层相邻的左、右各一户、垂直上一户和垂直下一户"}},{"type":"Feature","geometry":{"type":"Point","coordinates":[116.21785536114618,39.89946613592021]},"properties":{"full_address":"北京市石景山区鲁谷街道六合园9号楼病例户同层相邻的左、右各一户、垂直上一户和垂直下一户"}},{"type":"Feature","geometry":{"type":"Point","coordinates":[116.21270769709263,39.8996492104225]},"properties":{"full_address":"北京市石景山区鲁谷街道七星园8号楼11单元病例户同层相邻的左、右各一户、垂直上一户和垂直下一户"}},{"type":"Feature","geometry":{"type":"Point","coordinates":[116.21926676560696,39.90016416256433]},"properties":{"full_address":"北京市石景山区鲁谷街道诗景长安3号楼病例户同层相邻的左、右各一户、垂直上一户和垂直下一户"}},{"type":"Feature","geometry":{"type":"Point","coordinates":[116.21320641918923,39.89073671018153]},"properties":{"full_address":"北京市石景山区鲁谷街道衙府乐园7号楼1单元病例户同层相邻的左、右各一户、垂直上一户和垂直下一户"}},{"type":"Feature","geometry":{"type":"Point","coordinates":[116.2172503121638,39.89073740469716]},"properties":{"full_address":"北京市石景山区鲁谷街道衙府业园1号楼2单元病例户同层相邻的左、右各一户、垂直上一户和垂直下一户"}},{"type":"Feature","geometry":{"type":"Point","coordinates":[116.21661457619562,39.90087534320591]},"properties":{"full_address":"北京市石景山区鲁谷街道依翠园9号楼3单元病例户同层相邻的左、右各一户、垂直上一户和垂直下一户"}},{"type":"Feature","geometry":{"type":"Point","coordinates":[116.22593003437923,39.8942553204087]},"properties":{"full_address":"北京市石景山区鲁谷街道重聚园13号楼3单元病例户同层相邻的左、右各一户、垂直上一户和垂直下一户"}},{"type":"Feature","geometry":{"type":"Point","coordinates":[116.2162216308605,39.89683267552307]},"properties":{"full_address":"北京市石景山区鲁谷街道重兴园小区甲2号楼魔方公寓（莲石东路店）病例户同层相邻的左、右各一户、垂直上一户和垂直下一户"}},{"type":"Feature","geometry":{"type":"Point","coordinates":[116.21243444105366,39.903193716264596]},"properties":{"full_address":"北京市石景山区鲁谷街道紫御长安小区1号楼病例户同层相邻的左、右各一户、垂直上一户和垂直下一户"}},{"type":"Feature","geometry":{"type":"Point","coordinates":[116.21737059158357,39.906529234262905]},"properties":{"full_address":"北京市石景山区鲁谷街道碣石平小区11号楼1单元病例户同层相邻的左、右各一户、垂直上一户和垂直下一户"}},{"type":"Feature","geometry":{"type":"Point","coordinates":[116.23437782940647,39.92021120017638]},"properties":{"full_address":"北京市海淀区田村路街道瑞和园社区2号楼2单元"}},{"type":"Feature","geometry":{"type":"Point","coordinates":[116.23437782940647,39.92021120017638]},"properties":{"full_address":"北京市海淀区田村路街道瑞和园社区5号楼"}},{"type":"Feature","geometry":{"type":"Point","coordinates":[116.28375742158035,40.0072746302742]},"properties":{"full_address":"北京市海淀区青龙桥街道骚子营社区骚子营二区67号"}},{"type":"Feature","geometry":{"type":"Point","coordinates":[116.29248087212488,39.969454624475354]},"properties":{"full_address":"北京市海淀区海淀街道碧水云天社区万城华府海园17号楼2单元"}},{"type":"Feature","geometry":{"type":"Point","coordinates":[116.29435416292617,39.97030866161002]},"properties":{"full_address":"北京市海淀区海淀街道碧水云天社区万城华府龙园10号楼1单元"}},{"type":"Feature","geometry":{"type":"Point","coordinates":[116.31048822611989,39.986251012538304]},"properties":{"full_address":"北京市海淀区海淀街道海淀路19-1号九层海阳光旅馆"}},{"type":"Feature","geometry":{"type":"Point","coordinates":[116.30824858203475,39.97327979772967]},"properties":{"full_address":"北京市海淀区海淀街道海淀南路南社区沁园公寓"}},{"type":"Feature","geometry":{"type":"Point","coordinates":[116.31008261927886,39.967450252051805]},"properties":{"full_address":"北京市海淀区海淀街道人大南社区5号楼"}},{"type":"Feature","geometry":{"type":"Point","coordinates":[116.3181757888214,39.9668070646695]},"properties":{"full_address":"北京市海淀区海淀街道三环社区老楼5单元"}},{"type":"Feature","geometry":{"type":"Point","coordinates":[116.28964006464663,39.971824194243055]},"properties":{"full_address":"北京市海淀区海淀街道水云天社区万城华府玺园16号楼"}},{"type":"Feature","geometry":{"type":"Point","coordinates":[116.3042011440888,39.98178077871596]},"properties":{"full_address":"北京市海淀区海淀街道苏州街路社区大河庄苑3号楼5单元"}},{"type":"Feature","geometry":{"type":"Point","coordinates":[116.30401708341228,39.98120567798671]},"properties":{"full_address":"北京市海淀区海淀街道苏州街路社区大河庄苑5号楼2单元及地下室"}},{"type":"Feature","geometry":{"type":"Point","coordinates":[116.30354245328743,39.980839725624534]},"properties":{"full_address":"北京市海淀区海淀街道苏州街路社区港沟南1号楼3单元"}},{"type":"Feature","geometry":{"type":"Point","coordinates":[116.30267383994816,39.98074209745722]},"properties":{"full_address":"北京市海淀区海淀街道苏州街路社区港沟南2号楼2单元"}},{"type":"Feature","geometry":{"type":"Point","coordinates":[116.30709794109036,39.981481049744694]},"properties":{"full_address":"北京市海淀区海淀街道苏州街路社区中湾国际G座"}},{"type":"Feature","geometry":{"type":"Point","coordinates":[116.30765843810951,39.98180155099653]},"properties":{"full_address":"北京市海淀区海淀街道苏州街路社区中湾国际H座"}},{"type":"Feature","geometry":{"type":"Point","coordinates":[116.28964006464663,39.971824194243055]},"properties":{"full_address":"北京市海淀区海淀街道碧水云天社区万城华府玺园16号楼"}},{"type":"Feature","geometry":{"type":"Point","coordinates":[116.35168032712102,39.993818793366785]},"properties":{"full_address":"北京市海淀区学院路街道马家沟平房区"}},{"type":"Feature","geometry":{"type":"Point","coordinates":[116.31060687928904,39.9531648962058]},"properties":{"full_address":"北京市海淀区西北旺（地区）镇宫悦园6号楼"}},{"type":"Feature","geometry":{"type":"Point","coordinates":[116.24787960910457,40.03704007997055]},"properties":{"full_address":"北京市海淀区西北旺（地区）镇韩家川村91号"}},{"type":"Feature","geometry":{"type":"Point","coordinates":[116.24787960910457,40.03704007997055]},"properties":{"full_address":"北京市海淀区西北旺（地区）镇韩家川村川路45号"}},{"type":"Feature","geometry":{"type":"Point","coordinates":[116.24787960910457,40.03704007997055]},"properties":{"full_address":"北京市海淀区西北旺（地区）镇韩家川村南街5号"}},{"type":"Feature","geometry":{"type":"Point","coordinates":[116.27254037685539,40.07572924184627]},"properties":{"full_address":"北京市海淀区西北旺（地区）镇航五院社区21号楼"}},{"type":"Feature","geometry":{"type":"Point","coordinates":[116.22086638394445,40.030675647596404]},"properties":{"full_address":"北京市海淀区西北旺（地区）镇冷泉村红英小学对面"}},{"type":"Feature","geometry":{"type":"Point","coordinates":[116.26368945392127,40.04862140336944]},"properties":{"full_address":"北京市海淀区西北旺（地区）镇冷泉村南街184号"}},{"type":"Feature","geometry":{"type":"Point","coordinates":[116.22396997353579,40.03402948030023]},"properties":{"full_address":"北京市海淀区西北旺（地区）镇冷泉村小羊坊20号"}},{"type":"Feature","geometry":{"type":"Point","coordinates":[116.2553604907556,40.06656080239682]},"properties":{"full_address":"北京市海淀区西北旺（地区）镇六里屯社区五区3号楼2单元"}},{"type":"Feature","geometry":{"type":"Point","coordinates":[116.26273338169885,40.09005596445001]},"properties":{"full_address":"北京市海淀区西北旺（地区）镇青棠湾B3号4单元"}},{"type":"Feature","geometry":{"type":"Point","coordinates":[116.2655484893021,40.09070496209079]},"properties":{"full_address":"北京市海淀区西北旺（地区）镇青棠湾B9楼3单元"}},{"type":"Feature","geometry":{"type":"Point","coordinates":[116.27624506273648,40.06796645837983]},"properties":{"full_address":"北京市海淀区西北旺（地区）镇唐家岭社区T05-5-1"}},{"type":"Feature","geometry":{"type":"Point","coordinates":[116.27624506273648,40.06796645837983]},"properties":{"full_address":"北京市海淀区西北旺（地区）镇唐家岭社区T09-10-4"}},{"type":"Feature","geometry":{"type":"Point","coordinates":[116.26851845282977,40.06070317953312]},"properties":{"full_address":"北京市海淀区西北旺（地区）镇土井家园T03-1-1"}},{"type":"Feature","geometry":{"type":"Point","coordinates":[116.2184446399502,40.033805132977164]},"properties":{"full_address":"北京市海淀区西北旺（地区）镇西山林语社区21号楼3单元"}},{"type":"Feature","geometry":{"type":"Point","coordinates":[116.25692965063799,40.08665339266505]},"properties":{"full_address":"北京市海淀区西北旺（地区）镇友谊嘉园中里7号楼1单元"}},{"type":"Feature","geometry":{"type":"Point","coordinates":[116.361847,39.972874]},"properties":{"full_address":"北京市海淀区上地街道马连洼北路1号院三车间"}},{"type":"Feature","geometry":{"type":"Point","coordinates":[116.18980385175497,40.03678518676984]},"properties":{"full_address":"北京市海淀区温泉（地区）镇古香道南街9号院1单元"}},{"type":"Feature","geometry":{"type":"Point","coordinates":[116.17233478790673,40.04863700109753]},"properties":{"full_address":"北京市海淀区温泉（地区）镇凯盛二区12号楼1单元"}},{"type":"Feature","geometry":{"type":"Point","coordinates":[116.17233478790673,40.04863700109753]},"properties":{"full_address":"北京市海淀区温泉（地区）镇凯盛二区13号楼2单元"}},{"type":"Feature","geometry":{"type":"Point","coordinates":[116.32730910717137,39.945043409046995]},"properties":{"full_address":"北京市海淀区温泉（地区）镇水岸家园南区20号楼2单元"}},{"type":"Feature","geometry":{"type":"Point","coordinates":[116.17913382111962,40.034639528350354]},"properties":{"full_address":"北京市海淀区温泉（地区）镇白家疃村684号"}},{"type":"Feature","geometry":{"type":"Point","coordinates":[116.17913382111962,40.034639528350354]},"properties":{"full_address":"北京市海淀区温泉（地区）镇白家疃村西河滩014号"}},{"type":"Feature","geometry":{"type":"Point","coordinates":[116.18478495039841,40.126994687867764]},"properties":{"full_address":"北京市海淀区上庄（地区）镇后章村沙阳路246号及周边"}},{"type":"Feature","geometry":{"type":"Point","coordinates":[116.10100024008464,39.94050005115339]},"properties":{"full_address":"北京市门头沟区龙泉（地区）镇蔡家府山上52号"}},{"type":"Feature","geometry":{"type":"Point","coordinates":[116.08527381506732,39.97125735996723]},"properties":{"full_address":"北京市门头沟区龙泉（地区）镇琉璃渠北厂67号"}},{"type":"Feature","geometry":{"type":"Point","coordinates":[116.08831662163304,39.971201206491884]},"properties":{"full_address":"北京市门头沟区龙泉（地区）镇琉璃渠社区146号"}},{"type":"Feature","geometry":{"type":"Point","coordinates":[116.61405067356388,40.14840285571556]},"properties":{"full_address":"北京市门头沟区龙泉（地区）镇三家店中街10号"}},{"type":"Feature","geometry":{"type":"Point","coordinates":[116.09352011697719,39.944680747445894]},"properties":{"full_address":"北京市门头沟区龙泉（地区）镇水闸北路35号院9排7号"}},{"type":"Feature","geometry":{"type":"Point","coordinates":[116.08219671213843,39.9302148687821]},"properties":{"full_address":"北京市门头沟区龙泉（地区）镇中门家园17-1-7/8/9/层"}},{"type":"Feature","geometry":{"type":"Point","coordinates":[116.09352011697719,39.944680747445894]},"properties":{"full_address":"北京市门头沟区龙泉（地区）镇中门寺村34号院"}},{"type":"Feature","geometry":{"type":"Point","coordinates":[116.06280740504366,39.92762701703381]},"properties":{"full_address":"北京市门头沟区龙泉（地区）镇中门寺南坡13-2单元6/7/8/9/10层封控"}},{"type":"Feature","geometry":{"type":"Point","coordinates":[116.06280740504366,39.92762701703381]},"properties":{"full_address":"北京市门头沟区龙泉（地区）镇中门寺南坡9-22、23、24层"}},{"type":"Feature","geometry":{"type":"Point","coordinates":[116.06280740504366,39.92762701703381]},"properties":{"full_address":"北京市门头沟区龙泉（地区）镇中门寺南坡一区7-2-5、6、7层"}},{"type":"Feature","geometry":{"type":"Point","coordinates":[116.1004343927889,39.93214286117178]},"properties":{"full_address":"北京市门头沟区龙泉（地区）镇高家园东街1号院2-2、3、4层"}},{"type":"Feature","geometry":{"type":"Point","coordinates":[116.08535594760431,39.98236643124008]},"properties":{"full_address":"北京市门头沟区龙泉（地区）镇龙泉务艾台子65"}},{"type":"Feature","geometry":{"type":"Point","coordinates":[116.08535594760431,39.98236643124008]},"properties":{"full_address":"北京市门头沟区龙泉（地区）镇龙泉务曹家台5院2号"}},{"type":"Feature","geometry":{"type":"Point","coordinates":[116.09053778028535,39.93371885105426]},"properties":{"full_address":"北京市门头沟区龙泉（地区）镇坡头新村41号"}},{"type":"Feature","geometry":{"type":"Point","coordinates":[116.11729078906882,39.924627333125585]},"properties":{"full_address":"北京市门头沟区永定（地区）镇葡东社区22-4"}},{"type":"Feature","geometry":{"type":"Point","coordinates":[116.11587753832876,39.93071793416828]},"properties":{"full_address":"北京市门头沟区永定（地区）镇承泽苑小区6号楼8单元"}},{"type":"Feature","geometry":{"type":"Point","coordinates":[116.09872980039621,39.93809567056113]},"properties":{"full_address":"北京市门头沟区永定（地区）镇黑山东街7号楼1单元"}},{"type":"Feature","geometry":{"type":"Point","coordinates":[116.11628133706822,39.93470533178686]},"properties":{"full_address":"北京市门头沟区永定（地区）镇临镜苑13号楼5单元"}},{"type":"Feature","geometry":{"type":"Point","coordinates":[116.10279978359323,39.90679969632622]},"properties":{"full_address":"北京市门头沟区永定（地区）镇南路二25楼1单元"}},{"type":"Feature","geometry":{"type":"Point","coordinates":[116.10681677780266,39.93600042878703]},"properties":{"full_address":"北京市门头沟区永定（地区）镇双峪社区平房1-2号"}},{"type":"Feature","geometry":{"type":"Point","coordinates":[116.08490135155992,39.93123342064616]},"properties":{"full_address":"北京市门头沟区永定（地区）镇中门花园39-4"}},{"type":"Feature","geometry":{"type":"Point","coordinates":[116.11487517709425,39.93347359723599]},"properties":{"full_address":"北京市门头沟区永定（地区）镇绮霞苑6-6"}},{"type":"Feature","geometry":{"type":"Point","coordinates":[116.09505145850545,39.94211354114704]},"properties":{"full_address":"北京市门头沟区大峪街道惠民家园22-1病例家"}},{"type":"Feature","geometry":{"type":"Point","coordinates":[116.114600356548,39.93012927811464]},"properties":{"full_address":"北京市门头沟区大峪街道龙山二区2号院1号楼1单元病例家"}},{"type":"Feature","geometry":{"type":"Point","coordinates":[116.11828756346512,39.92510830129363]},"properties":{"full_address":"北京市门头沟区大峪街道葡东小区8号楼6单元病例家"}},{"type":"Feature","geometry":{"type":"Point","coordinates":[116.10871577521506,39.94405894886444]},"properties":{"full_address":"北京市门头沟区大峪街道尚客优酒店3层病例房间"}},{"type":"Feature","geometry":{"type":"Point","coordinates":[116.32465162370282,39.53937811791929]},"properties":{"full_address":"北京市门头沟区大峪街道新桥14-5"}},{"type":"Feature","geometry":{"type":"Point","coordinates":[116.10204554984439,39.94180279673473]},"properties":{"full_address":"北京市门头沟区大峪街道新桥大街26号院2-1"}},{"type":"Feature","geometry":{"type":"Point","coordinates":[116.09688333813398,39.94261299058906]},"properties":{"full_address":"北京市门头沟区大峪街道增东社区西山阅5号楼病例家"}},{"type":"Feature","geometry":{"type":"Point","coordinates":[116.11275328063968,39.930929228447056]},"properties":{"full_address":"北京市门头沟区大峪街道滨河路(交通支队对面)中国石化滨河路加油站员工宿舍"}},{"type":"Feature","geometry":{"type":"Point","coordinates":[116.11525518229817,39.93166617074444]},"properties":{"full_address":"北京市门头沟区大峪街道承泽苑1-1-3层病例家"}},{"type":"Feature","geometry":{"type":"Point","coordinates":[116.11525518229817,39.93166617074444]},"properties":{"full_address":"北京市门头沟区大峪街道承泽苑1号楼4单元病例家"}},{"type":"Feature","geometry":{"type":"Point","coordinates":[116.11587753832876,39.93071793416828]},"properties":{"full_address":"北京市门头沟区大峪街道承泽苑2-4-5层病例家"}},{"type":"Feature","geometry":{"type":"Point","coordinates":[116.11587753832876,39.93071793416828]},"properties":{"full_address":"北京市门头沟区大峪街道承泽苑6-9-1层病例家"}},{"type":"Feature","geometry":{"type":"Point","coordinates":[116.11587753832876,39.93071793416828]},"properties":{"full_address":"北京市门头沟区大峪街道承泽苑6-9病例家"}},{"type":"Feature","geometry":{"type":"Point","coordinates":[116.10686982906377,39.930889527181286]},"properties":{"full_address":"北京市门头沟区大峪街道大峪花园6-3-2-18层病例家"}},{"type":"Feature","geometry":{"type":"Point","coordinates":[116.10335854816556,39.9329797963418]},"properties":{"full_address":"北京市门头沟区大峪街道大峪花园社区7-1-2-1403"}},{"type":"Feature","geometry":{"type":"Point","coordinates":[116.10335854816556,39.9329797963418]},"properties":{"full_address":"北京市门头沟区大峪街道大峪花园社区7-2-2-2003"}},{"type":"Feature","geometry":{"type":"Point","coordinates":[116.10568646032078,39.929030623345284]},"properties":{"full_address":"北京市门头沟区大峪街道高家园东街1号院2号8层病例家"}},{"type":"Feature","geometry":{"type":"Point","coordinates":[116.10035645595087,39.93106727350417]},"properties":{"full_address":"北京市门头沟区大峪街道高家园新区1-3-2-4层病例家"}},{"type":"Feature","geometry":{"type":"Point","coordinates":[116.114600356548,39.93012927811464]},"properties":{"full_address":"北京市门头沟区大峪街道梨园胡同12排5号"}},{"type":"Feature","geometry":{"type":"Point","coordinates":[116.10876343089933,39.93372431808822]},"properties":{"full_address":"北京市门头沟区大峪街道梨园社区6排6号"}},{"type":"Feature","geometry":{"type":"Point","coordinates":[116.11063658621963,39.93115372394766]},"properties":{"full_address":"北京市门头沟区大峪街道梨园小楼20排7号院2层5号"}},{"type":"Feature","geometry":{"type":"Point","coordinates":[116.1164145741024,39.93505819646012]},"properties":{"full_address":"北京市门头沟区大峪街道临镜苑1号楼3单元病例家"}},{"type":"Feature","geometry":{"type":"Point","coordinates":[116.10169772261666,39.93430396160166]},"properties":{"full_address":"北京市门头沟区大峪街道龙二社区3号院1-2-7层病例家"}},{"type":"Feature","geometry":{"type":"Point","coordinates":[116.08598280852743,39.946132983605466]},"properties":{"full_address":"北京市门头沟区大峪街道龙门2区1单元2号楼401号"}},{"type":"Feature","geometry":{"type":"Point","coordinates":[116.1284395950477,40.23771799196579]},"properties":{"full_address":"北京市门头沟区大峪街道龙泉务兴隆街14号"}},{"type":"Feature","geometry":{"type":"Point","coordinates":[116.114600356548,39.93012927811464]},"properties":{"full_address":"北京市门头沟区大峪街道龙泉雾后街87号"}},{"type":"Feature","geometry":{"type":"Point","coordinates":[116.11002366423642,39.96243417844833]},"properties":{"full_address":"北京市门头沟区大峪街道三家店东街59号"}},{"type":"Feature","geometry":{"type":"Point","coordinates":[116.10596267082498,39.95635646484535]},"properties":{"full_address":"北京市门头沟区大峪街道三家店西18排3号"}},{"type":"Feature","geometry":{"type":"Point","coordinates":[116.09959285321082,39.97006217776158]},"properties":{"full_address":"北京市门头沟区大峪街道三家店西老店148号"}},{"type":"Feature","geometry":{"type":"Point","coordinates":[116.09959285321082,39.97006217776158]},"properties":{"full_address":"北京市门头沟区大峪街道三家店西老店6号"}},{"type":"Feature","geometry":{"type":"Point","coordinates":[116.09959285321082,39.97006217776158]},"properties":{"full_address":"北京市门头沟区大峪街道三家店西老店新区17排4号"}},{"type":"Feature","geometry":{"type":"Point","coordinates":[116.10911059057737,39.9602192485658]},"properties":{"full_address":"北京市门头沟区大峪街道三家店新河路4号楼1层1单元103号"}},{"type":"Feature","geometry":{"type":"Point","coordinates":[116.11515102050075,39.921184027391256]},"properties":{"full_address":"北京市门头沟区大峪街道石龙北路20-1-6层病例家"}},{"type":"Feature","geometry":{"type":"Point","coordinates":[116.10506063242536,39.92711437986488]},"properties":{"full_address":"北京市门头沟区大峪街道桃园社区7-4病例家"}},{"type":"Feature","geometry":{"type":"Point","coordinates":[116.09959285321082,39.97006217776158]},"properties":{"full_address":"北京市门头沟区大峪街道西老店村8排2号"}},{"type":"Feature","geometry":{"type":"Point","coordinates":[116.10696760210968,39.957242498972825]},"properties":{"full_address":"北京市门头沟区大峪街道新河西路小区1号楼3层病例家"}},{"type":"Feature","geometry":{"type":"Point","coordinates":[116.10298523493184,39.93536981067057]},"properties":{"full_address":"北京市门头沟区大峪街道新桥花园6号院2-3-11层病例家"}},{"type":"Feature","geometry":{"type":"Point","coordinates":[116.10257016025766,39.93640586522158]},"properties":{"full_address":"北京市门头沟区大峪街道新桥花园7号院1号楼1单元21层病例家"}},{"type":"Feature","geometry":{"type":"Point","coordinates":[116.11036020421126,39.92856628057079]},"properties":{"full_address":"北京市门头沟区大峪街道月季园18号楼病例家"}},{"type":"Feature","geometry":{"type":"Point","coordinates":[116.08418664398889,39.928713086375566]},"properties":{"full_address":"北京市门头沟区大峪街道中门寺街71号"}},{"type":"Feature","geometry":{"type":"Point","coordinates":[116.06280740504366,39.92762701703381]},"properties":{"full_address":"北京市门头沟区大峪街道中门寺南坡10号楼15层病例家"}},{"type":"Feature","geometry":{"type":"Point","coordinates":[116.0919787864454,39.93205172645763]},"properties":{"full_address":"北京市门头沟区大峪街道中门寺南坡回迁安置小区9号楼1单元5层病例家"}},{"type":"Feature","geometry":{"type":"Point","coordinates":[116.09017822837109,39.93080916994163]},"properties":{"full_address":"北京市门头沟区大峪街道中门寺南坡小区27号楼5层病例家"}},{"type":"Feature","geometry":{"type":"Point","coordinates":[116.06280740504366,39.92762701703381]},"properties":{"full_address":"北京市门头沟区大峪街道中门寺南坡一区4-2-11层病例家"}},{"type":"Feature","geometry":{"type":"Point","coordinates":[116.06280740504366,39.92762701703381]},"properties":{"full_address":"北京市门头沟区大峪街道中门寺南坡一区9-15层病例家"}},{"type":"Feature","geometry":{"type":"Point","coordinates":[116.06280740504366,39.92762701703381]},"properties":{"full_address":"北京市门头沟区大峪街道中门寺南坡一区9-27层病例家"}},{"type":"Feature","geometry":{"type":"Point","coordinates":[116.08784578077487,39.93307798207779]},"properties":{"full_address":"北京市门头沟区大峪街道怡馨雅苑3-2-4层病例家"}},{"type":"Feature","geometry":{"type":"Point","coordinates":[116.11112694883484,39.93442986377052]},"properties":{"full_address":"北京市门头沟区大峪街道皓月园4-3-14层病例家"}},{"type":"Feature","geometry":{"type":"Point","coordinates":[116.09111321274422,39.947941668376814]},"properties":{"full_address":"北京市门头沟区城子街道二斜井小区7号楼5单元"}},{"type":"Feature","geometry":{"type":"Point","coordinates":[116.10942264988654,39.95852477805718]},"properties":{"full_address":"北京市门头沟区城子街道三家店东老店250号1单元"}},{"type":"Feature","geometry":{"type":"Point","coordinates":[116.10159856234802,39.953161378907716]},"properties":{"full_address":"北京市门头沟区城子街道市场蓝龙胜境3-16层周边"}},{"type":"Feature","geometry":{"type":"Point","coordinates":[116.10119100664501,39.946520246480425]},"properties":{"full_address":"北京市门头沟区城子街道城子大街132-5-1单元地下室"}},{"type":"Feature","geometry":{"type":"Point","coordinates":[116.08905968003543,39.946624301759314]},"properties":{"full_address":"北京市门头沟区城子街道城子大街90号院7-25层病例家"}},{"type":"Feature","geometry":{"type":"Point","coordinates":[116.09535063002966,39.957151492960065]},"properties":{"full_address":"北京市门头沟区城子街道燕宝龙泉家园5-1-5层病例家"}},{"type":"Feature","geometry":{"type":"Point","coordinates":[116.10119100664501,39.946520246480425]},"properties":{"full_address":"北京市门头沟区城子街道城子大街132号院1号楼4单元4层病例家"}},{"type":"Feature","geometry":{"type":"Point","coordinates":[116.08117923371157,39.9825127664566]},"properties":{"full_address":"北京市门头沟区城子街道城子大街90-2-10层病例家"}},{"type":"Feature","geometry":{"type":"Point","coordinates":[116.0949110983531,39.95383267611225]},"properties":{"full_address":"北京市门头沟区城子街道城子西街16号楼2单元2层病例家"}},{"type":"Feature","geometry":{"type":"Point","coordinates":[116.09734752530548,39.94995869077109]},"properties":{"full_address":"北京市门头沟区城子街道九龙东苑1号地7号楼1层病例家"}},{"type":"Feature","geometry":{"type":"Point","coordinates":[116.09734752530548,39.94995869077109]},"properties":{"full_address":"北京市门头沟区城子街道九龙东苑3地块3号楼11层病例家"}},{"type":"Feature","geometry":{"type":"Point","coordinates":[116.09734752530548,39.94995869077109]},"properties":{"full_address":"北京市门头沟区城子街道九龙东苑3地块3号楼2层病例家"}},{"type":"Feature","geometry":{"type":"Point","coordinates":[116.09734752530548,39.94995869077109]},"properties":{"full_address":"北京市门头沟区城子街道九龙东苑3号地6号楼1层病例家"}},{"type":"Feature","geometry":{"type":"Point","coordinates":[116.10615858978605,39.947268575758365]},"properties":{"full_address":"北京市门头沟区城子街道蓝龙家园3-1-1屋病例家"}},{"type":"Feature","geometry":{"type":"Point","coordinates":[116.10615858978605,39.947268575758365]},"properties":{"full_address":"北京市门头沟区城子街道蓝龙家园4-2-9层病例家"}},{"type":"Feature","geometry":{"type":"Point","coordinates":[116.10159856234802,39.953161378907716]},"properties":{"full_address":"北京市门头沟区城子街道蓝龙胜境嘉苑6-2-22层病例家"}},{"type":"Feature","geometry":{"type":"Point","coordinates":[116.10615858978605,39.947268575758365]},"properties":{"full_address":"北京市门头沟区城子街道蓝龙胜境家园4-1-10层病例家"}},{"type":"Feature","geometry":{"type":"Point","coordinates":[116.10094330716859,39.954887457674594]},"properties":{"full_address":"北京市门头沟区城子街道蓝龙小区16号楼2单元2层病例家"}},{"type":"Feature","geometry":{"type":"Point","coordinates":[116.07634668959167,39.94129044806107]},"properties":{"full_address":"北京市门头沟区城子街道龙门六区A5-1号楼1单元8层病例家"}},{"type":"Feature","geometry":{"type":"Point","coordinates":[116.08058175907452,39.946071978907746]},"properties":{"full_address":"北京市门头沟区城子街道龙门三区B3小区6号楼2单元3层病例家"}},{"type":"Feature","geometry":{"type":"Point","coordinates":[116.09734752530548,39.94995869077109]},"properties":{"full_address":"北京市门头沟区城子街道九龙东苑4地块3-2-4层病例家"}},{"type":"Feature","geometry":{"type":"Point","coordinates":[116.08266454762946,39.94530561816773]},"properties":{"full_address":"北京市门头沟区城子街道龙门B4-6-4-5层病例家"}},{"type":"Feature","geometry":{"type":"Point","coordinates":[116.10125763855024,39.95180662355845]},"properties":{"full_address":"北京市门头沟区城子街道城子东街13号院4楼4单元5层病例家"}},{"type":"Feature","geometry":{"type":"Point","coordinates":[116.08266454762946,39.94530561816773]},"properties":{"full_address":"北京市门头沟区城子街道龙门B3-7-2-1层病例家"}},{"type":"Feature","geometry":{"type":"Point","coordinates":[116.089226360286,39.94555592810965]},"properties":{"full_address":"北京市门头沟区城子街道龙门一区B3-1-4层病例家"}},{"type":"Feature","geometry":{"type":"Point","coordinates":[116.12024400388388,39.95018940685089]},"properties":{"full_address":"北京市门头沟区城子街道三家店铁路四局西四18排2号病例家"}},{"type":"Feature","geometry":{"type":"Point","coordinates":[116.09535063002966,39.957151492960065]},"properties":{"full_address":"北京市门头沟区城子街道燕保家园5-1-10层病例家"}},{"type":"Feature","geometry":{"type":"Point","coordinates":[116.11611156766406,39.953717133256745]},"properties":{"full_address":"北京市门头沟区城子街道三家店新建路甲20号5-2层病例家"}},{"type":"Feature","geometry":{"type":"Point","coordinates":[116.1017646801163,39.949483842337806]},"properties":{"full_address":"北京市门头沟区城子街道西山天璟7-26层病例家"}},{"type":"Feature","geometry":{"type":"Point","coordinates":[116.1017646801163,39.949483842337806]},"properties":{"full_address":"北京市门头沟区城子街道西山天璟7-3-17层病例家"}},{"type":"Feature","geometry":{"type":"Point","coordinates":[116.1017646801163,39.949483842337806]},"properties":{"full_address":"北京市门头沟区城子街道西山天璟7号楼10层病例家"}},{"type":"Feature","geometry":{"type":"Point","coordinates":[116.07937981909683,39.94481077311645]},"properties":{"full_address":"北京市门头沟区城子街道燕保5号楼1单元14层病例家"}},{"type":"Feature","geometry":{"type":"Point","coordinates":[116.07937981909683,39.94481077311645]},"properties":{"full_address":"北京市门头沟区城子街道燕保5号楼1单元18层病例家"}},{"type":"Feature","geometry":{"type":"Point","coordinates":[116.07937981909683,39.94481077311645]},"properties":{"full_address":"北京市门头沟区城子街道燕保5号楼2单元10层病例家"}},{"type":"Feature","geometry":{"type":"Point","coordinates":[116.09535063002966,39.957151492960065]},"properties":{"full_address":"北京市门头沟区城子街道燕保家园5-1-8层病例家"}},{"type":"Feature","geometry":{"type":"Point","coordinates":[116.09535063002966,39.957151492960065]},"properties":{"full_address":"北京市门头沟区城子街道燕保家园5楼18层病例家"}},{"type":"Feature","geometry":{"type":"Point","coordinates":[116.09603594014386,39.95209692052575]},"properties":{"full_address":"北京市门头沟区城子街道怡和雅苑18-3-3层病例家"}},{"type":"Feature","geometry":{"type":"Point","coordinates":[116.08905968003543,39.946624301759314]},"properties":{"full_address":"北京市门头沟区城子街道城子大街90号院3-603"}},{"type":"Feature","geometry":{"type":"Point","coordinates":[116.08905968003543,39.946624301759314]},"properties":{"full_address":"北京市门头沟区城子街道城子大街90号院5-22层病例家"}},{"type":"Feature","geometry":{"type":"Point","coordinates":[116.08905968003543,39.946624301759314]},"properties":{"full_address":"北京市门头沟区城子街道城子大街90号院7号楼1单元8层病例家"}},{"type":"Feature","geometry":{"type":"Point","coordinates":[116.10604649915548,39.94707057863036]},"properties":{"full_address":"北京市门头沟区城子街道阁外山水10-6-4层病例家"}},{"type":"Feature","geometry":{"type":"Point","coordinates":[116.0942112350654,39.94697371838171]},"properties":{"full_address":"北京市门头沟区城子街道矿桥东街21号楼3单元311"}},{"type":"Feature","geometry":{"type":"Point","coordinates":[116.10159856234802,39.953161378907716]},"properties":{"full_address":"北京市门头沟区城子街道蓝龙胜景嘉苑8号楼2单元11层病例家"}},{"type":"Feature","geometry":{"type":"Point","coordinates":[116.07759988801229,39.94031550546078]},"properties":{"full_address":"北京市门头沟区城子街道龙门A10-11-2-401"}},{"type":"Feature","geometry":{"type":"Point","coordinates":[116.07759988801229,39.94031550546078]},"properties":{"full_address":"北京市门头沟区城子街道龙门A10-4-1-4层病例家"}},{"type":"Feature","geometry":{"type":"Point","coordinates":[116.07759988801229,39.94031550546078]},"properties":{"full_address":"北京市门头沟区城子街道龙门A10-8-1-2层病例家"}},{"type":"Feature","geometry":{"type":"Point","coordinates":[116.07759988801229,39.94031550546078]},"properties":{"full_address":"北京市门头沟区城子街道龙门A10四号楼2单元9层病例家"}},{"type":"Feature","geometry":{"type":"Point","coordinates":[116.08266454762946,39.94530561816773]},"properties":{"full_address":"北京市门头沟区城子街道龙门A6-11-3-1102"}},{"type":"Feature","geometry":{"type":"Point","coordinates":[116.08266454762946,39.94530561816773]},"properties":{"full_address":"北京市门头沟区城子街道龙门A7-5-2-1层病例家"}},{"type":"Feature","geometry":{"type":"Point","coordinates":[116.07947770587296,39.94056158833027]},"properties":{"full_address":"北京市门头沟区城子街道龙门A8-1-3-5层病例家"}},{"type":"Feature","geometry":{"type":"Point","coordinates":[116.08266454762946,39.94530561816773]},"properties":{"full_address":"北京市门头沟区城子街道龙门A区4-2-8层病例家"}},{"type":"Feature","geometry":{"type":"Point","coordinates":[116.08266454762946,39.94530561816773]},"properties":{"full_address":"北京市门头沟区城子街道龙门B1-4-2-101"}},{"type":"Feature","geometry":{"type":"Point","coordinates":[116.08266454762946,39.94530561816773]},"properties":{"full_address":"北京市门头沟区城子街道龙门B3-7-2-3层病例家"}},{"type":"Feature","geometry":{"type":"Point","coordinates":[116.08266454762946,39.94530561816773]},"properties":{"full_address":"北京市门头沟区城子街道龙门B3-8-1-5层病例家"}},{"type":"Feature","geometry":{"type":"Point","coordinates":[116.08266454762946,39.94530561816773]},"properties":{"full_address":"北京市门头沟区城子街道龙门B4-6-1-3层病例家"}},{"type":"Feature","geometry":{"type":"Point","coordinates":[116.08266454762946,39.94530561816773]},"properties":{"full_address":"北京市门头沟区城子街道龙门B4-7-3-7层病例家"}},{"type":"Feature","geometry":{"type":"Point","coordinates":[116.07634668959167,39.94129044806107]},"properties":{"full_address":"北京市门头沟区城子街道龙门六区A10 7-1-3层病例家"}},{"type":"Feature","geometry":{"type":"Point","coordinates":[116.07634668959167,39.94129044806107]},"properties":{"full_address":"北京市门头沟区城子街道龙门六区A8-2-1-3层病例家"}},{"type":"Feature","geometry":{"type":"Point","coordinates":[116.08905968003543,39.946624301759314]},"properties":{"full_address":"北京市门头沟区城子街道七棵树90号院2-5-2层病例家"}},{"type":"Feature","geometry":{"type":"Point","coordinates":[116.10305840011156,39.94568282456344]},"properties":{"full_address":"北京市门头沟区城子街道桥东街13号1-5层病例家"}},{"type":"Feature","geometry":{"type":"Point","coordinates":[116.11016564865575,39.95654727339246]},"properties":{"full_address":"北京市门头沟区城子街道三家店的东老店215号"}},{"type":"Feature","geometry":{"type":"Point","coordinates":[116.1098916204459,39.961824212496445]},"properties":{"full_address":"北京市门头沟区城子街道三家店东街48号"}},{"type":"Feature","geometry":{"type":"Point","coordinates":[116.11037951421129,39.958745016342576]},"properties":{"full_address":"北京市门头沟区城子街道三家店东老店平房5号"}},{"type":"Feature","geometry":{"type":"Point","coordinates":[116.11037951421129,39.958745016342576]},"properties":{"full_address":"北京市门头沟区城子街道三家店东老店平房8号"}},{"type":"Feature","geometry":{"type":"Point","coordinates":[116.12024400388388,39.95018940685089]},"properties":{"full_address":"北京市门头沟区城子街道三家店四局西排18号"}},{"type":"Feature","geometry":{"type":"Point","coordinates":[116.09986373254124,39.9698466779423]},"properties":{"full_address":"北京市门头沟区城子街道三家店西街121号"}},{"type":"Feature","geometry":{"type":"Point","coordinates":[116.1061246871681,39.95635553151581]},"properties":{"full_address":"北京市门头沟区城子街道三家店新华路5排16号"}},{"type":"Feature","geometry":{"type":"Point","coordinates":[116.11611156766406,39.953717133256745]},"properties":{"full_address":"北京市门头沟区城子街道三家店新建路甲20号1单元3层病例家"}},{"type":"Feature","geometry":{"type":"Point","coordinates":[116.11208191132414,39.9569851035079]},"properties":{"full_address":"北京市门头沟区城子街道西宁路5-2-5层病例家"}},{"type":"Feature","geometry":{"type":"Point","coordinates":[116.08873759183935,39.946479389932485]},"properties":{"full_address":"北京市门头沟区城子街道西七棵树90号院1号楼2单元3层病例家"}},{"type":"Feature","geometry":{"type":"Point","coordinates":[116.1017646801163,39.949483842337806]},"properties":{"full_address":"北京市门头沟区城子街道西山天璟2号21层病例家"}},{"type":"Feature","geometry":{"type":"Point","coordinates":[116.1017646801163,39.949483842337806]},"properties":{"full_address":"北京市门头沟区城子街道西山天璟7-13层病例家"}},{"type":"Feature","geometry":{"type":"Point","coordinates":[116.1017646801163,39.949483842337806]},"properties":{"full_address":"北京市门头沟区城子街道西山天璟7-7层病例家"}},{"type":"Feature","geometry":{"type":"Point","coordinates":[116.1017646801163,39.949483842337806]},"properties":{"full_address":"北京市门头沟区城子街道西山天璟7号楼22层病例家"}},{"type":"Feature","geometry":{"type":"Point","coordinates":[116.1017646801163,39.949483842337806]},"properties":{"full_address":"北京市门头沟区城子街道西山天璟7号楼26层病例家"}},{"type":"Feature","geometry":{"type":"Point","coordinates":[116.1017646801163,39.949483842337806]},"properties":{"full_address":"北京市门头沟区城子街道西山天璟7号楼2单元13层病例家"}},{"type":"Feature","geometry":{"type":"Point","coordinates":[116.07937981909683,39.94481077311645]},"properties":{"full_address":"北京市门头沟区城子街道燕保5楼1单元16病例家"}},{"type":"Feature","geometry":{"type":"Point","coordinates":[116.09535063002966,39.957151492960065]},"properties":{"full_address":"北京市门头沟区城子街道燕保家园社区5-1-14层病例家"}},{"type":"Feature","geometry":{"type":"Point","coordinates":[116.09535063002966,39.957151492960065]},"properties":{"full_address":"北京市门头沟区城子街道燕保家园社区5-1-16层病例家"}},{"type":"Feature","geometry":{"type":"Point","coordinates":[116.09535063002966,39.957151492960065]},"properties":{"full_address":"北京市门头沟区城子街道燕保龙泉家园4号楼2-7层病例家"}},{"type":"Feature","geometry":{"type":"Point","coordinates":[116.09535063002966,39.957151492960065]},"properties":{"full_address":"北京市门头沟区城子街道燕保龙泉家园5-1-10层病例家"}},{"type":"Feature","geometry":{"type":"Point","coordinates":[116.09535063002966,39.957151492960065]},"properties":{"full_address":"北京市门头沟区城子街道燕保龙泉家园5号楼1单元9层病例家"}},{"type":"Feature","geometry":{"type":"Point","coordinates":[116.07937981909683,39.94481077311645]},"properties":{"full_address":"北京市门头沟区城子街道燕保完园5-1-9层病例家"}},{"type":"Feature","geometry":{"type":"Point","coordinates":[116.09603594014386,39.95209692052575]},"properties":{"full_address":"北京市门头沟区城子街道怡和雅苑15楼1单元4层病例家"}},{"type":"Feature","geometry":{"type":"Point","coordinates":[116.08866851832452,39.94531895980972]},"properties":{"full_address":"北京市门头沟区东辛房街道石门营七区B4小区2号楼6层及上下对应两户"}},{"type":"Feature","geometry":{"type":"Point","coordinates":[116.10209214966179,39.88788399420717]},"properties":{"full_address":"北京市门头沟区东辛房街道石门营四区12号楼3单元7层及上下对应两户"}},{"type":"Feature","geometry":{"type":"Point","coordinates":[116.1151951539086,39.88667984255676]},"properties":{"full_address":"北京市门头沟区东辛房街道紫金新园三区13号楼4层及上下对应两户"}},{"type":"Feature","geometry":{"type":"Point","coordinates":[116.10343807867316,39.88491849886448]},"properties":{"full_address":"北京市门头沟区东辛房街道石门营六区B3小区7号楼3单元"}},{"type":"Feature","geometry":{"type":"Point","coordinates":[116.10532594599356,39.88704837317685]},"properties":{"full_address":"北京市门头沟区东辛房街道石门营七区B2小区1号楼1单元11层及上下对应两户"}},{"type":"Feature","geometry":{"type":"Point","coordinates":[116.10252585894726,39.887909637320455]},"properties":{"full_address":"北京市门头沟区东辛房街道石门营四区A4小区1号楼2单元11层及上下对应两户"}},{"type":"Feature","geometry":{"type":"Point","coordinates":[116.10252585894726,39.887909637320455]},"properties":{"full_address":"北京市门头沟区东辛房街道石门营四区A4小区4号楼3单元4层及上下对应两户"}},{"type":"Feature","geometry":{"type":"Point","coordinates":[116.09985007375677,39.88647715972061]},"properties":{"full_address":"北京市门头沟区东辛房街道石门营五区A5小区18号楼1单元"}},{"type":"Feature","geometry":{"type":"Point","coordinates":[116.09985007375677,39.88647715972061]},"properties":{"full_address":"北京市门头沟区东辛房街道石门营五区A5小区31号楼15层及上下对应两户"}},{"type":"Feature","geometry":{"type":"Point","coordinates":[116.1138852451942,39.886869782199085]},"properties":{"full_address":"北京市门头沟区东辛房街道紫金新园三区8号楼1层及上层对应一户"}},{"type":"Feature","geometry":{"type":"Point","coordinates":[116.1138852451942,39.886869782199085]},"properties":{"full_address":"北京市门头沟区东辛房街道紫金新园三区8号楼24层及上下对应两户"}},{"type":"Feature","geometry":{"type":"Point","coordinates":[116.11566265340053,39.88691627374725]},"properties":{"full_address":"北京市门头沟区东辛房街道紫金新园三区9号楼10层及上下对应两户"}},{"type":"Feature","geometry":{"type":"Point","coordinates":[116.06434434720653,39.9327881280721]},"properties":{"full_address":"北京市门头沟区东辛房街道惠泽家园10号楼"}},{"type":"Feature","geometry":{"type":"Point","coordinates":[116.06745224341006,39.933726471671584]},"properties":{"full_address":"北京市门头沟区东辛房街道惠泽家园17号楼4单元"}},{"type":"Feature","geometry":{"type":"Point","coordinates":[116.06454733700276,39.931815164009215]},"properties":{"full_address":"北京市门头沟区东辛房街道惠泽家园4号楼3单元"}},{"type":"Feature","geometry":{"type":"Point","coordinates":[116.08408092763044,39.938770610765474]},"properties":{"full_address":"北京市门头沟区东辛房街道龙苑小区2号楼2单元"}},{"type":"Feature","geometry":{"type":"Point","coordinates":[116.10184277301967,39.88920673370231]},"properties":{"full_address":"北京市门头沟区东辛房街道石门营A4小区5号楼5单元11层及上下层对应两户"}},{"type":"Feature","geometry":{"type":"Point","coordinates":[116.10252585894726,39.887909637320455]},"properties":{"full_address":"北京市门头沟区东辛房街道石门营B4小区15号楼1单元"}},{"type":"Feature","geometry":{"type":"Point","coordinates":[116.10343807867316,39.88491849886448]},"properties":{"full_address":"北京市门头沟区东辛房街道石门营六区2号楼3单元"}},{"type":"Feature","geometry":{"type":"Point","coordinates":[116.10343807867316,39.88491849886448]},"properties":{"full_address":"北京市门头沟区东辛房街道石门营六区B3小区14号楼1单元"}},{"type":"Feature","geometry":{"type":"Point","coordinates":[116.10642451909636,39.88769886775391]},"properties":{"full_address":"北京市门头沟区东辛房街道石门营七区B1小区2号楼5单元6层及上下层对应两户"}},{"type":"Feature","geometry":{"type":"Point","coordinates":[116.10642451909636,39.88769886775391]},"properties":{"full_address":"北京市门头沟区东辛房街道石门营七区B1小区6号楼2单元4层及上下层对应两户"}},{"type":"Feature","geometry":{"type":"Point","coordinates":[116.10532594599356,39.88704837317685]},"properties":{"full_address":"北京市门头沟区东辛房街道石门营七区B2小区2号楼3单元7层及上下层对应两户"}},{"type":"Feature","geometry":{"type":"Point","coordinates":[116.10532594599356,39.88704837317685]},"properties":{"full_address":"北京市门头沟区东辛房街道石门营七区B2小区5号楼1单元11层及上下层对应两户"}},{"type":"Feature","geometry":{"type":"Point","coordinates":[116.11282793175891,39.88866587822485]},"properties":{"full_address":"北京市门头沟区东辛房街道紫金新园二区2号楼19层及上下层对应两户"}},{"type":"Feature","geometry":{"type":"Point","coordinates":[116.11242920010828,39.88969981806143]},"properties":{"full_address":"北京市门头沟区东辛房街道紫金新园二区3号楼1层及上层对应一户"}},{"type":"Feature","geometry":{"type":"Point","coordinates":[116.11303815989584,39.88867025276084]},"properties":{"full_address":"北京市门头沟区东辛房街道紫金新园二区4号楼28层及上下层对应两户"}},{"type":"Feature","geometry":{"type":"Point","coordinates":[116.11166320188411,39.88855687375883]},"properties":{"full_address":"北京市门头沟区东辛房街道紫金新园二区7号楼9层及上下层对应两户"}},{"type":"Feature","geometry":{"type":"Point","coordinates":[116.11282860479861,39.888924865522014]},"properties":{"full_address":"北京市门头沟区东辛房街道紫金新园二区9号楼15层及上下层对应两户"}},{"type":"Feature","geometry":{"type":"Point","coordinates":[116.11599547035762,39.88689207378034]},"properties":{"full_address":"北京市门头沟区东辛房街道紫金新园三区14号楼24层及上下层对应两户"}},{"type":"Feature","geometry":{"type":"Point","coordinates":[116.11566265340053,39.88691627374725]},"properties":{"full_address":"北京市门头沟区东辛房街道紫金新园三区7号楼16层及上下层对应两户"}},{"type":"Feature","geometry":{"type":"Point","coordinates":[116.1138852451942,39.886869782199085]},"properties":{"full_address":"北京市门头沟区东辛房街道紫金新园三区8号楼26层及上下层对应两户"}},{"type":"Feature","geometry":{"type":"Point","coordinates":[116.06519411909642,39.93271495608245]},"properties":{"full_address":"北京市门头沟区东辛房街道惠泽嘉园12号楼5单元2层"}},{"type":"Feature","geometry":{"type":"Point","coordinates":[116.10343807867316,39.88491849886448]},"properties":{"full_address":"北京市门头沟区东辛房街道石门营六区21号楼1单元1层"}},{"type":"Feature","geometry":{"type":"Point","coordinates":[116.10343807867316,39.88491849886448]},"properties":{"full_address":"北京市门头沟区东辛房街道石门营六区3号楼2单元3层"}},{"type":"Feature","geometry":{"type":"Point","coordinates":[116.10642451909636,39.88769886775391]},"properties":{"full_address":"北京市门头沟区东辛房街道石门营七区B1小区2号楼1单元6层"}},{"type":"Feature","geometry":{"type":"Point","coordinates":[116.10642451909636,39.88769886775391]},"properties":{"full_address":"北京市门头沟区东辛房街道石门营七区B1小区2号楼2单元13层"}},{"type":"Feature","geometry":{"type":"Point","coordinates":[116.10209214966179,39.88788399420717]},"properties":{"full_address":"北京市门头沟区东辛房街道石门营四区5号楼3单元7层"}},{"type":"Feature","geometry":{"type":"Point","coordinates":[116.09985007375677,39.88647715972061]},"properties":{"full_address":"北京市门头沟区东辛房街道石门营五区23号楼2单元3层"}},{"type":"Feature","geometry":{"type":"Point","coordinates":[116.11042693426906,39.891358057698326]},"properties":{"full_address":"北京市门头沟区东辛房街道紫金新园区4号楼11层"}},{"type":"Feature","geometry":{"type":"Point","coordinates":[116.1151951539086,39.88667984255676]},"properties":{"full_address":"北京市门头沟区东辛房街道紫金新园三区13号楼24层"}},{"type":"Feature","geometry":{"type":"Point","coordinates":[116.11566265340053,39.88691627374725]},"properties":{"full_address":"北京市门头沟区东辛房街道紫金新园三区2号楼2层"}},{"type":"Feature","geometry":{"type":"Point","coordinates":[116.11566265340053,39.88691627374725]},"properties":{"full_address":"北京市门头沟区东辛房街道紫金新园三区7号楼19层"}},{"type":"Feature","geometry":{"type":"Point","coordinates":[116.11566265340053,39.88691627374725]},"properties":{"full_address":"北京市门头沟区东辛房街道紫金新园三区9号楼10层及上下层对应两户"}},{"type":"Feature","geometry":{"type":"Point","coordinates":[115.9271197148193,39.961676205390035]},"properties":{"full_address":"北京市门头沟区大台街道灰地社区3号楼1单元"}},{"type":"Feature","geometry":{"type":"Point","coordinates":[115.9271197148193,39.961676205390035]},"properties":{"full_address":"北京市门头沟区大台街道灰地社区2号楼2单元"}},{"type":"Feature","geometry":{"type":"Point","coordinates":[116.63541457257422,39.92717270286572]},"properties":{"full_address":"北京市通州区永顺（地区）镇布丁严选酒店"}},{"type":"Feature","geometry":{"type":"Point","coordinates":[116.65472657734,39.91407391427763]},"properties":{"full_address":"北京市通州区永顺（地区）镇惠兰美居D03-1单元24层病家"}},{"type":"Feature","geometry":{"type":"Point","coordinates":[116.65472657734,39.91407391427763]},"properties":{"full_address":"北京市通州区永顺（地区）镇惠兰美居D03-1单元27层病家"}},{"type":"Feature","geometry":{"type":"Point","coordinates":[116.65472657734,39.91407391427763]},"properties":{"full_address":"北京市通州区永顺（地区）镇惠兰美居D03-1单元28层病家"}},{"type":"Feature","geometry":{"type":"Point","coordinates":[116.65472657734,39.91407391427763]},"properties":{"full_address":"北京市通州区永顺（地区）镇惠兰美居D03-1单元29层病家"}},{"type":"Feature","geometry":{"type":"Point","coordinates":[116.65472657734,39.91407391427763]},"properties":{"full_address":"北京市通州区永顺（地区）镇家和园2一1单元12层病家"}},{"type":"Feature","geometry":{"type":"Point","coordinates":[116.63929425359,39.914396198433664]},"properties":{"full_address":"北京市通州区永顺（地区）镇金海街36号院3号楼3单元6层病家"}},{"type":"Feature","geometry":{"type":"Point","coordinates":[116.65509614296145,39.924343374809304]},"properties":{"full_address":"北京市通州区永顺（地区）镇西富河园4号院15号楼2层病家"}},{"type":"Feature","geometry":{"type":"Point","coordinates":[116.65509614296145,39.924343374809304]},"properties":{"full_address":"北京市通州区永顺（地区）镇西富河园4号院16号楼8单元5层病家"}},{"type":"Feature","geometry":{"type":"Point","coordinates":[116.65509614296145,39.924343374809304]},"properties":{"full_address":"北京市通州区永顺（地区）镇西富河园4号院18号楼17层病家"}},{"type":"Feature","geometry":{"type":"Point","coordinates":[116.65509614296145,39.924343374809304]},"properties":{"full_address":"北京市通州区永顺（地区）镇西富河园4号院正德超市东小门旁边的出租房平层"}},{"type":"Feature","geometry":{"type":"Point","coordinates":[116.64823155233795,39.91235796454902]},"properties":{"full_address":"北京市通州区永顺（地区）镇永顺南街230号院2单元2层病家"}},{"type":"Feature","geometry":{"type":"Point","coordinates":[116.64408320073899,39.91202992619391]},"properties":{"full_address":"北京市通州区永顺（地区）镇永顺南街306号楼1单元5层病家"}},{"type":"Feature","geometry":{"type":"Point","coordinates":[116.65308461220863,39.913499885933675]},"properties":{"full_address":"北京市通州区永顺（地区）镇永顺南里1号院4号楼3单元3层病家"}},{"type":"Feature","geometry":{"type":"Point","coordinates":[116.65308461220863,39.913499885933675]},"properties":{"full_address":"北京市通州区永顺（地区）镇永顺南里1号院4号楼3单元6层病家"}},{"type":"Feature","geometry":{"type":"Point","coordinates":[116.64826304984919,39.91196568461174]},"properties":{"full_address":"北京市通州区永顺（地区）镇永顺南里2号院10号楼4单元1层病家"}},{"type":"Feature","geometry":{"type":"Point","coordinates":[116.64826304984919,39.91196568461174]},"properties":{"full_address":"北京市通州区永顺（地区）镇永顺南里2号院10号楼4单元2层病家"}},{"type":"Feature","geometry":{"type":"Point","coordinates":[116.6490090643809,39.91188178375589]},"properties":{"full_address":"北京市通州区永顺（地区）镇永顺南里2号院3号楼5层病家"}},{"type":"Feature","geometry":{"type":"Point","coordinates":[116.64360710081588,39.91691710434953]},"properties":{"full_address":"北京市通州区永顺（地区）镇永顺西里38号院4单元3层病家"}},{"type":"Feature","geometry":{"type":"Point","coordinates":[116.64391621390726,39.92776545938303]},"properties":{"full_address":"北京市通州区永顺（地区）镇天赐良园二期15号楼3单元2层病家"}},{"type":"Feature","geometry":{"type":"Point","coordinates":[116.65883244366849,40.00197436697132]},"properties":{"full_address":"北京市通州区宋庄镇寨里村一区"}},{"type":"Feature","geometry":{"type":"Point","coordinates":[116.65883244366849,40.00197436697132]},"properties":{"full_address":"北京市通州区宋庄镇寨里村105号"}},{"type":"Feature","geometry":{"type":"Point","coordinates":[116.65883244366849,40.00197436697132]},"properties":{"full_address":"北京市通州区宋庄镇寨里村64号"}},{"type":"Feature","geometry":{"type":"Point","coordinates":[116.7705917232718,39.94252087523222]},"properties":{"full_address":"北京市通州区宋庄镇白庙格林豪泰"}},{"type":"Feature","geometry":{"type":"Point","coordinates":[116.72744013733286,39.94099010009696]},"properties":{"full_address":"北京市通州区宋庄镇北刘村182号"}},{"type":"Feature","geometry":{"type":"Point","coordinates":[116.7489075391912,39.970100940258746]},"properties":{"full_address":"北京市通州区宋庄镇北寺村254号"}},{"type":"Feature","geometry":{"type":"Point","coordinates":[116.67999832813953,40.0041921716039]},"properties":{"full_address":"北京市通州区宋庄镇北窑上村224号"}},{"type":"Feature","geometry":{"type":"Point","coordinates":[116.67999832813953,40.0041921716039]},"properties":{"full_address":"北京市通州区宋庄镇北窑上村46号"}},{"type":"Feature","geometry":{"type":"Point","coordinates":[116.67999832813953,40.0041921716039]},"properties":{"full_address":"北京市通州区宋庄镇北窑上村9号"}},{"type":"Feature","geometry":{"type":"Point","coordinates":[116.746720728747,39.92138534391766]},"properties":{"full_address":"北京市通州区宋庄镇菜园村6号"}},{"type":"Feature","geometry":{"type":"Point","coordinates":[116.746720728747,39.92138534391766]},"properties":{"full_address":"北京市通州区宋庄镇菜园村77号-1"}},{"type":"Feature","geometry":{"type":"Point","coordinates":[116.67898758160665,39.98918331095609]},"properties":{"full_address":"北京市通州区宋庄镇草寺村12号"}},{"type":"Feature","geometry":{"type":"Point","coordinates":[116.67898758160665,39.98918331095609]},"properties":{"full_address":"北京市通州区宋庄镇草寺村137号"}},{"type":"Feature","geometry":{"type":"Point","coordinates":[116.67898758160665,39.98918331095609]},"properties":{"full_address":"北京市通州区宋庄镇草寺村18号"}},{"type":"Feature","geometry":{"type":"Point","coordinates":[116.67898758160665,39.98918331095609]},"properties":{"full_address":"北京市通州区宋庄镇草寺村211号"}},{"type":"Feature","geometry":{"type":"Point","coordinates":[116.67898758160665,39.98918331095609]},"properties":{"full_address":"北京市通州区宋庄镇草寺村213号"}},{"type":"Feature","geometry":{"type":"Point","coordinates":[116.67898758160665,39.98918331095609]},"properties":{"full_address":"北京市通州区宋庄镇草寺村242号"}},{"type":"Feature","geometry":{"type":"Point","coordinates":[116.67898758160665,39.98918331095609]},"properties":{"full_address":"北京市通州区宋庄镇草寺村295号"}},{"type":"Feature","geometry":{"type":"Point","coordinates":[116.67898758160665,39.98918331095609]},"properties":{"full_address":"北京市通州区宋庄镇草寺村314号"}},{"type":"Feature","geometry":{"type":"Point","coordinates":[116.6785956423535,39.98720714261618]},"properties":{"full_address":"北京市通州区宋庄镇草寺格林豪泰"}},{"type":"Feature","geometry":{"type":"Point","coordinates":[116.68096112599846,39.98437001509509]},"properties":{"full_address":"北京市通州区宋庄镇草寺工业园"}},{"type":"Feature","geometry":{"type":"Point","coordinates":[116.75621730266143,39.91940166574424]},"properties":{"full_address":"北京市通州区宋庄镇大邓各庄47号"}},{"type":"Feature","geometry":{"type":"Point","coordinates":[116.70623975429247,39.986146367263764]},"properties":{"full_address":"北京市通州区宋庄镇大庞村160号"}},{"type":"Feature","geometry":{"type":"Point","coordinates":[116.70623975429247,39.986146367263764]},"properties":{"full_address":"北京市通州区宋庄镇大庞村64号"}},{"type":"Feature","geometry":{"type":"Point","coordinates":[116.70623975429247,39.986146367263764]},"properties":{"full_address":"北京市通州区宋庄镇大庞村73号"}},{"type":"Feature","geometry":{"type":"Point","coordinates":[116.70623975429247,39.986146367263764]},"properties":{"full_address":"北京市通州区宋庄镇大庞村763号"}},{"type":"Feature","geometry":{"type":"Point","coordinates":[116.70623975429247,39.986146367263764]},"properties":{"full_address":"北京市通州区宋庄镇大庞村769号"}},{"type":"Feature","geometry":{"type":"Point","coordinates":[116.70623975429247,39.986146367263764]},"properties":{"full_address":"北京市通州区宋庄镇大庞村777号"}},{"type":"Feature","geometry":{"type":"Point","coordinates":[116.73297039800094,39.95769635837456]},"properties":{"full_address":"北京市通州区宋庄镇大兴庄144号"}},{"type":"Feature","geometry":{"type":"Point","coordinates":[116.73297039800094,39.95769635837456]},"properties":{"full_address":"北京市通州区宋庄镇大兴庄270号"}},{"type":"Feature","geometry":{"type":"Point","coordinates":[116.73339880554434,39.95660748039951]},"properties":{"full_address":"北京市通州区宋庄镇大兴庄艺术区B区V014"}},{"type":"Feature","geometry":{"type":"Point","coordinates":[116.72298735462995,39.96100071261894]},"properties":{"full_address":"北京市通州区宋庄镇当代艺术院1号楼2单元6层、506、706、806、906"}},{"type":"Feature","geometry":{"type":"Point","coordinates":[116.72298735462995,39.96100071261894]},"properties":{"full_address":"北京市通州区宋庄镇当代艺术院1号楼2单元9层、802、1002、1102、1202"}},{"type":"Feature","geometry":{"type":"Point","coordinates":[116.73228410204328,39.94122656534298]},"properties":{"full_address":"北京市通州区宋庄镇典典养车"}},{"type":"Feature","geometry":{"type":"Point","coordinates":[116.73460313168229,39.92985893173496]},"properties":{"full_address":"北京市通州区宋庄镇丁各庄村12号"}},{"type":"Feature","geometry":{"type":"Point","coordinates":[116.73460313168229,39.92985893173496]},"properties":{"full_address":"北京市通州区宋庄镇丁各庄村225号"}},{"type":"Feature","geometry":{"type":"Point","coordinates":[116.73460313168229,39.92985893173496]},"properties":{"full_address":"北京市通州区宋庄镇丁各庄村3号"}},{"type":"Feature","geometry":{"type":"Point","coordinates":[116.73460313168229,39.92985893173496]},"properties":{"full_address":"北京市通州区宋庄镇丁各庄村62号"}},{"type":"Feature","geometry":{"type":"Point","coordinates":[116.73460313168229,39.92985893173496]},"properties":{"full_address":"北京市通州区宋庄镇丁各庄村98号"}},{"type":"Feature","geometry":{"type":"Point","coordinates":[116.73460313168229,39.92985893173496]},"properties":{"full_address":"北京市通州区宋庄镇丁各庄村临76号"}},{"type":"Feature","geometry":{"type":"Point","coordinates":[116.72744013733286,39.94099010009696]},"properties":{"full_address":"北京市通州区宋庄镇丁各庄王禹汽修二楼"}},{"type":"Feature","geometry":{"type":"Point","coordinates":[115.97073727537442,40.45863788683994]},"properties":{"full_address":"北京市通州区宋庄镇东街132号"}},{"type":"Feature","geometry":{"type":"Point","coordinates":[116.66092613726227,39.96491716980761]},"properties":{"full_address":"北京市通州区宋庄镇富豪村127号"}},{"type":"Feature","geometry":{"type":"Point","coordinates":[116.66092613726227,39.96491716980761]},"properties":{"full_address":"北京市通州区宋庄镇富豪村194号"}},{"type":"Feature","geometry":{"type":"Point","coordinates":[116.66092613726227,39.96491716980761]},"properties":{"full_address":"北京市通州区宋庄镇富豪村29号"}},{"type":"Feature","geometry":{"type":"Point","coordinates":[116.66092613726227,39.96491716980761]},"properties":{"full_address":"北京市通州区宋庄镇富豪村419号"}},{"type":"Feature","geometry":{"type":"Point","coordinates":[116.66092613726227,39.96491716980761]},"properties":{"full_address":"北京市通州区宋庄镇富豪村752号"}},{"type":"Feature","geometry":{"type":"Point","coordinates":[116.66092613726227,39.96491716980761]},"properties":{"full_address":"北京市通州区宋庄镇富豪村794号"}},{"type":"Feature","geometry":{"type":"Point","coordinates":[116.66092613726227,39.96491716980761]},"properties":{"full_address":"北京市通州区宋庄镇富豪村848号"}},{"type":"Feature","geometry":{"type":"Point","coordinates":[116.66092613726227,39.96491716980761]},"properties":{"full_address":"北京市通州区宋庄镇富豪村98号"}},{"type":"Feature","geometry":{"type":"Point","coordinates":[116.68186973213302,39.99797037306135]},"properties":{"full_address":"北京市通州区宋庄镇岗子村142号"}},{"type":"Feature","geometry":{"type":"Point","coordinates":[116.68186973213302,39.99797037306135]},"properties":{"full_address":"北京市通州区宋庄镇岗子村28号"}},{"type":"Feature","geometry":{"type":"Point","coordinates":[116.76446040238336,40.00888275801728]},"properties":{"full_address":"北京市通州区宋庄镇港北村144号"}},{"type":"Feature","geometry":{"type":"Point","coordinates":[116.74880994580133,39.929023264265815]},"properties":{"full_address":"北京市通州区宋庄镇高辛庄136号"}},{"type":"Feature","geometry":{"type":"Point","coordinates":[116.64737237734359,40.01378736954577]},"properties":{"full_address":"北京市通州区宋庄镇葛渠村255号"}},{"type":"Feature","geometry":{"type":"Point","coordinates":[116.65104641797032,39.99839228070229]},"properties":{"full_address":"北京市通州区宋庄镇格拉斯小镇七期工地宿舍"}},{"type":"Feature","geometry":{"type":"Point","coordinates":[116.69141811765829,39.976327052108076]},"properties":{"full_address":"北京市通州区宋庄镇沟渠庄村54号"}},{"type":"Feature","geometry":{"type":"Point","coordinates":[116.69141811765829,39.976327052108076]},"properties":{"full_address":"北京市通州区宋庄镇沟渠庄村62号"}},{"type":"Feature","geometry":{"type":"Point","coordinates":[116.69141811765829,39.976327052108076]},"properties":{"full_address":"北京市通州区宋庄镇沟渠庄村94号"}},{"type":"Feature","geometry":{"type":"Point","coordinates":[116.69141811765829,39.976327052108076]},"properties":{"full_address":"北京市通州区宋庄镇沟渠庄村旧货市场"}},{"type":"Feature","geometry":{"type":"Point","coordinates":[116.69141811765829,39.976327052108076]},"properties":{"full_address":"北京市通州区宋庄镇沟渠庄村临1号"}},{"type":"Feature","geometry":{"type":"Point","coordinates":[116.75495431312044,39.999884640569114]},"properties":{"full_address":"北京市通州区宋庄镇关辛庄21号"}},{"type":"Feature","geometry":{"type":"Point","coordinates":[116.6146176092492,40.022702687582004]},"properties":{"full_address":"北京市通州区宋庄镇管头村144号"}},{"type":"Feature","geometry":{"type":"Point","coordinates":[116.72744013733286,39.94099010009696]},"properties":{"full_address":"北京市通州区宋庄镇后夏村派酒店"}},{"type":"Feature","geometry":{"type":"Point","coordinates":[116.7340729799481,39.941281865237606]},"properties":{"full_address":"北京市通州区宋庄镇后夏公庄103号"}},{"type":"Feature","geometry":{"type":"Point","coordinates":[116.7340729799481,39.941281865237606]},"properties":{"full_address":"北京市通州区宋庄镇后夏公庄108号"}},{"type":"Feature","geometry":{"type":"Point","coordinates":[116.7340729799481,39.941281865237606]},"properties":{"full_address":"北京市通州区宋庄镇后夏公庄村206号"}},{"type":"Feature","geometry":{"type":"Point","coordinates":[116.7340729799481,39.941281865237606]},"properties":{"full_address":"北京市通州区宋庄镇后夏公庄泰隆公寓"}},{"type":"Feature","geometry":{"type":"Point","coordinates":[116.65634830170428,39.98740833878261]},"properties":{"full_address":"北京市通州区宋庄镇汇天网络"}},{"type":"Feature","geometry":{"type":"Point","coordinates":[116.72744013733286,39.94099010009696]},"properties":{"full_address":"北京市通州区宋庄镇喇嘛74乙"}},{"type":"Feature","geometry":{"type":"Point","coordinates":[116.73370795582274,39.95904745137228]},"properties":{"full_address":"北京市通州区宋庄镇喇嘛村金三角公寓"}},{"type":"Feature","geometry":{"type":"Point","coordinates":[116.73710026101747,39.96060277113236]},"properties":{"full_address":"北京市通州区宋庄镇喇嘛庄村金锋公寓"}},{"type":"Feature","geometry":{"type":"Point","coordinates":[116.69887021359409,40.0062910813006]},"properties":{"full_address":"北京市通州区宋庄镇内军庄村129号"}},{"type":"Feature","geometry":{"type":"Point","coordinates":[116.69887021359409,40.0062910813006]},"properties":{"full_address":"北京市通州区宋庄镇内军庄村12号"}},{"type":"Feature","geometry":{"type":"Point","coordinates":[116.69887021359409,40.0062910813006]},"properties":{"full_address":"北京市通州区宋庄镇内军庄村204号"}},{"type":"Feature","geometry":{"type":"Point","coordinates":[116.69887021359409,40.0062910813006]},"properties":{"full_address":"北京市通州区宋庄镇内军庄村218号"}},{"type":"Feature","geometry":{"type":"Point","coordinates":[116.69887021359409,40.0062910813006]},"properties":{"full_address":"北京市通州区宋庄镇内军庄村320号"}},{"type":"Feature","geometry":{"type":"Point","coordinates":[116.69887021359409,40.0062910813006]},"properties":{"full_address":"北京市通州区宋庄镇内军庄村3号"}},{"type":"Feature","geometry":{"type":"Point","coordinates":[116.73226007242484,40.01496017234502]},"properties":{"full_address":"北京市通州区宋庄镇平家疃村3区98号"}},{"type":"Feature","geometry":{"type":"Point","coordinates":[116.72744013733286,39.94099010009696]},"properties":{"full_address":"北京市通州区宋庄镇前夏64号"}},{"type":"Feature","geometry":{"type":"Point","coordinates":[116.74927405309597,39.94830315227293]},"properties":{"full_address":"北京市通州区宋庄镇任庄村103号"}},{"type":"Feature","geometry":{"type":"Point","coordinates":[116.76279148141289,39.91616974077015]},"properties":{"full_address":"北京市通州区宋庄镇师姑庄村288号"}},{"type":"Feature","geometry":{"type":"Point","coordinates":[116.76279148141289,39.91616974077015]},"properties":{"full_address":"北京市通州区宋庄镇师姑庄村533号"}},{"type":"Feature","geometry":{"type":"Point","coordinates":[116.69017949592049,39.970284246191575]},"properties":{"full_address":"北京市通州区宋庄镇双埠头村181号"}},