{"type":"FeatureCollection","features":[{"type":"Feature","geometry":{"type":"Point","coordinates":[117.226801,39.172253]},"properties":{"full_address":"天津市市辖区河北区建昌道街中山北里20门"}},{"type":"Feature","geometry":{"type":"Point","coordinates":[117.218164,39.140904]},"properties":{"full_address":"天津市市辖区河东区春华街道月光园2号楼."}},{"type":"Feature","geometry":{"type":"Point","coordinates":[116.367665,40.03222]},"properties":{"full_address":"北京市市辖区丰台区玉泉营街道万柳园社区"}},{"type":"Feature","geometry":{"type":"Point","coordinates":[127.528786,50.232166]},"properties":{"full_address":"黑龙江省黑河市爱辉区喇嘛台社区荣耀世纪小区4号楼"}},{"type":"Feature","geometry":{"type":"Point","coordinates":[127.530319,50.240168]},"properties":{"full_address":"黑龙江省黑河市爱辉区武庙屯社区警官名苑小区B栋"}},{"type":"Feature","geometry":{"type":"Point","coordinates":[127.476396,50.253352]},"properties":{"full_address":"黑龙江省黑河市爱辉区向阳社区水岸阳光小区9号楼"}},{"type":"Feature","geometry":{"type":"Point","coordinates":[127.497957,50.252053]},"properties":{"full_address":"黑龙江省黑河市爱辉区鹿源春社区金达之家小区中房49号楼"}},{"type":"Feature","geometry":{"type":"Point","coordinates":[127.529177,50.232449]},"properties":{"full_address":"黑龙江省黑河市爱辉区武庙屯社区之路佳苑小区4号楼"}},{"type":"Feature","geometry":{"type":"Point","coordinates":[113.931278,22.674942]},"properties":{"full_address":"广东省深圳市宝安区石岩街道罗租社区下新村十四巷4号"}},{"type":"Feature","geometry":{"type":"Point","coordinates":[113.805714,22.716632]},"properties":{"full_address":"广东省深圳市宝安区十五巷4号"}},{"type":"Feature","geometry":{"type":"Point","coordinates":[113.932934,22.674502]},"properties":{"full_address":"广东省深圳市宝安区石岩街道浪心南路3号楼"}},{"type":"Feature","geometry":{"type":"Point","coordinates":[113.930824,22.674692]},"properties":{"full_address":"广东省深圳市宝安区宝石南路94号"}},{"type":"Feature","geometry":{"type":"Point","coordinates":[106.615374,23.32345]},"properties":{"full_address":"广西壮族自治区百色市德保县维也纳国际酒店（德保腾飞广场店）"}},{"type":"Feature","geometry":{"type":"Point","coordinates":[106.428484,23.270124]},"properties":{"full_address":"广西壮族自治区百色市靖西市武平镇大道街大定屯"}},{"type":"Feature","geometry":{"type":"Point","coordinates":[106.396655,23.29751]},"properties":{"full_address":"广西壮族自治区百色市靖西市弄贴村新村屯"}},{"type":"Feature","geometry":{"type":"Point","coordinates":[120.344907,40.319465]},"properties":{"full_address":"辽宁省葫芦岛市绥中县绥中镇工人社区盛华园二期"}},{"type":"Feature","geometry":{"type":"Point","coordinates":[120.632712,30.90228]},"properties":{"full_address":"江苏省苏州市吴江区盛泽镇绿洲华庭小区41栋"}},{"type":"Feature","geometry":{"type":"Point","coordinates":[120.682938,31.268953]},"properties":{"full_address":"江苏省苏州市吴中区郭巷街道独墅湖西金悦花园一期19幢"}},{"type":"Feature","geometry":{"type":"Point","coordinates":[120.53875,31.2645]},"properties":{"full_address":"江苏省苏州市吴中区木渎镇沈巷村47～69号"}},{"type":"Feature","geometry":{"type":"Point","coordinates":[120.60628,31.269901]},"properties":{"full_address":"江苏省苏州市姑苏区天辰花园小区18幢"}},{"type":"Feature","geometry":{"type":"Point","coordinates":[120.731302,31.312094]},"properties":{"full_address":"江苏省苏州市吴中区工业园区东湖大郡花园二期22幢"}},{"type":"Feature","geometry":{"type":"Point","coordinates":[120.732199,31.317205]},"properties":{"full_address":"江苏省苏州市吴中区东城郡115幢"}}]}