{"type":"FeatureCollection","features":[{"type":"Feature","geometry":{"type":"Point","coordinates":[116.538804,39.90593]},"properties":{"full_address":"北京市朝阳区高碑店（地区）乡高碑店东区 B14 栋、B16 栋"}},{"type":"Feature","geometry":{"type":"Point","coordinates":[116.385178,40.003286]},"properties":{"full_address":"北京市朝阳区奥运村街道中国科学院地理科学与资源研究所（大屯路甲 11 号）A 座、B 座、C 座、D 座"}},{"type":"Feature","geometry":{"type":"Point","coordinates":[116.379948,39.99639]},"properties":{"full_address":"北京市朝阳区奥运村街道科学园南里 6 区 603 号楼"}},{"type":"Feature","geometry":{"type":"Point","coordinates":[116.286662,40.011541]},"properties":{"full_address":"北京市海淀区青龙桥街道骚子营社区圆明园西路51号院1、2号楼除外区域"}},{"type":"Feature","geometry":{"type":"Point","coordinates":[117.202282,39.122139]},"properties":{"full_address":"天津市天津市和平区劝业场街河南路河南里1、2、4-15号、河北路180号"}},{"type":"Feature","geometry":{"type":"Point","coordinates":[117.201846,39.116089]},"properties":{"full_address":"天津市天津市和平区五大道街诚基经贸中心二号楼"}},{"type":"Feature","geometry":{"type":"Point","coordinates":[117.201012,39.116455]},"properties":{"full_address":"天津市天津市和平区五大道街诚基经贸中心三号楼（除按照防控方案判定为需要集中隔离的高风险人员居住区域外）"}},{"type":"Feature","geometry":{"type":"Point","coordinates":[117.274514,39.14963]},"properties":{"full_address":"天津市天津市河东区鲁山道街道紫玉园30号楼3门、4门"}},{"type":"Feature","geometry":{"type":"Point","coordinates":[117.304814,39.100163]},"properties":{"full_address":"天津市天津市河东区二号桥街道明家庄园小区10号楼"}},{"type":"Feature","geometry":{"type":"Point","coordinates":[117.214218,39.141256]},"properties":{"full_address":"天津市天津市河东区春华街道春华里1号楼1门至3门、7门、8门，2号楼，5号楼，6号楼"}},{"type":"Feature","geometry":{"type":"Point","coordinates":[117.262199,39.087622]},"properties":{"full_address":"天津市天津市河东区富民路街道万隆滨河新苑58号楼3门至7门，59号楼，61号楼，62号楼"}},{"type":"Feature","geometry":{"type":"Point","coordinates":[117.18591,39.080868]},"properties":{"full_address":"天津市天津市河西区天塔街环湖南里13-17门，23-28门"}},{"type":"Feature","geometry":{"type":"Point","coordinates":[117.256365,39.043362]},"properties":{"full_address":"天津市天津市河西区太湖路街云实园9号楼"}},{"type":"Feature","geometry":{"type":"Point","coordinates":[117.220811,39.099676]},"properties":{"full_address":"天津市天津市河西区挂甲寺街景兴西里75-86门"}},{"type":"Feature","geometry":{"type":"Point","coordinates":[117.26939,39.065543]},"properties":{"full_address":"天津市天津市河西区陈塘庄街泰山里79、81、83门"}},{"type":"Feature","geometry":{"type":"Point","coordinates":[117.195138,39.074964]},"properties":{"full_address":"天津市天津市河西区天塔街天资里16、17、18门"}},{"type":"Feature","geometry":{"type":"Point","coordinates":[117.1971,39.070975]},"properties":{"full_address":"天津市天津市河西区天塔街五一阳光尊园3、4、6号楼"}},{"type":"Feature","geometry":{"type":"Point","coordinates":[117.213968,39.096899]},"properties":{"full_address":"天津市天津市河西区越秀路街珠海里除38门外32至41门"}},{"type":"Feature","geometry":{"type":"Point","coordinates":[117.220536,39.077978]},"properties":{"full_address":"天津市天津市河西区友谊路街纯真里60门至63门、81门至84门及小区内存车处"}},{"type":"Feature","geometry":{"type":"Point","coordinates":[117.216804,39.11196]},"properties":{"full_address":"天津市天津市河西区大营门街孚德里6门、7门、8门、9门、10门、12门"}},{"type":"Feature","geometry":{"type":"Point","coordinates":[117.268649,39.076414]},"properties":{"full_address":"天津市天津市河西区柳林街金海湾花园4号楼1门、2门、3门、5门"}},{"type":"Feature","geometry":{"type":"Point","coordinates":[117.228105,39.034134]},"properties":{"full_address":"天津市天津市河西区梅江街天湖园35号楼、36号楼、38号楼、39号楼、40号楼"}},{"type":"Feature","geometry":{"type":"Point","coordinates":[117.136859,39.143386]},"properties":{"full_address":"天津市天津市南开区向阳路街龙富园小区8号楼2门"}},{"type":"Feature","geometry":{"type":"Point","coordinates":[117.154525,39.118668]},"properties":{"full_address":"天津市天津市南开区万兴街三潭东里小区2号楼6门"}},{"type":"Feature","geometry":{"type":"Point","coordinates":[117.18787,39.139427]},"properties":{"full_address":"天津市天津市南开区鼓楼街煦园新居小区1号楼"}},{"type":"Feature","geometry":{"type":"Point","coordinates":[117.164956,39.136282]},"properties":{"full_address":"天津市天津市南开区广开街广林园3号楼"}},{"type":"Feature","geometry":{"type":"Point","coordinates":[117.134246,39.141277]},"properties":{"full_address":"天津市天津市南开区向阳路街怡美家园2号楼"}},{"type":"Feature","geometry":{"type":"Point","coordinates":[117.175999,39.121162]},"properties":{"full_address":"天津市天津市南开区万兴街龙德里1号楼3门"}},{"type":"Feature","geometry":{"type":"Point","coordinates":[117.179076,39.081387]},"properties":{"full_address":"天津市天津市南开区体育中心街阳光花园3号楼、5号楼"}},{"type":"Feature","geometry":{"type":"Point","coordinates":[117.169177,39.127086]},"properties":{"full_address":"天津市天津市南开区兴南街华育里4号楼（除4门外）"}},{"type":"Feature","geometry":{"type":"Point","coordinates":[117.176026,39.083033]},"properties":{"full_address":"天津市天津市南开区体育中心街晨熙公寓3号楼1门、2门"}},{"type":"Feature","geometry":{"type":"Point","coordinates":[117.17845,39.129368]},"properties":{"full_address":"天津市天津市南开区兴南街紫光苑5号楼7门"}},{"type":"Feature","geometry":{"type":"Point","coordinates":[117.151387,39.138814]},"properties":{"full_address":"天津市天津市南开区长虹街宜川北里6号楼（除2门）、7号楼"}},{"type":"Feature","geometry":{"type":"Point","coordinates":[117.130817,39.1458]},"properties":{"full_address":"天津市天津市南开区向阳路街留园里8号楼（除6门）"}},{"type":"Feature","geometry":{"type":"Point","coordinates":[117.222806,39.151117]},"properties":{"full_address":"天津市天津市河北区王串场街道溪波里小区5号楼"}},{"type":"Feature","geometry":{"type":"Point","coordinates":[117.213608,39.184144]},"properties":{"full_address":"天津市天津市河北区铁东路街道贵贤里小区6号楼"}},{"type":"Feature","geometry":{"type":"Point","coordinates":[117.255403,39.164661]},"properties":{"full_address":"天津市天津市河北区月牙河街道开江里小区1号楼（1—4门）以及3号楼、4号楼、5号楼（10—17门）"}},{"type":"Feature","geometry":{"type":"Point","coordinates":[117.160126,39.149105]},"properties":{"full_address":"天津市天津市红桥区芥园街水西园1号楼、8号楼、9号楼、19号楼"}},{"type":"Feature","geometry":{"type":"Point","coordinates":[117.16814,39.145924]},"properties":{"full_address":"天津市天津市红桥区铃铛阁街新春花苑小区10-17门及物业楼"}},{"type":"Feature","geometry":{"type":"Point","coordinates":[117.160862,39.171469]},"properties":{"full_address":"天津市天津市红桥区西于庄街大同门西里1-4门"}},{"type":"Feature","geometry":{"type":"Point","coordinates":[117.1613,39.144505]},"properties":{"full_address":"天津市天津市红桥区铃铛阁街南头窑大楼除高风险区外其他区域"}},{"type":"Feature","geometry":{"type":"Point","coordinates":[117.244248,39.189314]},"properties":{"full_address":"天津市天津市东丽区金钟街鑫泰园小区15号楼"}},{"type":"Feature","geometry":{"type":"Point","coordinates":[117.347883,39.107503]},"properties":{"full_address":"天津市天津市东丽区新立街民航小区7号楼"}},{"type":"Feature","geometry":{"type":"Point","coordinates":[117.298317,39.106596]},"properties":{"full_address":"天津市天津市东丽区万新街嘉春园小区22、26、32、41号楼"}},{"type":"Feature","geometry":{"type":"Point","coordinates":[117.255094,39.137643]},"properties":{"full_address":"天津市天津市东丽区新立街雅筑北苑小区9、10、12号楼"}},{"type":"Feature","geometry":{"type":"Point","coordinates":[117.112742,39.077294]},"properties":{"full_address":"天津市天津市西青区精武镇格调松间北里小区14号楼"}},{"type":"Feature","geometry":{"type":"Point","coordinates":[117.169591,39.054409]},"properties":{"full_address":"天津市天津市西青区李七庄街松江城小区14号楼"}},{"type":"Feature","geometry":{"type":"Point","coordinates":[117.098968,39.029731]},"properties":{"full_address":"天津市天津市西青区精武镇恒益隆庭小区除高风险区之外的其他区域"}},{"type":"Feature","geometry":{"type":"Point","coordinates":[117.146801,39.052525]},"properties":{"full_address":"天津市天津市西青区李七庄街程华欣苑小区除高风险区之外的其他区域"}},{"type":"Feature","geometry":{"type":"Point","coordinates":[117.191092,39.037029]},"properties":{"full_address":"天津市天津市西青区李七庄街育水佳苑小区D区2号楼"}},{"type":"Feature","geometry":{"type":"Point","coordinates":[117.112916,39.127013]},"properties":{"full_address":"天津市天津市西青区津门湖街瀚景园小区4号楼"}},{"type":"Feature","geometry":{"type":"Point","coordinates":[117.195068,39.0656]},"properties":{"full_address":"天津市天津市西青区津门湖街纪明家园1、3、5、8、9、10号楼"}},{"type":"Feature","geometry":{"type":"Point","coordinates":[117.239982,39.020208]},"properties":{"full_address":"天津市天津市西青区大寺镇金泽园小区6号楼"}},{"type":"Feature","geometry":{"type":"Point","coordinates":[117.188974,39.041082]},"properties":{"full_address":"天津市天津市西青区李七庄街梨秀园小区10、11、16、17、22号楼"}},{"type":"Feature","geometry":{"type":"Point","coordinates":[117.183707,39.058006]},"properties":{"full_address":"天津市天津市西青区李七庄街悦雅花园小区A区1、2、3、5号楼和小二楼、B区1号楼、C区1、2、10、13号楼"}},{"type":"Feature","geometry":{"type":"Point","coordinates":[117.134762,39.069901]},"properties":{"full_address":"天津市天津市西青区李七庄街程村学府花园小区2、5号楼"}},{"type":"Feature","geometry":{"type":"Point","coordinates":[117.191092,39.037029]},"properties":{"full_address":"天津市天津市西青区李七庄街万科东第小区36号楼"}},{"type":"Feature","geometry":{"type":"Point","coordinates":[117.176421,39.058056]},"properties":{"full_address":"天津市天津市西青区李七庄街中盛里小区8、9、10、13号楼"}},{"type":"Feature","geometry":{"type":"Point","coordinates":[117.179444,39.056954]},"properties":{"full_address":"天津市天津市西青区李七庄街中发里小区2号楼"}},{"type":"Feature","geometry":{"type":"Point","coordinates":[117.158511,39.053404]},"properties":{"full_address":"天津市天津市西青区李七庄街鹏程里6-11、13-14、16-18号楼"}},{"type":"Feature","geometry":{"type":"Point","coordinates":[117.111384,39.124025]},"properties":{"full_address":"天津市天津市西青区中北镇凯信佳园9-11、14-17号楼"}},{"type":"Feature","geometry":{"type":"Point","coordinates":[117.230502,38.994606]},"properties":{"full_address":"天津市天津市西青区大寺镇福地产业园（除3号楼）"}},{"type":"Feature","geometry":{"type":"Point","coordinates":[117.221013,39.026651]},"properties":{"full_address":"天津市天津市西青区大寺镇欣欣家园（除5、8、10号楼）"}},{"type":"Feature","geometry":{"type":"Point","coordinates":[117.103439,39.130383]},"properties":{"full_address":"天津市天津市西青区中北镇福悦里10号楼"}},{"type":"Feature","geometry":{"type":"Point","coordinates":[117.033452,39.074724]},"properties":{"full_address":"天津市天津市西青区张家窝镇香榭园7、8、10、12号楼"}},{"type":"Feature","geometry":{"type":"Point","coordinates":[117.046217,39.057461]},"properties":{"full_address":"天津市天津市西青区张家窝镇社会山南苑小区（除55号楼）"}},{"type":"Feature","geometry":{"type":"Point","coordinates":[117.026873,39.068946]},"properties":{"full_address":"天津市天津市西青区张家窝镇悦盛里小区（除13号楼）"}},{"type":"Feature","geometry":{"type":"Point","coordinates":[117.238702,39.029835]},"properties":{"full_address":"天津市天津市西青区大寺镇任河里小区1—8号楼、10—13号楼"}},{"type":"Feature","geometry":{"type":"Point","coordinates":[117.2025,39.06375]},"properties":{"full_address":"天津市天津市西青区津门湖街江湾广场小区7、8号楼"}},{"type":"Feature","geometry":{"type":"Point","coordinates":[117.332219,38.93656]},"properties":{"full_address":"天津市天津市津南区八里台镇碧桂园映月庭院12号楼"}},{"type":"Feature","geometry":{"type":"Point","coordinates":[117.29352,39.007185]},"properties":{"full_address":"天津市天津市津南区双新街香薇邸8号楼"}},{"type":"Feature","geometry":{"type":"Point","coordinates":[117.275755,39.024736]},"properties":{"full_address":"天津市天津市津南区双港镇常春藤花园（南区）35号楼"}},{"type":"Feature","geometry":{"type":"Point","coordinates":[117.288777,39.008864]},"properties":{"full_address":"天津市天津市津南区双新街民盛园16号楼"}},{"type":"Feature","geometry":{"type":"Point","coordinates":[117.34553,39.036327]},"properties":{"full_address":"天津市天津市津南区辛庄镇金地艺城悦府16号楼"}},{"type":"Feature","geometry":{"type":"Point","coordinates":[117.270256,39.023686]},"properties":{"full_address":"天津市天津市津南区双港镇红磡领世郡普雅花园达观二期58号楼"}},{"type":"Feature","geometry":{"type":"Point","coordinates":[117.314765,39.048132]},"properties":{"full_address":"天津市天津市津南区双港镇金地格林棕榈苑8号楼"}},{"type":"Feature","geometry":{"type":"Point","coordinates":[117.368904,39.015]},"properties":{"full_address":"天津市天津市津南区咸水沽镇金旭里3号楼"}},{"type":"Feature","geometry":{"type":"Point","coordinates":[117.395749,39.000883]},"properties":{"full_address":"天津市天津市津南区咸水沽镇合安园14号楼、16号楼、18-1号楼、18-2号楼"}},{"type":"Feature","geometry":{"type":"Point","coordinates":[117.343757,38.946914]},"properties":{"full_address":"天津市天津市津南区八里台镇海天社区观雅庭院1号楼2门"}},{"type":"Feature","geometry":{"type":"Point","coordinates":[117.359019,38.908949]},"properties":{"full_address":"天津市天津市津南区八里台镇望湖苑7号楼、8号楼"}},{"type":"Feature","geometry":{"type":"Point","coordinates":[117.293742,39.015158]},"properties":{"full_address":"天津市天津市津南区双新街新景园南区21号楼"}},{"type":"Feature","geometry":{"type":"Point","coordinates":[117.27083,39.03253]},"properties":{"full_address":"天津市天津市津南区双港镇富力桃园天富园10号楼、15号楼"}},{"type":"Feature","geometry":{"type":"Point","coordinates":[117.274263,39.019966]},"properties":{"full_address":"天津市天津市津南区双港镇普泰花园10号楼、12号楼"}},{"type":"Feature","geometry":{"type":"Point","coordinates":[117.290425,39.006473]},"properties":{"full_address":"天津市天津市津南区双新街欣悦佳园14号楼、24号楼"}},{"type":"Feature","geometry":{"type":"Point","coordinates":[117.128284,39.228986]},"properties":{"full_address":"天津市天津市北辰区集贤里街集贤里小区除高风险区外的区域"}},{"type":"Feature","geometry":{"type":"Point","coordinates":[117.132667,39.238322]},"properties":{"full_address":"天津市天津市北辰区北仓镇阳光卡蒂尔社区22、23、24、25、26、27、28、29、30、34、35、36号楼"}},{"type":"Feature","geometry":{"type":"Point","coordinates":[117.176757,39.237543]},"properties":{"full_address":"天津市天津市北辰区小淀镇兰禾嘉苑社区2期4、5、7、9号楼"}},{"type":"Feature","geometry":{"type":"Point","coordinates":[117.132682,39.201016]},"properties":{"full_address":"天津市天津市北辰区双环邨街碧春园第二社区15-20、23、25、26、27号楼"}},{"type":"Feature","geometry":{"type":"Point","coordinates":[117.200262,39.189187]},"properties":{"full_address":"天津市天津市北辰区普东街普东新苑小区1、5、6、8、11、13、23、25、26号楼"}},{"type":"Feature","geometry":{"type":"Point","coordinates":[117.12756,39.230306]},"properties":{"full_address":"天津市天津市北辰区集贤里街拜泉里小区除高风险区外的区域"}},{"type":"Feature","geometry":{"type":"Point","coordinates":[117.188365,39.217077]},"properties":{"full_address":"天津市天津市北辰区普东街秋怡家园小区5、6、8、17号楼"}},{"type":"Feature","geometry":{"type":"Point","coordinates":[117.09261,39.215524]},"properties":{"full_address":"天津市天津市北辰区青（广）源街荣翔园小区除高风险区外的区域"}},{"type":"Feature","geometry":{"type":"Point","coordinates":[117.515189,39.635068]},"properties":{"full_address":"天津市天津市宝坻区林亭口镇大侯庄村南小街1-18号"}},{"type":"Feature","geometry":{"type":"Point","coordinates":[117.596027,39.035442]},"properties":{"full_address":"天津市天津市滨海新区胡家园街道滨悦花园15号楼"}},{"type":"Feature","geometry":{"type":"Point","coordinates":[117.091625,38.973318]},"properties":{"full_address":"天津市天津市静海区华康街道金科天湖北苑小区18、19、30号楼"}},{"type":"Feature","geometry":{"type":"Point","coordinates":[117.401581,40.002894]},"properties":{"full_address":"天津市天津市蓟州区洇溜镇马圈头村3区18号、25-28号、38-39号，4区6-10号、16、22、32号，5区1-7号、14-19号、45-47号，6区1号"}},{"type":"Feature","geometry":{"type":"Point","coordinates":[114.476404,38.026242]},"properties":{"full_address":"河北省石家庄市桥西区东里街道铁路三十四宿舍"}},{"type":"Feature","geometry":{"type":"Point","coordinates":[114.524301,37.964526]},"properties":{"full_address":"河北省石家庄市栾城区楼底镇东尹村"}},{"type":"Feature","geometry":{"type":"Point","coordinates":[114.086939,38.226244]},"properties":{"full_address":"河北省石家庄市平山县东回舍镇郜家庄村"}},{"type":"Feature","geometry":{"type":"Point","coordinates":[114.455563,38.025593]},"properties":{"full_address":"河北省石家庄市新乐市长寿街道集贸市场"}},{"type":"Feature","geometry":{"type":"Point","coordinates":[114.691259,38.337517]},"properties":{"full_address":"河北省石家庄市新乐市长寿街道柏皇超市"}},{"type":"Feature","geometry":{"type":"Point","coordinates":[117.929831,40.975]},"properties":{"full_address":"河北省承德市双桥区潘家沟街道小佟沟自来水家属楼"}},{"type":"Feature","geometry":{"type":"Point","coordinates":[117.961508,41.027604]},"properties":{"full_address":"河北省承德市双桥区汇水湾小区二期19-20号楼"}},{"type":"Feature","geometry":{"type":"Point","coordinates":[117.939315,40.97911]},"properties":{"full_address":"河北省承德市双桥区都统府3号中国人民银行承德市中心支行"}},{"type":"Feature","geometry":{"type":"Point","coordinates":[117.898778,41.016184]},"properties":{"full_address":"河北省承德市双桥区商厦西门竹间居"}},{"type":"Feature","geometry":{"type":"Point","coordinates":[117.942243,40.978426]},"properties":{"full_address":"河北省承德市双桥区东大街18-1号"}},{"type":"Feature","geometry":{"type":"Point","coordinates":[117.937083,40.91237]},"properties":{"full_address":"河北省承德市高新区冯营子镇闫营子村全域"}},{"type":"Feature","geometry":{"type":"Point","coordinates":[117.976906,40.884555]},"properties":{"full_address":"河北省承德市高新区梨花社区阳光四季城银杏苑4号楼1、2单元"}},{"type":"Feature","geometry":{"type":"Point","coordinates":[110.326303,39.432148]},"properties":{"full_address":"内蒙古自治区鄂尔多斯市伊金霍洛旗纳林陶亥镇温家梁一号生活区"}},{"type":"Feature","geometry":{"type":"Point","coordinates":[117.447879,49.591224]},"properties":{"full_address":"内蒙古自治区呼伦贝尔市满洲里市秋林小区"}},{"type":"Feature","geometry":{"type":"Point","coordinates":[117.452477,49.590885]},"properties":{"full_address":"内蒙古自治区呼伦贝尔市满洲里市口岸双子座"}},{"type":"Feature","geometry":{"type":"Point","coordinates":[117.452196,49.594159]},"properties":{"full_address":"内蒙古自治区呼伦贝尔市满洲里市以海关路以西，文明路以东，五道街以北北湖及湖滨花苑小区以南的区域"}},{"type":"Feature","geometry":{"type":"Point","coordinates":[117.452551,49.591678]},"properties":{"full_address":"内蒙古自治区呼伦贝尔市满洲里市旺泉市场及周边商铺"}},{"type":"Feature","geometry":{"type":"Point","coordinates":[117.452477,49.590885]},"properties":{"full_address":"内蒙古自治区呼伦贝尔市满洲里市双子座及周边商铺"}},{"type":"Feature","geometry":{"type":"Point","coordinates":[117.456352,49.580688]},"properties":{"full_address":"内蒙古自治区呼伦贝尔市满洲里市道南三道街东塔平房区"}},{"type":"Feature","geometry":{"type":"Point","coordinates":[117.448004,49.58229]},"properties":{"full_address":"内蒙古自治区呼伦贝尔市满洲里市天桥路尔康花园及周边商铺"}},{"type":"Feature","geometry":{"type":"Point","coordinates":[117.451623,49.576365]},"properties":{"full_address":"内蒙古自治区呼伦贝尔市满洲里市满城新世界A区及周边商铺"}},{"type":"Feature","geometry":{"type":"Point","coordinates":[111.977943,43.65317]},"properties":{"full_address":"内蒙古自治区锡林郭勒盟二连浩特市陈晓品综合楼"}},{"type":"Feature","geometry":{"type":"Point","coordinates":[111.973894,43.64161]},"properties":{"full_address":"内蒙古自治区锡林郭勒盟二连浩特市恐龙大街南、肯特街北、建设路两侧临街商铺及恐龙大街南、建设路西、肯特街北、公安东巷所围区域"}},{"type":"Feature","geometry":{"type":"Point","coordinates":[111.965136,43.670155]},"properties":{"full_address":"内蒙古自治区锡林郭勒盟二连浩特市环宇商贸城"}},{"type":"Feature","geometry":{"type":"Point","coordinates":[123.395598,41.822076]},"properties":{"full_address":"辽宁省沈阳市皇姑区华山街道华乐小区（皇姑区华山路298号）"}},{"type":"Feature","geometry":{"type":"Point","coordinates":[123.39709,41.822355]},"properties":{"full_address":"辽宁省沈阳市皇姑区华山街道优特区小区"}},{"type":"Feature","geometry":{"type":"Point","coordinates":[123.398357,41.805857]},"properties":{"full_address":"辽宁省沈阳市铁西区霁虹街道富云花都小区"}},{"type":"Feature","geometry":{"type":"Point","coordinates":[121.654753,38.884688]},"properties":{"full_address":"辽宁省大连市中山区桃源市场"}},{"type":"Feature","geometry":{"type":"Point","coordinates":[121.647944,38.898413]},"properties":{"full_address":"辽宁省大连市中山区葵英街道友爱街4号"}},{"type":"Feature","geometry":{"type":"Point","coordinates":[121.633829,38.915158]},"properties":{"full_address":"辽宁省大连市中山区青泥洼桥街道五惠路29号（雍容阁）"}},{"type":"Feature","geometry":{"type":"Point","coordinates":[121.697188,38.919973]},"properties":{"full_address":"辽宁省大连市中山区龙湖水晶郦湾2号"}},{"type":"Feature","geometry":{"type":"Point","coordinates":[121.661247,38.887971]},"properties":{"full_address":"辽宁省大连市中山区白云街106号"}},{"type":"Feature","geometry":{"type":"Point","coordinates":[121.673956,38.918651]},"properties":{"full_address":"辽宁省大连市中山区春港街58号"}},{"type":"Feature","geometry":{"type":"Point","coordinates":[121.657268,38.884089]},"properties":{"full_address":"辽宁省大连市中山区桃源街道解放路604号"}},{"type":"Feature","geometry":{"type":"Point","coordinates":[121.657314,38.877626]},"properties":{"full_address":"辽宁省大连市中山区桃源街道安定巷7号"}},{"type":"Feature","geometry":{"type":"Point","coordinates":[121.666401,38.888041]},"properties":{"full_address":"辽宁省大连市中山区桃源街道高洁巷22号"}},{"type":"Feature","geometry":{"type":"Point","coordinates":[121.669557,38.885782]},"properties":{"full_address":"辽宁省大连市中山区桃源街道高原街25号"}},{"type":"Feature","geometry":{"type":"Point","coordinates":[121.658755,38.878664]},"properties":{"full_address":"辽宁省大连市中山区桃源街道桃仙街41号"}},{"type":"Feature","geometry":{"type":"Point","coordinates":[121.662406,38.878827]},"properties":{"full_address":"辽宁省大连市中山区桃源街道清溪南街180号"}},{"type":"Feature","geometry":{"type":"Point","coordinates":[121.647187,38.908017]},"properties":{"full_address":"辽宁省大连市中山区葵英街道武昌街15号"}},{"type":"Feature","geometry":{"type":"Point","coordinates":[121.648568,38.899956]},"properties":{"full_address":"辽宁省大连市中山区葵英街道新建巷33号"}},{"type":"Feature","geometry":{"type":"Point","coordinates":[121.648859,38.890223]},"properties":{"full_address":"辽宁省大连市中山区葵英街道保卫巷40号"}},{"type":"Feature","geometry":{"type":"Point","coordinates":[121.656143,38.887816]},"properties":{"full_address":"辽宁省大连市中山区桃源街道山海巷（6号、9号、26号、38号）"}},{"type":"Feature","geometry":{"type":"Point","coordinates":[121.667305,38.884114]},"properties":{"full_address":"辽宁省大连市中山区桃源街道高寿街38号"}},{"type":"Feature","geometry":{"type":"Point","coordinates":[121.670564,38.886261]},"properties":{"full_address":"辽宁省大连市中山区桃源街道高原街（16、24、50、56号）"}},{"type":"Feature","geometry":{"type":"Point","coordinates":[121.689013,38.887313]},"properties":{"full_address":"辽宁省大连市中山区老虎滩街道碧浪园小区（85、90号）"}},{"type":"Feature","geometry":{"type":"Point","coordinates":[121.675196,38.891837]},"properties":{"full_address":"辽宁省大连市中山区老虎滩街中南路（136、138、158、230号）"}},{"type":"Feature","geometry":{"type":"Point","coordinates":[121.622178,38.892283]},"properties":{"full_address":"辽宁省大连市西岗区新石道街28A"}},{"type":"Feature","geometry":{"type":"Point","coordinates":[121.610432,38.923249]},"properties":{"full_address":"辽宁省大连市西岗区北岗街59号"}},{"type":"Feature","geometry":{"type":"Point","coordinates":[121.641937,38.888619]},"properties":{"full_address":"辽宁省大连市西岗区八一路街道桃花源小区40号"}},{"type":"Feature","geometry":{"type":"Point","coordinates":[121.645082,38.882907]},"properties":{"full_address":"辽宁省大连市西岗区八一路街道河园社区杏环街50号"}},{"type":"Feature","geometry":{"type":"Point","coordinates":[121.621519,38.888597]},"properties":{"full_address":"辽宁省大连市西岗区白云街道迎春社区南石巷60号"}},{"type":"Feature","geometry":{"type":"Point","coordinates":[121.599747,38.93267]},"properties":{"full_address":"辽宁省大连市西岗区香炉礁街道工人村社区香周路55号"}},{"type":"Feature","geometry":{"type":"Point","coordinates":[121.637502,38.928468]},"properties":{"full_address":"辽宁省大连市西岗区日新街道宁海街13号"}},{"type":"Feature","geometry":{"type":"Point","coordinates":[121.636968,38.881592]},"properties":{"full_address":"辽宁省大连市西岗区八一路街道八一路220号（2、6号楼）"}},{"type":"Feature","geometry":{"type":"Point","coordinates":[121.635726,38.888158]},"properties":{"full_address":"辽宁省大连市西岗区八一路街道新田巷23号"}},{"type":"Feature","geometry":{"type":"Point","coordinates":[121.593,38.937661]},"properties":{"full_address":"辽宁省大连市西岗区香炉礁街道金海社区香水湾5号"}},{"type":"Feature","geometry":{"type":"Point","coordinates":[121.588191,38.929745]},"properties":{"full_address":"辽宁省大连市沙河口区香工街46号"}},{"type":"Feature","geometry":{"type":"Point","coordinates":[121.590772,38.920875]},"properties":{"full_address":"辽宁省大连市沙河口区新长兴市场及长兴华庭小区（西安路-鞍山路-抚顺街-三春街合围区域）"}},{"type":"Feature","geometry":{"type":"Point","coordinates":[121.593028,38.918609]},"properties":{"full_address":"辽宁省大连市沙河口区兆达和谐苑（抚顺街-三春街-连胜街-兆达和谐苑南侧无名路合围区域）"}},{"type":"Feature","geometry":{"type":"Point","coordinates":[121.545689,38.94042]},"properties":{"full_address":"辽宁省大连市沙河口区李家街道锦霞南园（14、15号）"}},{"type":"Feature","geometry":{"type":"Point","coordinates":[121.584679,38.917397]},"properties":{"full_address":"辽宁省大连市沙河口区西安路街道兴盛社区尚品天城B区（兴工南五街21、25、27、31号，中长东四街51号，兴工街20、22号，中长街80、86号及其合围区域）"}},{"type":"Feature","geometry":{"type":"Point","coordinates":[121.587069,38.918002]},"properties":{"full_address":"辽宁省大连市沙河口区西安路街道兴盛社区兴工街10号（福佳新天地F座）"}},{"type":"Feature","geometry":{"type":"Point","coordinates":[121.586611,38.892331]},"properties":{"full_address":"辽宁省大连市沙河口区星海湾街道星河二街25号凯泰铭座"}},{"type":"Feature","geometry":{"type":"Point","coordinates":[121.592384,38.886686]},"properties":{"full_address":"辽宁省大连市沙河口区星海湾街道星海广场F区8号楼星海大观A栋"}},{"type":"Feature","geometry":{"type":"Point","coordinates":[121.392633,38.993796]},"properties":{"full_address":"辽宁省大连市甘井子区营城子村营城子一队平房大院"}},{"type":"Feature","geometry":{"type":"Point","coordinates":[121.41756,39.00448]},"properties":{"full_address":"辽宁省大连市甘井子区营城子街道沙岗子村境港幼儿园旁平房大院"}},{"type":"Feature","geometry":{"type":"Point","coordinates":[121.714635,39.02791]},"properties":{"full_address":"辽宁省大连市甘井子区大连湾街道丽湾海景10号"}},{"type":"Feature","geometry":{"type":"Point","coordinates":[121.413066,39.000941]},"properties":{"full_address":"辽宁省大连市甘井子区沙岗子村恒馨商店后平房大院"}},{"type":"Feature","geometry":{"type":"Point","coordinates":[121.452088,38.978181]},"properties":{"full_address":"辽宁省大连市甘井子区辛寨子街道亿达春田晴湾8号"}},{"type":"Feature","geometry":{"type":"Point","coordinates":[122.383839,39.483139]},"properties":{"full_address":"辽宁省大连市普兰店区大谭街道曲店44号和47号"}},{"type":"Feature","geometry":{"type":"Point","coordinates":[121.984033,39.380231]},"properties":{"full_address":"辽宁省大连市普兰店区莲山街道水门社区水门后队170号"}},{"type":"Feature","geometry":{"type":"Point","coordinates":[121.513796,38.851091]},"properties":{"full_address":"辽宁省大连市高新区凌水街道任贤街18号"}},{"type":"Feature","geometry":{"type":"Point","coordinates":[123.238136,40.346749]},"properties":{"full_address":"辽宁省鞍山市岫岩满族自治县兴隆街道办事处五道河村"}},{"type":"Feature","geometry":{"type":"Point","coordinates":[123.282514,40.296864]},"properties":{"full_address":"辽宁省鞍山市岫岩满族自治县阜昌街道办事处水岸豪庭小区"}},{"type":"Feature","geometry":{"type":"Point","coordinates":[123.760926,41.333371]},"properties":{"full_address":"辽宁省本溪市溪湖区河东街道井泉社区居仁路25#、27#楼"}},{"type":"Feature","geometry":{"type":"Point","coordinates":[123.778488,41.322227]},"properties":{"full_address":"辽宁省本溪市溪湖区河东街道河沿社区河畔花园115-7栋"}},{"type":"Feature","geometry":{"type":"Point","coordinates":[123.739935,41.301685]},"properties":{"full_address":"辽宁省本溪市溪湖区彩屯街道彩进小区（除14#、15#、16#、17#楼外）"}},{"type":"Feature","geometry":{"type":"Point","coordinates":[123.736869,41.304859]},"properties":{"full_address":"辽宁省本溪市溪湖区彩屯街道彩力小区"}},{"type":"Feature","geometry":{"type":"Point","coordinates":[123.740049,41.299585]},"properties":{"full_address":"辽宁省本溪市溪湖区彩屯街道彩发小区10#楼"}},{"type":"Feature","geometry":{"type":"Point","coordinates":[123.778488,41.322227]},"properties":{"full_address":"辽宁省本溪市溪湖区河东街道河沿社区河畔花园115-6栋"}},{"type":"Feature","geometry":{"type":"Point","coordinates":[123.74785,41.303835]},"properties":{"full_address":"辽宁省本溪市溪湖区彩屯街道华南社区溪彩路14栋、14-1栋"}},{"type":"Feature","geometry":{"type":"Point","coordinates":[122.379615,40.678087]},"properties":{"full_address":"辽宁省营口市老边区老边街道办事处真实惠超市"}},{"type":"Feature","geometry":{"type":"Point","coordinates":[122.380153,40.67888]},"properties":{"full_address":"辽宁省营口市老边区老边街道办事处昊缘宾馆"}},{"type":"Feature","geometry":{"type":"Point","coordinates":[122.376765,40.675778]},"properties":{"full_address":"辽宁省营口市老边区老边街道办事处不起眼儿风味烤鱼店"}},{"type":"Feature","geometry":{"type":"Point","coordinates":[123.86187,42.294819]},"properties":{"full_address":"辽宁省铁岭市银州区平安社区（龙园街7号、龙园街9号、龙园街11号、龙园街13号、龙园街13-1、龙园街13-2、龙园街13-3、龙园街13-4、龙园街13-5、龙园街15号、龙园街15-1、龙园街15-2、龙园街41号、南马路63-5、南马路63-7）"}},{"type":"Feature","geometry":{"type":"Point","coordinates":[125.319737,43.953469]},"properties":{"full_address":"吉林省长春市宽城区万龙第十城川天椒麻辣烫"}},{"type":"Feature","geometry":{"type":"Point","coordinates":[125.363267,43.814865]},"properties":{"full_address":"吉林省长春市宽城区柳影街道坛子李地摊烤肉"}},{"type":"Feature","geometry":{"type":"Point","coordinates":[125.439493,43.808358]},"properties":{"full_address":"吉林省长春市净月区福祉街道中信城枫丹白露一期25栋"}},{"type":"Feature","geometry":{"type":"Point","coordinates":[125.360833,43.82144]},"properties":{"full_address":"吉林省长春市净月区彩织街道中海水岸春城B21栋"}},{"type":"Feature","geometry":{"type":"Point","coordinates":[125.241342,43.86551]},"properties":{"full_address":"吉林省长春市汽车经济技术开发区保利拉菲公馆C5栋"}},{"type":"Feature","geometry":{"type":"Point","coordinates":[125.15528,43.823332]},"properties":{"full_address":"吉林省长春市汽车经济技术开发区多恩海棠湾12栋"}},{"type":"Feature","geometry":{"type":"Point","coordinates":[125.393737,43.868663]},"properties":{"full_address":"吉林省长春市经开区世纪街道化油器宿舍"}},{"type":"Feature","geometry":{"type":"Point","coordinates":[125.407876,43.875386]},"properties":{"full_address":"吉林省长春市经开区东方广场街道喜惠万家生活超市"}},{"type":"Feature","geometry":{"type":"Point","coordinates":[125.276452,43.911]},"properties":{"full_address":"吉林省长春市经开区东方广场街道洋浦生鲜超市"}},{"type":"Feature","geometry":{"type":"Point","coordinates":[125.266428,43.872727]},"properties":{"full_address":"吉林省长春市经开区东方广场街道果叔（泉州北街店）"}},{"type":"Feature","geometry":{"type":"Point","coordinates":[125.42322,43.87903]},"properties":{"full_address":"吉林省长春市经开区东方广场街道欧亚万豪店"}},{"type":"Feature","geometry":{"type":"Point","coordinates":[125.420713,43.875099]},"properties":{"full_address":"吉林省长春市经开区世纪街道松柏超市（嘉惠红树湾店）"}},{"type":"Feature","geometry":{"type":"Point","coordinates":[125.371034,43.933682]},"properties":{"full_address":"吉林省长春市经开区世纪街道春妮粥铺"}},{"type":"Feature","geometry":{"type":"Point","coordinates":[125.393757,43.86282]},"properties":{"full_address":"吉林省长春市经开区会展街道中东大市场千派家具（15号门对面）"}},{"type":"Feature","geometry":{"type":"Point","coordinates":[125.57503,43.851007]},"properties":{"full_address":"吉林省长春市莲花山生态旅游度假区泉眼镇幸福家园小区2栋"}},{"type":"Feature","geometry":{"type":"Point","coordinates":[126.542383,45.722659]},"properties":{"full_address":"黑龙江省哈尔滨市道里区三松宜家小区8号楼"}},{"type":"Feature","geometry":{"type":"Point","coordinates":[126.574951,45.729306]},"properties":{"full_address":"黑龙江省哈尔滨市道里区工农大街423号晓团圆有机厨房"}},{"type":"Feature","geometry":{"type":"Point","coordinates":[126.624052,45.76889]},"properties":{"full_address":"黑龙江省哈尔滨市道里区河润街7号中国联通哈尔滨分公司河图分局办公楼及后院"}},{"type":"Feature","geometry":{"type":"Point","coordinates":[126.574062,45.735113]},"properties":{"full_address":"黑龙江省哈尔滨市道里区天鹅湾赫郡小区（除4号楼）"}},{"type":"Feature","geometry":{"type":"Point","coordinates":[126.568638,45.724379]},"properties":{"full_address":"黑龙江省哈尔滨市道里区工农大街118-1号迦南宾馆"}},{"type":"Feature","geometry":{"type":"Point","coordinates":[126.571231,45.724102]},"properties":{"full_address":"黑龙江省哈尔滨市道里区润园翡翠城小区（除B1、B2号楼、回迁楼外）"}},{"type":"Feature","geometry":{"type":"Point","coordinates":[126.571905,45.727289]},"properties":{"full_address":"黑龙江省哈尔滨市道里区工农大街501号祥合居品质菜馆"}},{"type":"Feature","geometry":{"type":"Point","coordinates":[126.54307,45.700612]},"properties":{"full_address":"黑龙江省哈尔滨市道里区机场路国际汽车城二手车交易市场A区"}},{"type":"Feature","geometry":{"type":"Point","coordinates":[126.600871,45.749566]},"properties":{"full_address":"黑龙江省哈尔滨市道里区恒大天地人和小区（除G10栋）"}},{"type":"Feature","geometry":{"type":"Point","coordinates":[126.599076,45.737173]},"properties":{"full_address":"黑龙江省哈尔滨市道里区宝宇荣耀天地D栋"}},{"type":"Feature","geometry":{"type":"Point","coordinates":[126.58055,45.734268]},"properties":{"full_address":"黑龙江省哈尔滨市道里区美晨家园小区牡丹园1、2、4号楼，美园1、2、3号楼，丽园1、2-3、4号楼，玫瑰园2号楼合围区域"}},{"type":"Feature","geometry":{"type":"Point","coordinates":[126.534299,45.70671]},"properties":{"full_address":"黑龙江省哈尔滨市道里区群力家园小区A区（除4号楼外）"}},{"type":"Feature","geometry":{"type":"Point","coordinates":[126.590341,45.747341]},"properties":{"full_address":"黑龙江省哈尔滨市道里区锦江绿色家园小区（除8号楼外）"}},{"type":"Feature","geometry":{"type":"Point","coordinates":[126.557716,45.729472]},"properties":{"full_address":"黑龙江省哈尔滨市道里区海富第五大道小区哈林区6栋、20栋、21栋合围区域"}},{"type":"Feature","geometry":{"type":"Point","coordinates":[126.646971,45.760754]},"properties":{"full_address":"黑龙江省哈尔滨市南岗区东大直街318号中国工商银行"}},{"type":"Feature","geometry":{"type":"Point","coordinates":[126.690551,45.754503]},"properties":{"full_address":"黑龙江省哈尔滨市南岗区吉星商住城1号楼"}},{"type":"Feature","geometry":{"type":"Point","coordinates":[126.608919,45.721211]},"properties":{"full_address":"黑龙江省哈尔滨市南岗区凯德广场（学府路店）"}},{"type":"Feature","geometry":{"type":"Point","coordinates":[126.646811,45.755438]},"properties":{"full_address":"黑龙江省哈尔滨市南岗区红军街、马家街、建设街与河沟街合围区域（除红军街15号联通大厦写字楼外）"}},{"type":"Feature","geometry":{"type":"Point","coordinates":[126.692965,45.747574]},"properties":{"full_address":"黑龙江省哈尔滨市南岗区千山路29号李奎炖肉馆"}},{"type":"Feature","geometry":{"type":"Point","coordinates":[126.630778,45.700671]},"properties":{"full_address":"黑龙江省哈尔滨市南岗区金博花园小区203栋"}},{"type":"Feature","geometry":{"type":"Point","coordinates":[126.627943,45.729986]},"properties":{"full_address":"黑龙江省哈尔滨市南岗区北鸿花园小区（除B栋、G栋、A栋、N栋与C栋合围区域住宅楼）"}},{"type":"Feature","geometry":{"type":"Point","coordinates":[126.665066,45.750306]},"properties":{"full_address":"黑龙江省哈尔滨市南岗区文昌街59号哈尔滨银行松雷支行"}},{"type":"Feature","geometry":{"type":"Point","coordinates":[126.984381,45.540617]},"properties":{"full_address":"黑龙江省哈尔滨市南岗区印象城小区1栋、2栋、3栋、4栋、5栋"}},{"type":"Feature","geometry":{"type":"Point","coordinates":[126.698487,45.757621]},"properties":{"full_address":"黑龙江省哈尔滨市南岗区红博中央公园食林F区01-02号杭点局-点心葱油面"}},{"type":"Feature","geometry":{"type":"Point","coordinates":[126.657571,45.768596]},"properties":{"full_address":"黑龙江省哈尔滨市南岗区东大直街146号上和置地银座"}},{"type":"Feature","geometry":{"type":"Point","coordinates":[126.625582,45.739596]},"properties":{"full_address":"黑龙江省哈尔滨市南岗区元和街3号和元和街5号居民楼合围区域"}},{"type":"Feature","geometry":{"type":"Point","coordinates":[126.647674,45.755775]},"properties":{"full_address":"黑龙江省哈尔滨市南岗区军街15号联通大厦写字楼"}},{"type":"Feature","geometry":{"type":"Point","coordinates":[126.553719,45.886191]},"properties":{"full_address":"黑龙江省哈尔滨市松北区大都会新天地一期"}},{"type":"Feature","geometry":{"type":"Point","coordinates":[126.55418,45.88782]},"properties":{"full_address":"黑龙江省哈尔滨市松北区大都会新天地二期（除F栋）"}},{"type":"Feature","geometry":{"type":"Point","coordinates":[126.542672,45.814121]},"properties":{"full_address":"黑龙江省哈尔滨市松北区松北大道1号负一层101室华埔超市"}},{"type":"Feature","geometry":{"type":"Point","coordinates":[126.758189,45.722506]},"properties":{"full_address":"黑龙江省哈尔滨市香坊区恒大时代广场一期17号楼"}},{"type":"Feature","geometry":{"type":"Point","coordinates":[126.775568,45.750068]},"properties":{"full_address":"黑龙江省哈尔滨市香坊区会展城上城二期3号楼"}},{"type":"Feature","geometry":{"type":"Point","coordinates":[126.70479,45.729418]},"properties":{"full_address":"黑龙江省哈尔滨市香坊区果园星城小区C区（除C1、C2、C3、C4栋）"}},{"type":"Feature","geometry":{"type":"Point","coordinates":[126.704861,45.72538]},"properties":{"full_address":"黑龙江省哈尔滨市香坊区延福街159号悦惠购超市"}},{"type":"Feature","geometry":{"type":"Point","coordinates":[126.752812,45.730083]},"properties":{"full_address":"黑龙江省哈尔滨市香坊区新香坊路50号哈尔滨博深科技发展有限公司"}},{"type":"Feature","geometry":{"type":"Point","coordinates":[126.764781,45.744622]},"properties":{"full_address":"黑龙江省哈尔滨市香坊区新松茂樾山一期（除2号楼、9号楼）"}},{"type":"Feature","geometry":{"type":"Point","coordinates":[126.685512,45.70284]},"properties":{"full_address":"黑龙江省哈尔滨市香坊区通乡街与松木街交口黄牛村小铝锅烤肉店"}},{"type":"Feature","geometry":{"type":"Point","coordinates":[126.760292,45.715283]},"properties":{"full_address":"黑龙江省哈尔滨市香坊区永泰城一期、二期、三期"}},{"type":"Feature","geometry":{"type":"Point","coordinates":[126.760758,45.716398]},"properties":{"full_address":"黑龙江省哈尔滨市香坊区永泰国际中心LOFT"}},{"type":"Feature","geometry":{"type":"Point","coordinates":[126.680757,45.740053]},"properties":{"full_address":"黑龙江省哈尔滨市香坊区万达广场哈东店（香福路55号）"}},{"type":"Feature","geometry":{"type":"Point","coordinates":[126.760033,45.718944]},"properties":{"full_address":"黑龙江省哈尔滨市香坊区永泰喜来登酒店（香福路63号）"}},{"type":"Feature","geometry":{"type":"Point","coordinates":[126.683123,45.724046]},"properties":{"full_address":"黑龙江省哈尔滨市香坊区川都水煮鱼（香坊大街128号)"}},{"type":"Feature","geometry":{"type":"Point","coordinates":[126.7086,45.727575]},"properties":{"full_address":"黑龙江省哈尔滨市香坊区油坊街、通天街、公滨路、铁路拉滨线合围区域（不含果园小区，司法警官住宅1号楼、2号楼-延福街2号，银行楼-东门街46号，化工楼-东门街48号）"}},{"type":"Feature","geometry":{"type":"Point","coordinates":[126.700532,45.728334]},"properties":{"full_address":"黑龙江省哈尔滨市香坊区油坊街、红旗大街、公滨路、通天街合围区域"}},{"type":"Feature","geometry":{"type":"Point","coordinates":[126.704504,45.738169]},"properties":{"full_address":"黑龙江省哈尔滨市香坊区南直路、公滨路、红旗大街、赣水路、建成街合围区域"}},{"type":"Feature","geometry":{"type":"Point","coordinates":[127.328109,46.640634]},"properties":{"full_address":"黑龙江省哈尔滨市巴彦县天增镇庆胜村其他屯"}},{"type":"Feature","geometry":{"type":"Point","coordinates":[125.138817,46.576997]},"properties":{"full_address":"黑龙江省大庆市萨尔图区（高新区）景程小区"}},{"type":"Feature","geometry":{"type":"Point","coordinates":[125.106441,46.596359]},"properties":{"full_address":"黑龙江省大庆市萨尔图区东风街道东风新村新星小区A组团（不含一区1-14号楼）"}},{"type":"Feature","geometry":{"type":"Point","coordinates":[125.111517,46.601413]},"properties":{"full_address":"黑龙江省大庆市萨尔图区东风街道东风新村新源小区A组团（不含二区2-34号楼）"}},{"type":"Feature","geometry":{"type":"Point","coordinates":[125.12507,46.608666]},"properties":{"full_address":"黑龙江省大庆市萨尔图区绿园街道绿色家园小区（除J04号楼外）"}},{"type":"Feature","geometry":{"type":"Point","coordinates":[125.126452,46.597779]},"properties":{"full_address":"黑龙江省大庆市萨尔图区东安街道塞纳花园小区（除2号楼外）"}},{"type":"Feature","geometry":{"type":"Point","coordinates":[125.12131,46.62044]},"properties":{"full_address":"黑龙江省大庆市萨尔图区格林街道香逸名苑小区三期（除1号楼、2号楼外）"}},{"type":"Feature","geometry":{"type":"Point","coordinates":[125.122598,46.625058]},"properties":{"full_address":"黑龙江省大庆市萨尔图区格林街道唯美主邑小区三期（除4号楼外）"}},{"type":"Feature","geometry":{"type":"Point","coordinates":[125.161004,46.617912]},"properties":{"full_address":"黑龙江省大庆市萨尔图区（高新区）黎明街道博学大街滨州华府小区（除5号楼外）"}},{"type":"Feature","geometry":{"type":"Point","coordinates":[125.112562,46.602968]},"properties":{"full_address":"黑龙江省大庆市萨尔图区东风街道东风新村新源小区F组团6-13号楼、6-14号楼、6-16号楼、6-19号楼、6-20号楼、6-25号楼、6-26号楼、6-28号楼"}},{"type":"Feature","geometry":{"type":"Point","coordinates":[125.122067,46.600862]},"properties":{"full_address":"黑龙江省大庆市萨尔图区东安街道东风新村东安小区B组团（除3-70号楼外）"}},{"type":"Feature","geometry":{"type":"Point","coordinates":[125.111278,46.610325]},"properties":{"full_address":"黑龙江省大庆市萨尔图区绿园街道东风新村北辰小区2-1号楼到2-8号楼（除2-6号楼外）"}},{"type":"Feature","geometry":{"type":"Point","coordinates":[125.122312,46.620644]},"properties":{"full_address":"黑龙江省大庆市萨尔图区格林街道香逸名苑小区一二期（除6号楼外）"}},{"type":"Feature","geometry":{"type":"Point","coordinates":[125.09057,46.758891]},"properties":{"full_address":"黑龙江省大庆市萨尔图区拥军街道春雷种植园全域（一期到五期）"}},{"type":"Feature","geometry":{"type":"Point","coordinates":[125.131313,46.609914]},"properties":{"full_address":"黑龙江省大庆市萨尔图区（高新区）黎明街道学伟大街沿湖城翠江湾B座"}},{"type":"Feature","geometry":{"type":"Point","coordinates":[125.138713,46.581164]},"properties":{"full_address":"黑龙江省大庆市萨尔图区（高新区）黎明街道富民街九区9-70号楼到9-84号楼（除9-75号楼外）"}},{"type":"Feature","geometry":{"type":"Point","coordinates":[125.138713,46.581164]},"properties":{"full_address":"黑龙江省大庆市萨尔图区（高新区）黎明街道富民街九区9-1号楼到9-54号楼（除9-42号楼、9-35号楼、9-04号楼、9-28号楼外）"}},{"type":"Feature","geometry":{"type":"Point","coordinates":[125.134478,46.576088]},"properties":{"full_address":"黑龙江省大庆市萨尔图区（高新区）黎明街道纬二路龙泉小区B栋"}},{"type":"Feature","geometry":{"type":"Point","coordinates":[125.123955,46.580441]},"properties":{"full_address":"黑龙江省大庆市萨尔图区（高新区）黎明街道纬二路水木华庭小区（除1号楼、2号楼、10号楼外）"}},{"type":"Feature","geometry":{"type":"Point","coordinates":[125.129299,46.615453]},"properties":{"full_address":"黑龙江省大庆市萨尔图区绿园街道东方玫瑰园小区（不含2号楼）"}},{"type":"Feature","geometry":{"type":"Point","coordinates":[125.123578,46.592079]},"properties":{"full_address":"黑龙江省大庆市萨尔图区东安街道东安新村三区东安小区（不含3-37B号楼）"}},{"type":"Feature","geometry":{"type":"Point","coordinates":[124.925475,46.62251]},"properties":{"full_address":"黑龙江省大庆市萨尔图区铁人街道奔二小区（不含3-21号楼）"}},{"type":"Feature","geometry":{"type":"Point","coordinates":[125.122598,46.625058]},"properties":{"full_address":"黑龙江省大庆市萨尔图区格林街道唯美主邑小区（不含C08号楼、D01号楼）"}},{"type":"Feature","geometry":{"type":"Point","coordinates":[125.052625,46.670742]},"properties":{"full_address":"黑龙江省大庆市萨尔图区拥军街道绿洲社区（不含1-12号楼、3-10号楼）"}},{"type":"Feature","geometry":{"type":"Point","coordinates":[125.107148,46.604747]},"properties":{"full_address":"黑龙江省大庆市萨尔图区绿园街道书香名邸小区（不含18号楼）"}},{"type":"Feature","geometry":{"type":"Point","coordinates":[125.102462,46.596307]},"properties":{"full_address":"黑龙江省大庆市萨尔图区东风街道新星小区F组团（不含3号楼）"}},{"type":"Feature","geometry":{"type":"Point","coordinates":[125.147252,46.564833]},"properties":{"full_address":"黑龙江省大庆市萨尔图区（高新区）黎明街道龙兴路乾和城小区（不含A1、A3、A7、A32号楼）"}},{"type":"Feature","geometry":{"type":"Point","coordinates":[125.116234,46.586742]},"properties":{"full_address":"黑龙江省大庆市萨尔图区（高新区）黎明街道纬二路悦城馨苑小区（不含3号楼）"}},{"type":"Feature","geometry":{"type":"Point","coordinates":[125.123601,46.589836]},"properties":{"full_address":"黑龙江省大庆市萨尔图区东安街道东风新村庆龙小区（不含A1号楼、C3号楼）"}},{"type":"Feature","geometry":{"type":"Point","coordinates":[125.127805,46.620281]},"properties":{"full_address":"黑龙江省大庆市萨尔图区格林街道格林小镇小区二期（不含A02、A03、B04、B12、B14、C12、C28、E01、E05、E09、E10、E13、E21号楼及B区商服一家美生鲜超市）"}},{"type":"Feature","geometry":{"type":"Point","coordinates":[125.136994,46.57791]},"properties":{"full_address":"黑龙江省大庆市萨尔图区（高新区）黎明街道富民街天贺小区（除10-5号楼、10-10号楼、10-21号楼、10-26号楼、10-28号楼、10-33号楼）"}},{"type":"Feature","geometry":{"type":"Point","coordinates":[125.124334,46.650245]},"properties":{"full_address":"黑龙江省大庆市萨尔图区火炬街道火炬小区（不含2-1号楼）"}},{"type":"Feature","geometry":{"type":"Point","coordinates":[125.121425,46.618231]},"properties":{"full_address":"黑龙江省大庆市萨尔图区格林街道唐宁杰座小区（不含09号楼）"}},{"type":"Feature","geometry":{"type":"Point","coordinates":[125.127594,46.626883]},"properties":{"full_address":"黑龙江省大庆市萨尔图区格林街道兰德华府小区（不含5号楼）"}},{"type":"Feature","geometry":{"type":"Point","coordinates":[125.137134,46.622618]},"properties":{"full_address":"黑龙江省大庆市萨尔图区格林街道时尚印象小区（不含5号楼）"}},{"type":"Feature","geometry":{"type":"Point","coordinates":[125.138713,46.581164]},"properties":{"full_address":"黑龙江省大庆市萨尔图区（高新区）黎明街道富民街九区9-55号楼到9-69号楼（不含9-63号楼、9-68号楼、9-58号楼）"}},{"type":"Feature","geometry":{"type":"Point","coordinates":[125.126266,46.577579]},"properties":{"full_address":"黑龙江省大庆市萨尔图区（高新区）黎明街道东风路维也纳音乐花园南郡（不含A03号楼）"}},{"type":"Feature","geometry":{"type":"Point","coordinates":[125.155326,46.59425]},"properties":{"full_address":"黑龙江省大庆市萨尔图区（高新区）黎明街道博学大街新城御景A区（不含A10号楼）"}},{"type":"Feature","geometry":{"type":"Point","coordinates":[125.16186,46.594789]},"properties":{"full_address":"黑龙江省大庆市萨尔图区（高新区）黎明街道博学大街新城御景B区（不含B01号楼、B13号楼）"}},{"type":"Feature","geometry":{"type":"Point","coordinates":[125.148671,46.577575]},"properties":{"full_address":"黑龙江省大庆市萨尔图区（高新区）黎明街道火炬新街唯美康城（不含11号楼）"}},{"type":"Feature","geometry":{"type":"Point","coordinates":[125.140463,46.633544]},"properties":{"full_address":"黑龙江省大庆市萨尔图区（高新区）黎明街道学伟大街绿地国际城（不含D08号楼）"}},{"type":"Feature","geometry":{"type":"Point","coordinates":[125.151684,46.623451]},"properties":{"full_address":"黑龙江省大庆市萨尔图区（高新区）黎明街道滨湖路堤香花园（不含E17号楼）"}},{"type":"Feature","geometry":{"type":"Point","coordinates":[125.121194,46.614231]},"properties":{"full_address":"黑龙江省大庆市萨尔图区绿园街道兰德湖壹号小区（不含D06号楼、B06号楼、B09号楼、C02号楼、C03号楼、D12号楼)"}},{"type":"Feature","geometry":{"type":"Point","coordinates":[125.111416,46.606798]},"properties":{"full_address":"黑龙江省大庆市萨尔图区绿园街道北辰一区1-44号楼"}},{"type":"Feature","geometry":{"type":"Point","coordinates":[125.10019,46.602059]},"properties":{"full_address":"黑龙江省大庆市萨尔图区东风街道东风新村新星小区E组团内高风险区域以外其他区域"}},{"type":"Feature","geometry":{"type":"Point","coordinates":[125.115627,46.601515]},"properties":{"full_address":"黑龙江省大庆市萨尔图区东风街道东风新村新源小区B组团内高风险区域以外其他区域"}},{"type":"Feature","geometry":{"type":"Point","coordinates":[125.160421,46.61381]},"properties":{"full_address":"黑龙江省大庆市萨尔图区（高新区）黎明街道生态大街新城枫景小区（不含D04号楼）"}},{"type":"Feature","geometry":{"type":"Point","coordinates":[125.161362,46.589081]},"properties":{"full_address":"黑龙江省大庆市萨尔图区（高新区）黎明街道博学大街联想科技城小区（不含B7号楼、C5号楼及周边商服）"}},{"type":"Feature","geometry":{"type":"Point","coordinates":[125.141947,46.557775]},"properties":{"full_address":"黑龙江省大庆市萨尔图区（高新区）黎明街道阳光大街花蔓溪谷小区（不含24号楼）"}},{"type":"Feature","geometry":{"type":"Point","coordinates":[125.167203,46.591491]},"properties":{"full_address":"黑龙江省大庆市萨尔图区（高新区）黎明街道新阳路农大小区（不含11号楼）"}},{"type":"Feature","geometry":{"type":"Point","coordinates":[125.027769,46.601347]},"properties":{"full_address":"黑龙江省大庆市萨尔图区战街道利民苑小区（不含9号楼）"}},{"type":"Feature","geometry":{"type":"Point","coordinates":[125.120165,46.605059]},"properties":{"full_address":"黑龙江省大庆市萨尔图区东安街道安惠小区E组团（不含5-20号楼）"}},{"type":"Feature","geometry":{"type":"Point","coordinates":[125.09476,46.594248]},"properties":{"full_address":"黑龙江省大庆市萨尔图区（高新区）黎明街道新阳路丽都佳苑（不含3号楼、4号楼）"}},{"type":"Feature","geometry":{"type":"Point","coordinates":[124.916647,46.634319]},"properties":{"full_address":"黑龙江省大庆市萨尔图区（高新区）黎明街道新发街兴荣工业园厂房周边围栏以内区域（含厂房西侧办公楼）"}},{"type":"Feature","geometry":{"type":"Point","coordinates":[125.109389,46.548944]},"properties":{"full_address":"黑龙江省大庆市龙凤区三永街道澳龙小区内高风险区域以外其他区域"}},{"type":"Feature","geometry":{"type":"Point","coordinates":[125.125504,46.514835]},"properties":{"full_address":"黑龙江省大庆市龙凤区龙凤街道湿地福苑小区内高风险区域以外其他区域"}},{"type":"Feature","geometry":{"type":"Point","coordinates":[125.144701,46.555263]},"properties":{"full_address":"黑龙江省大庆市龙凤区龙政街道恒大御湖庄园小区内高风险区域以外其他区域"}},{"type":"Feature","geometry":{"type":"Point","coordinates":[125.162068,46.545157]},"properties":{"full_address":"黑龙江省大庆市龙凤区湿地街道欣凤学城三期（除C33号楼和商服92号-118号外）"}},{"type":"Feature","geometry":{"type":"Point","coordinates":[125.162068,46.545157]},"properties":{"full_address":"黑龙江省大庆市龙凤区湿地街道欣凤学城二期（除B11号楼外）"}},{"type":"Feature","geometry":{"type":"Point","coordinates":[125.136816,46.565092]},"properties":{"full_address":"黑龙江省大庆市龙凤区龙政街道唐人中心小区内除高风险区域以外其他区域"}},{"type":"Feature","geometry":{"type":"Point","coordinates":[125.146681,46.54654]},"properties":{"full_address":"黑龙江省大庆市龙凤区湿地街道汇宏悦澜湾小区内除高风险区域以外其他区域"}},{"type":"Feature","geometry":{"type":"Point","coordinates":[125.131461,46.564047]},"properties":{"full_address":"黑龙江省大庆市龙凤区三永街道瀚城星苑2期小区内除高风险区域以外其他区域"}},{"type":"Feature","geometry":{"type":"Point","coordinates":[125.169452,46.545084]},"properties":{"full_address":"黑龙江省大庆市龙凤区湿地街道英伦三岛小区内除高风险区域以外其他区域"}},{"type":"Feature","geometry":{"type":"Point","coordinates":[125.112105,46.530118]},"properties":{"full_address":"黑龙江省大庆市龙凤区龙凤街道厂前北小区内除高风险区域以外其他区域"}},{"type":"Feature","geometry":{"type":"Point","coordinates":[125.143283,46.5507]},"properties":{"full_address":"黑龙江省大庆市龙凤区龙政街道东城领秀D区内高风险区域以外其他区域"}},{"type":"Feature","geometry":{"type":"Point","coordinates":[125.09875,46.55562]},"properties":{"full_address":"黑龙江省大庆市龙凤区三永街道香槟小镇内高风险区域以外其他区域"}},{"type":"Feature","geometry":{"type":"Point","coordinates":[125.114822,46.531264]},"properties":{"full_address":"黑龙江省大庆市龙凤区龙凤镇湖韵新村小区"}},{"type":"Feature","geometry":{"type":"Point","coordinates":[125.064681,46.56098]},"properties":{"full_address":"黑龙江省大庆市龙凤区东光街道东光小区内高风险区域以外其他区域"}},{"type":"Feature","geometry":{"type":"Point","coordinates":[125.037014,46.512401]},"properties":{"full_address":"黑龙江省大庆市龙凤区东光街道光明小区"}},{"type":"Feature","geometry":{"type":"Point","coordinates":[125.187341,46.453799]},"properties":{"full_address":"黑龙江省大庆市龙凤区兴化街道乙烯5区内高风险区域以外其他区域"}},{"type":"Feature","geometry":{"type":"Point","coordinates":[125.162068,46.545157]},"properties":{"full_address":"黑龙江省大庆市龙凤区湿地街道欣凤学城A区内高风险区域以外其他区域"}},{"type":"Feature","geometry":{"type":"Point","coordinates":[125.15375,46.537921]},"properties":{"full_address":"黑龙江省大庆市龙凤区湿地街道聚福园小区内高风险区域以外其他区域"}},{"type":"Feature","geometry":{"type":"Point","coordinates":[125.113822,46.530627]},"properties":{"full_address":"黑龙江省大庆市龙凤区龙凤街道厂前小区内除高风险区域以外其他区域"}},{"type":"Feature","geometry":{"type":"Point","coordinates":[125.124128,46.509297]},"properties":{"full_address":"黑龙江省大庆市龙凤区龙凤镇建兴村陈俭屯、王大愣屯、新立屯全域"}},{"type":"Feature","geometry":{"type":"Point","coordinates":[125.146359,46.528718]},"properties":{"full_address":"黑龙江省大庆市龙凤区龙凤镇铁东村1屯、2屯全域"}},{"type":"Feature","geometry":{"type":"Point","coordinates":[125.126944,46.513354]},"properties":{"full_address":"黑龙江省大庆市龙凤区湿地街道千祥雅苑小区内除高风险区域以外其他区域"}},{"type":"Feature","geometry":{"type":"Point","coordinates":[125.141949,46.559289]},"properties":{"full_address":"黑龙江省大庆市龙凤区龙政街道华溪龙城一期小区内除高风险区域以外其他区域"}},{"type":"Feature","geometry":{"type":"Point","coordinates":[125.137653,46.558003]},"properties":{"full_address":"黑龙江省大庆市龙凤区龙政街道东城领秀B区内除高风险区域以外其他区域"}},{"type":"Feature","geometry":{"type":"Point","coordinates":[125.118714,46.575097]},"properties":{"full_address":"黑龙江省大庆市龙凤区三永街道瀚城名苑内除高风险区域以外其他区域"}},{"type":"Feature","geometry":{"type":"Point","coordinates":[125.120548,46.531279]},"properties":{"full_address":"黑龙江省大庆市龙凤区湿地街道平安家园小区内除高风险区域以外其他区域"}},{"type":"Feature","geometry":{"type":"Point","coordinates":[125.144701,46.555263]},"properties":{"full_address":"黑龙江省大庆市龙凤区龙政街道滨海花园小区内除高风险区域以外其他区域"}},{"type":"Feature","geometry":{"type":"Point","coordinates":[124.883508,46.625946]},"properties":{"full_address":"黑龙江省大庆市让胡路区龙十路、昆仑大街、求实东路、长庆街、西宾路中央南大街合围区域内除高风险区域以外区域"}},{"type":"Feature","geometry":{"type":"Point","coordinates":[124.893148,46.609918]},"properties":{"full_address":"黑龙江省大庆市让胡路区龙南综合批发市场内高风险区域以外其他区域"}},{"type":"Feature","geometry":{"type":"Point","coordinates":[124.877997,46.61625]},"properties":{"full_address":"黑龙江省大庆市让胡路区远望二社区内高风险区域以外其他区域"}},{"type":"Feature","geometry":{"type":"Point","coordinates":[124.894798,46.571456]},"properties":{"full_address":"黑龙江省大庆市让胡路区东湖小区四区内高风险区域以外其他区域"}},{"type":"Feature","geometry":{"type":"Point","coordinates":[124.861066,46.623446]},"properties":{"full_address":"黑龙江省大庆市让胡路区阳光嘉城B区内高风险区域以外其他区域"}},{"type":"Feature","geometry":{"type":"Point","coordinates":[124.886308,46.606904]},"properties":{"full_address":"黑龙江省大庆市让胡路区世纪花园B区内高风险区域以外其他区域"}},{"type":"Feature","geometry":{"type":"Point","coordinates":[124.875731,46.635346]},"properties":{"full_address":"黑龙江省大庆市让胡路区阳光佳苑A区内高风险区域以外其他区域"}},{"type":"Feature","geometry":{"type":"Point","coordinates":[124.894798,46.571456]},"properties":{"full_address":"黑龙江省大庆市让胡路区东湖小区8区内高风险区域以外其他区域"}},{"type":"Feature","geometry":{"type":"Point","coordinates":[124.841585,46.582147]},"properties":{"full_address":"黑龙江省大庆市让胡路区喇嘛甸镇宏伟村内高风险区域以外其他区域"}},{"type":"Feature","geometry":{"type":"Point","coordinates":[124.905906,46.605793]},"properties":{"full_address":"黑龙江省大庆市让胡路区未来城小区内高风险区域以外其他区域"}},{"type":"Feature","geometry":{"type":"Point","coordinates":[124.869397,46.653258]},"properties":{"full_address":"黑龙江省大庆市让胡路区奋斗七区内高风险区域以外其他区域"}},{"type":"Feature","geometry":{"type":"Point","coordinates":[124.906578,46.566555]},"properties":{"full_address":"黑龙江省大庆市让胡路区东湖九区内高风险区域以外其他区域"}},{"type":"Feature","geometry":{"type":"Point","coordinates":[124.917394,46.739235]},"properties":{"full_address":"黑龙江省大庆市让胡路区采油六厂欣欣小区内高风险区域以外其他区域"}},{"type":"Feature","geometry":{"type":"Point","coordinates":[124.894798,46.571456]},"properties":{"full_address":"黑龙江省大庆市让胡路区东湖小区十区内高风险区域以外其他区域"}},{"type":"Feature","geometry":{"type":"Point","coordinates":[124.888458,46.613679]},"properties":{"full_address":"黑龙江省大庆市让胡路区乐园小区内高风险区域以外其他区域"}},{"type":"Feature","geometry":{"type":"Point","coordinates":[124.872483,46.612517]},"properties":{"full_address":"黑龙江省大庆市让胡路区明湖苑小区内高风险区域以外其他区域"}},{"type":"Feature","geometry":{"type":"Point","coordinates":[124.8565,46.63975]},"properties":{"full_address":"黑龙江省大庆市让胡路区学府郦城A区内高风险区域以外其他区域"}},{"type":"Feature","geometry":{"type":"Point","coordinates":[124.853703,46.621259]},"properties":{"full_address":"黑龙江省大庆市让胡路区富强新城J区区域内高风险区域以外其他区域"}},{"type":"Feature","geometry":{"type":"Point","coordinates":[124.887639,46.621169]},"properties":{"full_address":"黑龙江省大庆市让胡路区怡园小区区域内高风险区域以外其他区域"}},{"type":"Feature","geometry":{"type":"Point","coordinates":[125.336404,46.385287]},"properties":{"full_address":"黑龙江省绥化市安达市安达镇胜利村二屯"}},{"type":"Feature","geometry":{"type":"Point","coordinates":[125.277078,46.194319]},"properties":{"full_address":"黑龙江省绥化市安达市安达镇胜利村三屯"}},{"type":"Feature","geometry":{"type":"Point","coordinates":[125.330711,46.402941]},"properties":{"full_address":"黑龙江省绥化市安达市凤凰城小区"}},{"type":"Feature","geometry":{"type":"Point","coordinates":[125.483096,46.565111]},"properties":{"full_address":"黑龙江省绥化市安达市中本镇正本村"}},{"type":"Feature","geometry":{"type":"Point","coordinates":[125.336404,46.385287]},"properties":{"full_address":"黑龙江省绥化市安达市安达镇胜利村二、三屯调整为胜利村"}},{"type":"Feature","geometry":{"type":"Point","coordinates":[125.327339,46.414367]},"properties":{"full_address":"黑龙江省绥化市安达市格林嘉园小区"}},{"type":"Feature","geometry":{"type":"Point","coordinates":[125.597906,46.010688]},"properties":{"full_address":"黑龙江省绥化市肇东市昌五镇政府所在地及原东门村、合心村、东联村、北官房屯、东北官房屯"}},{"type":"Feature","geometry":{"type":"Point","coordinates":[125.674361,46.064486]},"properties":{"full_address":"黑龙江省绥化市肇东市向阳乡曙光村（不含曙光村三队）"}},{"type":"Feature","geometry":{"type":"Point","coordinates":[125.970812,46.063088]},"properties":{"full_address":"黑龙江省绥化市肇东市十五道街幸福庄园小区"}},{"type":"Feature","geometry":{"type":"Point","coordinates":[125.972091,46.062511]},"properties":{"full_address":"黑龙江省绥化市肇东市宏盛丽园小区"}},{"type":"Feature","geometry":{"type":"Point","coordinates":[125.885736,45.706297]},"properties":{"full_address":"黑龙江省绥化市肇东市安民乡佳和商场"}},{"type":"Feature","geometry":{"type":"Point","coordinates":[125.99484,46.063321]},"properties":{"full_address":"黑龙江省绥化市肇东市巴黎花园小区"}},{"type":"Feature","geometry":{"type":"Point","coordinates":[125.792589,45.986763]},"properties":{"full_address":"黑龙江省绥化市肇东市安民乡向阳村王修文屯"}},{"type":"Feature","geometry":{"type":"Point","coordinates":[125.531804,46.110494]},"properties":{"full_address":"黑龙江省绥化市肇东市明久乡政府所在地"}},{"type":"Feature","geometry":{"type":"Point","coordinates":[125.974048,46.061376]},"properties":{"full_address":"黑龙江省绥化市肇东市九道街正阳明珠购物广场"}},{"type":"Feature","geometry":{"type":"Point","coordinates":[125.988171,46.066848]},"properties":{"full_address":"黑龙江省绥化市肇东市九道街长春银行"}},{"type":"Feature","geometry":{"type":"Point","coordinates":[121.397123,31.165575]},"properties":{"full_address":"上海市上海市徐汇区虹梅路街道田林路397号B栋"}},{"type":"Feature","geometry":{"type":"Point","coordinates":[120.85261,32.000014]},"properties":{"full_address":"江苏省南通市崇川区虹桥东村部分区域（北至5幢、南至虹桥路、西至朝霞路西侧沿路店面、东至沿河，除14幢以外区域）"}},{"type":"Feature","geometry":{"type":"Point","coordinates":[120.891789,32.008329]},"properties":{"full_address":"江苏省南通市崇川区荷兰街区域（西至五一路、东至南通职业大学西侧围墙、北至学田南路、南至青年中路）"}},{"type":"Feature","geometry":{"type":"Point","coordinates":[120.893377,32.027149]},"properties":{"full_address":"江苏省南通市崇川区五一路8号"}},{"type":"Feature","geometry":{"type":"Point","coordinates":[120.845361,32.017801]},"properties":{"full_address":"江苏省南通市崇川区三风造型（陈家小园69号楼）"}},{"type":"Feature","geometry":{"type":"Point","coordinates":[120.845418,32.040092]},"properties":{"full_address":"江苏省南通市崇川区美宜佳便利店（聚贤公寓店，桃园路66号2幢101-8号）"}},{"type":"Feature","geometry":{"type":"Point","coordinates":[119.933229,32.491584]},"properties":{"full_address":"江苏省泰州市泰兴市新街镇江苏超悦（卤江南）农业发展有限公司"}},{"type":"Feature","geometry":{"type":"Point","coordinates":[120.222949,32.171036]},"properties":{"full_address":"江苏省泰州市泰兴市元竹镇康梦尔大酒店"}},{"type":"Feature","geometry":{"type":"Point","coordinates":[116.84081,28.248304]},"properties":{"full_address":"江西省鹰潭市余江区邓埠街道西坂村下坂组"}},{"type":"Feature","geometry":{"type":"Point","coordinates":[116.818394,28.223104]},"properties":{"full_address":"江西省鹰潭市余江区水稻原种场安山分场桂家村"}},{"type":"Feature","geometry":{"type":"Point","coordinates":[116.870489,28.20091]},"properties":{"full_address":"江西省鹰潭市余江区水稻原种场食品厂后小区"}},{"type":"Feature","geometry":{"type":"Point","coordinates":[116.822132,28.208842]},"properties":{"full_address":"江西省鹰潭市余江区邓埠街道建设路菜市场"}},{"type":"Feature","geometry":{"type":"Point","coordinates":[117.222391,28.284717]},"properties":{"full_address":"江西省鹰潭市贵溪市东门街道贵电社区阳光豪庭小区（5栋、6栋）"}},{"type":"Feature","geometry":{"type":"Point","coordinates":[117.237455,28.281241]},"properties":{"full_address":"江西省鹰潭市贵溪市花园街道晋兴社区沿河路清水湾（16栋、23栋）"}},{"type":"Feature","geometry":{"type":"Point","coordinates":[117.223417,28.287229]},"properties":{"full_address":"江西省鹰潭市贵溪市东门街道贵电社区阳光花城（11栋、12栋）"}},{"type":"Feature","geometry":{"type":"Point","coordinates":[117.216554,28.284155]},"properties":{"full_address":"江西省鹰潭市贵溪市东门街道筲箕山社区筲箕山菜市场"}},{"type":"Feature","geometry":{"type":"Point","coordinates":[117.224172,28.288766]},"properties":{"full_address":"江西省鹰潭市贵溪市东门街道贵电社区阳光花城（除11栋、12栋）"}},{"type":"Feature","geometry":{"type":"Point","coordinates":[117.214696,28.287539]},"properties":{"full_address":"江西省鹰潭市贵溪市东门街道信江社区石油公司"}},{"type":"Feature","geometry":{"type":"Point","coordinates":[117.221285,28.287311]},"properties":{"full_address":"江西省鹰潭市贵溪市东门街道筲箕山社区御水苑小区"}},{"type":"Feature","geometry":{"type":"Point","coordinates":[117.241065,28.306482]},"properties":{"full_address":"江西省鹰潭市贵溪市花园街道铜城社区铜苑小区"}},{"type":"Feature","geometry":{"type":"Point","coordinates":[117.250632,28.294641]},"properties":{"full_address":"江西省鹰潭市贵溪市花园街道四冶社区3区"}},{"type":"Feature","geometry":{"type":"Point","coordinates":[117.187095,28.285464]},"properties":{"full_address":"江西省鹰潭市贵溪市滨江镇御园小区"}},{"type":"Feature","geometry":{"type":"Point","coordinates":[117.195049,28.305886]},"properties":{"full_address":"江西省鹰潭市贵溪市滨江镇黄坑村塘背组"}},{"type":"Feature","geometry":{"type":"Point","coordinates":[117.238938,28.290104]},"properties":{"full_address":"江西省鹰潭市贵溪市花园街道晋兴社区福润印象城商场"}},{"type":"Feature","geometry":{"type":"Point","coordinates":[117.209849,28.292644]},"properties":{"full_address":"江西省鹰潭市贵溪市东门街道雄石社区新都花苑小区（除1栋、5栋外）"}},{"type":"Feature","geometry":{"type":"Point","coordinates":[117.224703,28.282897]},"properties":{"full_address":"江西省鹰潭市贵溪市东门街道芗溪社区电厂东区（除6栋、13栋、阳光花苑G栋2单元外）"}},{"type":"Feature","geometry":{"type":"Point","coordinates":[117.226447,28.289037]},"properties":{"full_address":"江西省鹰潭市贵溪市东门街道筲箕山社区商场波浪街"}},{"type":"Feature","geometry":{"type":"Point","coordinates":[117.221573,28.273296]},"properties":{"full_address":"江西省鹰潭市贵溪市雄石街道仙桥社区福达家园小区（除瑞景楼外）"}},{"type":"Feature","geometry":{"type":"Point","coordinates":[117.251201,28.332984]},"properties":{"full_address":"江西省鹰潭市贵溪市滨江镇滨江社区祥和小区"}},{"type":"Feature","geometry":{"type":"Point","coordinates":[117.17761,28.271693]},"properties":{"full_address":"江西省鹰潭市贵溪市滨江镇长石社区幸福小区"}},{"type":"Feature","geometry":{"type":"Point","coordinates":[117.180706,28.371181]},"properties":{"full_address":"江西省鹰潭市贵溪市泗沥镇东洪村刑源组"}},{"type":"Feature","geometry":{"type":"Point","coordinates":[117.210746,28.297872]},"properties":{"full_address":"江西省鹰潭市贵溪市东门街道城北社区和谐小区"}},{"type":"Feature","geometry":{"type":"Point","coordinates":[117.215577,28.283536]},"properties":{"full_address":"江西省鹰潭市贵溪市东门街道江边社区雄石东路国税局旁"}},{"type":"Feature","geometry":{"type":"Point","coordinates":[117.216597,28.283792]},"properties":{"full_address":"江西省鹰潭市贵溪市东门街道江边社区木材公司宿舍楼"}},{"type":"Feature","geometry":{"type":"Point","coordinates":[117.210782,28.295505]},"properties":{"full_address":"江西省鹰潭市贵溪市东门街道雄石社区柏里大道方家岭"}},{"type":"Feature","geometry":{"type":"Point","coordinates":[117.211314,28.317085]},"properties":{"full_address":"江西省鹰潭市贵溪市滨江镇柏里村委会鲤塘组"}},{"type":"Feature","geometry":{"type":"Point","coordinates":[117.134092,28.371587]},"properties":{"full_address":"江西省鹰潭市贵溪市泗沥镇何家村樊上何家组"}},{"type":"Feature","geometry":{"type":"Point","coordinates":[117.020574,28.2384]},"properties":{"full_address":"江西省鹰潭市贵溪市花园街道花园社区江二组"}},{"type":"Feature","geometry":{"type":"Point","coordinates":[117.020574,28.2384]},"properties":{"full_address":"江西省鹰潭市贵溪市花园街道武陵社区中央公园"}},{"type":"Feature","geometry":{"type":"Point","coordinates":[117.224225,28.27878]},"properties":{"full_address":"江西省鹰潭市贵溪市花园街道武陵社区信江国际1期"}},{"type":"Feature","geometry":{"type":"Point","coordinates":[117.221301,28.290043]},"properties":{"full_address":"江西省鹰潭市贵溪市东门街道石林社区嘉裕花苑小区"}},{"type":"Feature","geometry":{"type":"Point","coordinates":[117.319013,28.06544]},"properties":{"full_address":"江西省鹰潭市贵溪市文坊镇斗楼村"}},{"type":"Feature","geometry":{"type":"Point","coordinates":[117.106745,28.191752]},"properties":{"full_address":"江西省鹰潭市贵溪市罗河镇翁源村、罗田村、周家村"}},{"type":"Feature","geometry":{"type":"Point","coordinates":[117.139508,28.38949]},"properties":{"full_address":"江西省鹰潭市贵溪市泗沥镇中村村、赤石村"}},{"type":"Feature","geometry":{"type":"Point","coordinates":[117.211314,28.317086]},"properties":{"full_address":"江西省鹰潭市贵溪市滨江镇青石桥村、洪塘村、江南村、黄坑村、铜都村（除五里台吴家）、浮桥村、柏里村（除竹山组）"}},{"type":"Feature","geometry":{"type":"Point","coordinates":[117.27678,28.260442]},"properties":{"full_address":"江西省鹰潭市贵溪市流口镇新溪村、横路村"}},{"type":"Feature","geometry":{"type":"Point","coordinates":[117.274859,28.324829]},"properties":{"full_address":"江西省鹰潭市贵溪市河潭镇集镇、九夏村"}},{"type":"Feature","geometry":{"type":"Point","coordinates":[117.218409,28.289561]},"properties":{"full_address":"江西省鹰潭市贵溪市东门街道城北社区、雄石社区、木丝岭社区、江边社区、筲箕山社区、芗溪社区、贵电社区、石林社区"}},{"type":"Feature","geometry":{"type":"Point","coordinates":[117.205584,28.281802]},"properties":{"full_address":"江西省鹰潭市贵溪市雄石街道北街社区、西街社区、象山村、南街社区、仙桥社区、挂榜山社区、东街社区"}},{"type":"Feature","geometry":{"type":"Point","coordinates":[117.249823,28.290564]},"properties":{"full_address":"江西省鹰潭市贵溪市花园街道建设社区、紫金堂社区、白果社区、武陵社区、铜城社区、晋兴社区、花园社区、四冶社区"}},{"type":"Feature","geometry":{"type":"Point","coordinates":[117.245497,28.292519]},"properties":{"full_address":"江西省鹰潭市贵溪市彭弯乡集镇"}},{"type":"Feature","geometry":{"type":"Point","coordinates":[117.149913,28.199119]},"properties":{"full_address":"江西省鹰潭市贵溪市罗河镇杨桥村"}},{"type":"Feature","geometry":{"type":"Point","coordinates":[117.173549,28.158466]},"properties":{"full_address":"江西省鹰潭市贵溪市罗河镇龙山村"}},{"type":"Feature","geometry":{"type":"Point","coordinates":[117.008494,28.164258]},"properties":{"full_address":"江西省鹰潭市贵溪市天禄镇政府自然资源所宿舍"}},{"type":"Feature","geometry":{"type":"Point","coordinates":[117.227871,28.073165]},"properties":{"full_address":"江西省鹰潭市贵溪市塘湾镇集镇"}},{"type":"Feature","geometry":{"type":"Point","coordinates":[117.21144,28.387869]},"properties":{"full_address":"江西省鹰潭市贵溪市泗沥镇王湾村"}},{"type":"Feature","geometry":{"type":"Point","coordinates":[117.137978,28.2602]},"properties":{"full_address":"江西省鹰潭市贵溪市罗河镇潜岭村、童源村"}},{"type":"Feature","geometry":{"type":"Point","coordinates":[117.240909,28.31549]},"properties":{"full_address":"江西省鹰潭市贵溪市花园街道高石社区、贵化社区"}},{"type":"Feature","geometry":{"type":"Point","coordinates":[117.192094,28.258935]},"properties":{"full_address":"江西省鹰潭市贵溪市雄石街道挂榜山社区"}},{"type":"Feature","geometry":{"type":"Point","coordinates":[117.189753,28.28998]},"properties":{"full_address":"江西省鹰潭市贵溪市滨江镇浮桥村潭湾周家"}},{"type":"Feature","geometry":{"type":"Point","coordinates":[117.214696,28.287539]},"properties":{"full_address":"江西省鹰潭市贵溪市东门街道信江社区"}},{"type":"Feature","geometry":{"type":"Point","coordinates":[117.053018,28.26411]},"properties":{"full_address":"江西省鹰潭市信江新区夏埠乡恒大绿洲一期17栋一单元"}},{"type":"Feature","geometry":{"type":"Point","coordinates":[117.053018,28.26411]},"properties":{"full_address":"江西省鹰潭市信江新区夏埠乡恒大绿洲一期13栋一单元、二单元"}},{"type":"Feature","geometry":{"type":"Point","coordinates":[117.982643,28.428825]},"properties":{"full_address":"江西省上饶市信州区黄金水岸小区"}},{"type":"Feature","geometry":{"type":"Point","coordinates":[117.964975,28.440081]},"properties":{"full_address":"江西省上饶市信州区滨江西路31号"}},{"type":"Feature","geometry":{"type":"Point","coordinates":[117.92491,28.423175]},"properties":{"full_address":"江西省上饶市广信区樱花半岛小区6栋"}},{"type":"Feature","geometry":{"type":"Point","coordinates":[116.511678,35.288359]},"properties":{"full_address":"山东省济宁市任城区唐口街道梁北村"}},{"type":"Feature","geometry":{"type":"Point","coordinates":[116.480227,35.315394]},"properties":{"full_address":"山东省济宁市任城区唐口街道杜屯村"}},{"type":"Feature","geometry":{"type":"Point","coordinates":[116.583877,35.409463]},"properties":{"full_address":"山东省济宁市任城区秀瑞斯美容院（财神阁店）"}},{"type":"Feature","geometry":{"type":"Point","coordinates":[116.590587,35.420261]},"properties":{"full_address":"山东省济宁市任城区柏曼酒店济宁任城洸河路店"}},{"type":"Feature","geometry":{"type":"Point","coordinates":[116.616506,35.400778]},"properties":{"full_address":"山东省济宁市任城区观音阁街道东南华城吉祥园"}},{"type":"Feature","geometry":{"type":"Point","coordinates":[116.514137,35.460601]},"properties":{"full_address":"山东省济宁市任城区南张街道刘堤头村"}},{"type":"Feature","geometry":{"type":"Point","coordinates":[116.601821,35.432679]},"properties":{"full_address":"山东省济宁市任城区南张街道兴华玻璃厂"}},{"type":"Feature","geometry":{"type":"Point","coordinates":[116.535573,35.424692]},"properties":{"full_address":"山东省济宁市任城区南张街道凤凰台植物公园的蜜水湾拍摄基地"}},{"type":"Feature","geometry":{"type":"Point","coordinates":[116.571708,35.535691]},"properties":{"full_address":"山东省济宁市任城区南张街道李楼村"}},{"type":"Feature","geometry":{"type":"Point","coordinates":[116.501975,35.442186]},"properties":{"full_address":"山东省济宁市任城区南张街道潘家村"}},{"type":"Feature","geometry":{"type":"Point","coordinates":[116.511151,35.285747]},"properties":{"full_address":"山东省济宁市任城区唐口街道梁南村"}},{"type":"Feature","geometry":{"type":"Point","coordinates":[116.476146,35.32644]},"properties":{"full_address":"山东省济宁市任城区唐口街道鲍屯村"}},{"type":"Feature","geometry":{"type":"Point","coordinates":[116.49735,35.315313]},"properties":{"full_address":"山东省济宁市任城区唐口街道薛东村"}},{"type":"Feature","geometry":{"type":"Point","coordinates":[116.520535,35.298044]},"properties":{"full_address":"山东省济宁市任城区唐口街道刘屯村"}},{"type":"Feature","geometry":{"type":"Point","coordinates":[116.549286,35.362854]},"properties":{"full_address":"山东省济宁市任城区安居街道胡庄村"}},{"type":"Feature","geometry":{"type":"Point","coordinates":[116.607376,35.40802]},"properties":{"full_address":"山东省济宁市任城区观音阁街道中亿新苑"}},{"type":"Feature","geometry":{"type":"Point","coordinates":[116.500262,35.473724]},"properties":{"full_address":"山东省济宁市任城区南张街道办事处文郑村"}},{"type":"Feature","geometry":{"type":"Point","coordinates":[116.548568,35.43292]},"properties":{"full_address":"山东省济宁市任城区南张街道办事处刘前村"}},{"type":"Feature","geometry":{"type":"Point","coordinates":[116.543018,35.439798]},"properties":{"full_address":"山东省济宁市任城区南张街道办事处刘后村"}},{"type":"Feature","geometry":{"type":"Point","coordinates":[116.517756,35.455688]},"properties":{"full_address":"山东省济宁市任城区南张街道办事处房家村"}},{"type":"Feature","geometry":{"type":"Point","coordinates":[116.499452,35.457018]},"properties":{"full_address":"山东省济宁市任城区南张街道办事处军张村"}},{"type":"Feature","geometry":{"type":"Point","coordinates":[116.491094,35.311256]},"properties":{"full_address":"山东省济宁市任城区唐口街道唐人街小区"}},{"type":"Feature","geometry":{"type":"Point","coordinates":[116.45646,35.486724]},"properties":{"full_address":"山东省济宁市任城区唐口街道丁庄蓝斐尔幼儿园"}},{"type":"Feature","geometry":{"type":"Point","coordinates":[116.530705,35.342459]},"properties":{"full_address":"山东省济宁市任城区安居街道西正桥村"}},{"type":"Feature","geometry":{"type":"Point","coordinates":[116.569793,35.414886]},"properties":{"full_address":"山东省济宁市任城区金城街道夏桥小区"}},{"type":"Feature","geometry":{"type":"Point","coordinates":[116.547675,35.417757]},"properties":{"full_address":"山东省济宁市任城区金城街道运河新城"}},{"type":"Feature","geometry":{"type":"Point","coordinates":[116.563636,35.408509]},"properties":{"full_address":"山东省济宁市任城区金城街道永基城3号楼"}},{"type":"Feature","geometry":{"type":"Point","coordinates":[116.561426,35.420822]},"properties":{"full_address":"山东省济宁市任城区金城街道永鑫社区金景华府B区"}},{"type":"Feature","geometry":{"type":"Point","coordinates":[116.581704,35.418729]},"properties":{"full_address":"山东省济宁市任城区古槐街道瑞和春天"}},{"type":"Feature","geometry":{"type":"Point","coordinates":[116.575582,35.409822]},"properties":{"full_address":"山东省济宁市任城区古槐街道吉祥小区"}},{"type":"Feature","geometry":{"type":"Point","coordinates":[116.468442,35.487563]},"properties":{"full_address":"山东省济宁市任城区长沟镇南田村"}},{"type":"Feature","geometry":{"type":"Point","coordinates":[116.44901,35.512388]},"properties":{"full_address":"山东省济宁市任城区长沟镇后陈村"}},{"type":"Feature","geometry":{"type":"Point","coordinates":[116.565513,35.245544]},"properties":{"full_address":"山东省济宁市任城区喻屯镇王贵屯村"}},{"type":"Feature","geometry":{"type":"Point","coordinates":[116.593203,35.403195]},"properties":{"full_address":"山东省济宁市任城区阜桥街道枣店阁小区"}},{"type":"Feature","geometry":{"type":"Point","coordinates":[116.465374,35.287153]},"properties":{"full_address":"山东省济宁市任城区唐口街道韭菜姜村"}},{"type":"Feature","geometry":{"type":"Point","coordinates":[116.461139,35.322886]},"properties":{"full_address":"山东省济宁市任城区唐口街道姬庄村"}},{"type":"Feature","geometry":{"type":"Point","coordinates":[116.559895,35.313124]},"properties":{"full_address":"山东省济宁市任城区唐口街道刘街村"}},{"type":"Feature","geometry":{"type":"Point","coordinates":[116.49735,35.315313]},"properties":{"full_address":"山东省济宁市任城区唐口街道龙拱港"}},{"type":"Feature","geometry":{"type":"Point","coordinates":[116.599021,35.411428]},"properties":{"full_address":"山东省济宁市任城区阜桥街道古楷园小区"}},{"type":"Feature","geometry":{"type":"Point","coordinates":[116.55035,35.364475]},"properties":{"full_address":"山东省济宁市任城区安居街道古月新苑"}},{"type":"Feature","geometry":{"type":"Point","coordinates":[116.512146,35.412984]},"properties":{"full_address":"山东省济宁市任城区安居街道运河湾社区"}},{"type":"Feature","geometry":{"type":"Point","coordinates":[116.592091,35.418936]},"properties":{"full_address":"山东省济宁市任城区仙营街道秦庄农贸市场"}},{"type":"Feature","geometry":{"type":"Point","coordinates":[116.643514,35.427297]},"properties":{"full_address":"山东省济宁市任城区仙营街道海能花园"}},{"type":"Feature","geometry":{"type":"Point","coordinates":[116.587357,35.429714]},"properties":{"full_address":"山东省济宁市任城区仙营街道文化小区"}},{"type":"Feature","geometry":{"type":"Point","coordinates":[116.587979,35.401384]},"properties":{"full_address":"山东省济宁市任城区越河街道网通家园"}},{"type":"Feature","geometry":{"type":"Point","coordinates":[116.515141,35.443255]},"properties":{"full_address":"山东省济宁市任城区南张街道姜郑村"}},{"type":"Feature","geometry":{"type":"Point","coordinates":[116.552981,35.418054]},"properties":{"full_address":"山东省济宁市任城区南张街道时星御德新城小区"}},{"type":"Feature","geometry":{"type":"Point","coordinates":[116.539007,35.465509]},"properties":{"full_address":"山东省济宁市任城区南张街道祁庄村"}},{"type":"Feature","geometry":{"type":"Point","coordinates":[116.525884,35.462786]},"properties":{"full_address":"山东省济宁市任城区南张街道孔家村"}},{"type":"Feature","geometry":{"type":"Point","coordinates":[116.52025,35.476729]},"properties":{"full_address":"山东省济宁市任城区南张街道翟家村"}},{"type":"Feature","geometry":{"type":"Point","coordinates":[116.565876,35.48768]},"properties":{"full_address":"山东省济宁市任城区南张街道赵庙村"}},{"type":"Feature","geometry":{"type":"Point","coordinates":[116.572167,35.406173]},"properties":{"full_address":"山东省济宁市任城区济阳街道水景花苑"}},{"type":"Feature","geometry":{"type":"Point","coordinates":[116.56417,35.406759]},"properties":{"full_address":"山东省济宁市任城区金城街道永基公馆"}},{"type":"Feature","geometry":{"type":"Point","coordinates":[116.553822,35.422202]},"properties":{"full_address":"山东省济宁市任城区金城街道开泰花园小区"}},{"type":"Feature","geometry":{"type":"Point","coordinates":[116.579363,35.424878]},"properties":{"full_address":"山东省济宁市任城区金城街道牛市社区"}},{"type":"Feature","geometry":{"type":"Point","coordinates":[116.582963,35.422731]},"properties":{"full_address":"山东省济宁市任城区金城街道古槐名邸小区"}},{"type":"Feature","geometry":{"type":"Point","coordinates":[116.504461,35.522974]},"properties":{"full_address":"山东省济宁市任城区二十里铺街道程街村"}},{"type":"Feature","geometry":{"type":"Point","coordinates":[116.971835,35.399087]},"properties":{"full_address":"山东省济宁市任城区二十里铺街道六中小区"}},{"type":"Feature","geometry":{"type":"Point","coordinates":[116.582076,35.498633]},"properties":{"full_address":"山东省济宁市任城区二十里铺街道杨场村"}},{"type":"Feature","geometry":{"type":"Point","coordinates":[116.608231,35.402274]},"properties":{"full_address":"山东省济宁市任城区观音阁街道鲁兴花园"}},{"type":"Feature","geometry":{"type":"Point","coordinates":[116.631534,35.417487]},"properties":{"full_address":"山东省济宁市任城区观音阁街道如意嘉园"}},{"type":"Feature","geometry":{"type":"Point","coordinates":[116.581213,35.412904]},"properties":{"full_address":"山东省济宁市任城区观音阁街道樱花园小区"}},{"type":"Feature","geometry":{"type":"Point","coordinates":[116.581341,35.473083]},"properties":{"full_address":"山东省济宁市任城区李营街道黄楼村"}},{"type":"Feature","geometry":{"type":"Point","coordinates":[116.60112,35.446954]},"properties":{"full_address":"山东省济宁市任城区李营街道汇翠园小区"}},{"type":"Feature","geometry":{"type":"Point","coordinates":[116.585962,35.439106]},"properties":{"full_address":"山东省济宁市任城区李营街道黎寨村"}},{"type":"Feature","geometry":{"type":"Point","coordinates":[116.607605,35.452034]},"properties":{"full_address":"山东省济宁市任城区李营街道睿湖印象小区"}},{"type":"Feature","geometry":{"type":"Point","coordinates":[116.631696,35.418502]},"properties":{"full_address":"山东省济宁市任城区李营街道人文嘉园小区"}},{"type":"Feature","geometry":{"type":"Point","coordinates":[116.636391,35.521819]},"properties":{"full_address":"山东省济宁市任城区李营街道耿北村"}},{"type":"Feature","geometry":{"type":"Point","coordinates":[116.4551,35.502115]},"properties":{"full_address":"山东省济宁市任城区长沟镇后薛村"}},{"type":"Feature","geometry":{"type":"Point","coordinates":[116.373518,35.397754]},"properties":{"full_address":"山东省济宁市嘉祥县嘉祥街道立国如意花园"}},{"type":"Feature","geometry":{"type":"Point","coordinates":[116.351589,35.407508]},"properties":{"full_address":"山东省济宁市嘉祥县嘉祥街道碧桂园"}},{"type":"Feature","geometry":{"type":"Point","coordinates":[117.015095,35.409153]},"properties":{"full_address":"山东省济宁市邹城市千泉街道爱家豪庭小区"}},{"type":"Feature","geometry":{"type":"Point","coordinates":[117.022614,35.401015]},"properties":{"full_address":"山东省济宁市邹城市千泉街道左岸小区"}},{"type":"Feature","geometry":{"type":"Point","coordinates":[116.962809,35.382732]},"properties":{"full_address":"山东省济宁市邹城市凫山街道田庄新区"}},{"type":"Feature","geometry":{"type":"Point","coordinates":[117.057524,35.420893]},"properties":{"full_address":"山东省济宁市邹城市大束镇学府花园小区"}},{"type":"Feature","geometry":{"type":"Point","coordinates":[116.856227,35.425514]},"properties":{"full_address":"山东省济宁市邹城市太平镇马厂村"}},{"type":"Feature","geometry":{"type":"Point","coordinates":[116.890101,35.364405]},"properties":{"full_address":"山东省济宁市邹城市山东呱呱鸭制品有限公司（北宿镇）"}},{"type":"Feature","geometry":{"type":"Point","coordinates":[117.003466,35.400326]},"properties":{"full_address":"山东省济宁市邹城市千泉街道泉兴家园29号楼"}},{"type":"Feature","geometry":{"type":"Point","coordinates":[116.901707,35.364223]},"properties":{"full_address":"山东省济宁市邹城市北宿镇西故社区"}},{"type":"Feature","geometry":{"type":"Point","coordinates":[116.971455,35.380821]},"properties":{"full_address":"山东省济宁市邹城市北宿镇东故社区"}},{"type":"Feature","geometry":{"type":"Point","coordinates":[116.899466,35.362206]},"properties":{"full_address":"山东省济宁市邹城市北宿镇圣和花园"}},{"type":"Feature","geometry":{"type":"Point","coordinates":[116.640285,35.416604]},"properties":{"full_address":"山东省济宁市高新区柳行街道福祉苑小区"}},{"type":"Feature","geometry":{"type":"Point","coordinates":[116.659886,35.451362]},"properties":{"full_address":"山东省济宁市高新区柳行街道卞厂新苑"}},{"type":"Feature","geometry":{"type":"Point","coordinates":[116.656587,35.429169]},"properties":{"full_address":"山东省济宁市高新区柳行街道菱花富贵园"}},{"type":"Feature","geometry":{"type":"Point","coordinates":[116.582928,35.347146]},"properties":{"full_address":"山东省济宁市太白湖新区许庄街道太阳岛小区"}},{"type":"Feature","geometry":{"type":"Point","coordinates":[116.586096,35.364662]},"properties":{"full_address":"山东省济宁市太白湖新区许庄街道滨湖馨苑"}},{"type":"Feature","geometry":{"type":"Point","coordinates":[116.588348,35.368291]},"properties":{"full_address":"山东省济宁市太白湖新区许庄街道明德花园小区"}},{"type":"Feature","geometry":{"type":"Point","coordinates":[116.570597,35.350766]},"properties":{"full_address":"山东省济宁市太白湖新区许庄街道风韵荷都小区"}},{"type":"Feature","geometry":{"type":"Point","coordinates":[116.596575,35.360785]},"properties":{"full_address":"山东省济宁市太白湖新区许庄街道新城发展大厦"}},{"type":"Feature","geometry":{"type":"Point","coordinates":[116.574154,35.403782]},"properties":{"full_address":"山东省济宁市太白湖新区许庄街道颂运水庭小区"}},{"type":"Feature","geometry":{"type":"Point","coordinates":[116.577906,35.362869]},"properties":{"full_address":"山东省济宁市太白湖新区许庄街道豪庭御都小区"}},{"type":"Feature","geometry":{"type":"Point","coordinates":[116.688921,35.353196]},"properties":{"full_address":"山东省济宁市太白湖新区石桥镇济东新村"}},{"type":"Feature","geometry":{"type":"Point","coordinates":[112.465762,34.156143]},"properties":{"full_address":"河南省洛阳市汝阳县城关镇教育新村西区"}},{"type":"Feature","geometry":{"type":"Point","coordinates":[112.466555,34.145045]},"properties":{"full_address":"河南省洛阳市汝阳县城关镇九阳花园小区"}},{"type":"Feature","geometry":{"type":"Point","coordinates":[112.473696,34.148574]},"properties":{"full_address":"河南省洛阳市汝阳县城关镇兴隆花园小区"}},{"type":"Feature","geometry":{"type":"Point","coordinates":[112.489494,34.15154]},"properties":{"full_address":"河南省洛阳市汝阳县城关镇杜鹃大道东段229号1号楼"}},{"type":"Feature","geometry":{"type":"Point","coordinates":[112.470915,34.150004]},"properties":{"full_address":"河南省洛阳市汝阳县城关镇杜康大道中段169号"}},{"type":"Feature","geometry":{"type":"Point","coordinates":[112.537602,34.242169]},"properties":{"full_address":"河南省洛阳市汝阳县陶营镇柿园村"}},{"type":"Feature","geometry":{"type":"Point","coordinates":[112.431542,34.119401]},"properties":{"full_address":"河南省洛阳市汝阳县上店镇镇区（东街村、西街村、辛庄村）除高风险区以外的其他地区"}},{"type":"Feature","geometry":{"type":"Point","coordinates":[112.430348,34.415975]},"properties":{"full_address":"河南省洛阳市伊川县杜康大道553号"}},{"type":"Feature","geometry":{"type":"Point","coordinates":[112.434144,34.417961]},"properties":{"full_address":"河南省洛阳市伊川县人民东路82号"}},{"type":"Feature","geometry":{"type":"Point","coordinates":[111.610344,33.784789]},"properties":{"full_address":"河南省洛阳市伊川县人民中路21号"}},{"type":"Feature","geometry":{"type":"Point","coordinates":[112.429862,34.421108]},"properties":{"full_address":"河南省洛阳市伊川县兴华南街21号、25号"}},{"type":"Feature","geometry":{"type":"Point","coordinates":[112.429862,34.421108]},"properties":{"full_address":"河南省洛阳市伊川县大同巷与兴华南街交叉口东女装店"}},{"type":"Feature","geometry":{"type":"Point","coordinates":[112.430391,34.418443]},"properties":{"full_address":"河南省洛阳市伊川县大同巷与民主街交叉口型男生活馆"}},{"type":"Feature","geometry":{"type":"Point","coordinates":[113.13731,33.975057]},"properties":{"full_address":"河南省平顶山市郏县渣元乡王楼村"}},{"type":"Feature","geometry":{"type":"Point","coordinates":[114.540184,35.550645]},"properties":{"full_address":"河南省安阳市滑县锦和街道英民社区领秀城小区"}},{"type":"Feature","geometry":{"type":"Point","coordinates":[114.450174,35.534209]},"properties":{"full_address":"河南省安阳市滑县小铺乡杨赵庄村"}},{"type":"Feature","geometry":{"type":"Point","coordinates":[114.184428,35.897703]},"properties":{"full_address":"河南省鹤壁市山城区主城区除高风险区之外的区域"}},{"type":"Feature","geometry":{"type":"Point","coordinates":[114.298694,35.741296]},"properties":{"full_address":"河南省鹤壁市淇滨区创立运输有限公司"}},{"type":"Feature","geometry":{"type":"Point","coordinates":[111.225738,34.780968]},"properties":{"full_address":"河南省三门峡市湖滨区会兴街道上村农贸市场家属院"}},{"type":"Feature","geometry":{"type":"Point","coordinates":[111.206652,34.781969]},"properties":{"full_address":"河南省三门峡市湖滨区会兴街道上村农贸市场"}},{"type":"Feature","geometry":{"type":"Point","coordinates":[111.231324,34.75852]},"properties":{"full_address":"河南省三门峡市湖滨区车站街道峡东社区站东小区"}},{"type":"Feature","geometry":{"type":"Point","coordinates":[111.214321,34.767146]},"properties":{"full_address":"河南省三门峡市湖滨区车站街道东风社区东至宋会路、西至粮管路、北至黄河路、南至陇海线区域"}},{"type":"Feature","geometry":{"type":"Point","coordinates":[111.20477,34.78573]},"properties":{"full_address":"河南省三门峡市湖滨区前进街道六楼社区新欣小区"}},{"type":"Feature","geometry":{"type":"Point","coordinates":[111.187042,34.780091]},"properties":{"full_address":"河南省三门峡市湖滨区前进街道大岭路社区域内除高风险区以外其他区域"}},{"type":"Feature","geometry":{"type":"Point","coordinates":[111.211535,34.77508]},"properties":{"full_address":"河南省三门峡市湖滨区崖底街道师家渠村域内除高风险区以外其他区域"}},{"type":"Feature","geometry":{"type":"Point","coordinates":[111.206492,34.786096]},"properties":{"full_address":"河南省三门峡市湖滨区湖滨街道建设社区新景苑小区"}},{"type":"Feature","geometry":{"type":"Point","coordinates":[111.188427,34.78042]},"properties":{"full_address":"河南省三门峡市湖滨区前进街道友谊社区甘棠新居小区"}},{"type":"Feature","geometry":{"type":"Point","coordinates":[111.219371,34.762406]},"properties":{"full_address":"河南省三门峡市湖滨区涧河街道文二社区海洋盛和园小区1号楼"}},{"type":"Feature","geometry":{"type":"Point","coordinates":[111.188308,34.780092]},"properties":{"full_address":"河南省三门峡市湖滨区涧河街道文二社区地质公园小区"}},{"type":"Feature","geometry":{"type":"Point","coordinates":[111.19494,34.767629]},"properties":{"full_address":"河南省三门峡市湖滨区涧河街道永安社区河堤路方园小区"}},{"type":"Feature","geometry":{"type":"Point","coordinates":[111.239698,34.749031]},"properties":{"full_address":"河南省三门峡市湖滨区车站街道迎宾社区迎宾花园小区"}},{"type":"Feature","geometry":{"type":"Point","coordinates":[111.219465,34.77233]},"properties":{"full_address":"河南省三门峡市湖滨区车站街道新建社区经一路铁路桥东边500米左右家属楼"}},{"type":"Feature","geometry":{"type":"Point","coordinates":[111.203748,34.780674]},"properties":{"full_address":"河南省三门峡市湖滨区湖滨街道市场社区华兴商厦"}},{"type":"Feature","geometry":{"type":"Point","coordinates":[111.23372,34.759578]},"properties":{"full_address":"河南省三门峡市湖滨区车站街道峡东社区银河苑小区"}},{"type":"Feature","geometry":{"type":"Point","coordinates":[115.868283,34.381667]},"properties":{"full_address":"河南省商丘市虞城县城关镇天水小区"}},{"type":"Feature","geometry":{"type":"Point","coordinates":[115.863761,34.404102]},"properties":{"full_address":"河南省商丘市虞城县城关镇阳光世纪城小区"}},{"type":"Feature","geometry":{"type":"Point","coordinates":[115.790761,34.118055]},"properties":{"full_address":"河南省商丘市虞城县木兰镇周庄村"}},{"type":"Feature","geometry":{"type":"Point","coordinates":[115.938964,34.300972]},"properties":{"full_address":"河南省商丘市虞城县木兰镇杨楼村"}},{"type":"Feature","geometry":{"type":"Point","coordinates":[115.775094,34.14963]},"properties":{"full_address":"河南省商丘市虞城县沙集乡任桥村"}},{"type":"Feature","geometry":{"type":"Point","coordinates":[114.324616,30.649714]},"properties":{"full_address":"湖北省武汉市黄陂区盘龙城经济开发区刘店村张医生诊所"}},{"type":"Feature","geometry":{"type":"Point","coordinates":[114.237797,30.712122]},"properties":{"full_address":"湖北省武汉市黄陂区盘龙城经济开发区洪福美境3栋"}},{"type":"Feature","geometry":{"type":"Point","coordinates":[114.31307,30.691875]},"properties":{"full_address":"湖北省武汉市黄陂区盘龙城经济开发区刘店龙辰丽湾1栋"}},{"type":"Feature","geometry":{"type":"Point","coordinates":[113.262397,23.090809]},"properties":{"full_address":"广东省广州市海珠区龙凤街道东至凤凰四街，西至工业大道北，南至荔福路，北至梅园南路围成的区域"}},{"type":"Feature","geometry":{"type":"Point","coordinates":[113.29162,23.01069]},"properties":{"full_address":"广东省广州市番禺区大石街道会江村"}},{"type":"Feature","geometry":{"type":"Point","coordinates":[113.303598,23.011065]},"properties":{"full_address":"广东省广州市番禺区大石街道诜村"}},{"type":"Feature","geometry":{"type":"Point","coordinates":[113.311293,23.021944]},"properties":{"full_address":"广东省广州市番禺区大石街道东联村"}},{"type":"Feature","geometry":{"type":"Point","coordinates":[113.297414,23.016559]},"properties":{"full_address":"广东省广州市番禺区大石街道大维村"}},{"type":"Feature","geometry":{"type":"Point","coordinates":[114.11368,22.566598]},"properties":{"full_address":"广东省深圳市罗湖区笋岗街道庆云花园庆宁阁A单元"}},{"type":"Feature","geometry":{"type":"Point","coordinates":[114.112437,22.559468]},"properties":{"full_address":"广东省深圳市罗湖区宝龙嘉园3栋B单元"}},{"type":"Feature","geometry":{"type":"Point","coordinates":[114.108282,22.550423]},"properties":{"full_address":"广东省深圳市罗湖区桂园街道金众经典家园金兰阁、金茗阁（不包含区域底商）"}},{"type":"Feature","geometry":{"type":"Point","coordinates":[114.104999,22.554271]},"properties":{"full_address":"广东省深圳市罗湖区桂园街道建设集团大院B座"}},{"type":"Feature","geometry":{"type":"Point","coordinates":[114.13962,22.56637]},"properties":{"full_address":"广东省深圳市罗湖区翠竹街道新村社区泰宁小区1栋"}},{"type":"Feature","geometry":{"type":"Point","coordinates":[114.109363,22.548946]},"properties":{"full_address":"广东省深圳市罗湖区桂园街道红村社区幸福华府C栋"}},{"type":"Feature","geometry":{"type":"Point","coordinates":[114.112556,22.568045]},"properties":{"full_address":"广东省深圳市罗湖区笋岗街道时尚新居5-25楼及其物业管理处办公场所"}},{"type":"Feature","geometry":{"type":"Point","coordinates":[114.19097,22.55736]},"properties":{"full_address":"广东省深圳市罗湖区莲塘街道鸿景翠峰小区及底商（除高风险区外）"}},{"type":"Feature","geometry":{"type":"Point","coordinates":[114.123259,22.537565]},"properties":{"full_address":"广东省深圳市罗湖区南湖街道宏丰大厦底商、宏丰大厦B座及C座围合区域（除高风险区外）"}},{"type":"Feature","geometry":{"type":"Point","coordinates":[114.129178,22.548667]},"properties":{"full_address":"广东省深圳市罗湖区东门街道湖贝新村160栋-170栋、182栋-192栋、199栋-210栋、216栋-227栋、233栋-238栋、244栋-249栋、255栋-260栋（除高风险区外）"}},{"type":"Feature","geometry":{"type":"Point","coordinates":[114.122408,22.557358]},"properties":{"full_address":"广东省深圳市罗湖区笋岗街道洪湖一街一号大院及底商围合区域（除高风险区外）"}},{"type":"Feature","geometry":{"type":"Point","coordinates":[114.174572,22.567993]},"properties":{"full_address":"广东省深圳市罗湖区莲塘街道仙湖社区梧桐山新居小区及底商围合区域(除高风险区外)"}},{"type":"Feature","geometry":{"type":"Point","coordinates":[114.138156,22.559501]},"properties":{"full_address":"广东省深圳市罗湖区黄贝街道湖滨新村及滨学楼围合区域（除高风险区外）"}},{"type":"Feature","geometry":{"type":"Point","coordinates":[114.17428,22.595674]},"properties":{"full_address":"广东省深圳市罗湖区东湖街道大望社区新平村143、145、146、147号围合区域（除高风险区外）及新平村223、227、228、229、230号围合区域"}},{"type":"Feature","geometry":{"type":"Point","coordinates":[114.093085,22.568692]},"properties":{"full_address":"广东省深圳市罗湖区清水河街道银湖社区金景花园小区（除高风险区、小区底商外）"}},{"type":"Feature","geometry":{"type":"Point","coordinates":[114.111625,22.558223]},"properties":{"full_address":"广东省深圳市罗湖区笋岗街道嘉宝田花园小区（除高风险区外）及内围底商"}},{"type":"Feature","geometry":{"type":"Point","coordinates":[114.098542,22.566493]},"properties":{"full_address":"广东省深圳市罗湖区清水河街道坭岗社区“坭岗西村62-122栋、128栋、129栋”围合区域（除高风险区外）"}},{"type":"Feature","geometry":{"type":"Point","coordinates":[114.133663,22.549331]},"properties":{"full_address":"广东省深圳市罗湖区黄贝街道新谊社区金城华庭小区（除高风险区外）"}},{"type":"Feature","geometry":{"type":"Point","coordinates":[114.146365,22.544212]},"properties":{"full_address":"广东省深圳市罗湖区黄贝街道新兴社区城市东方小区（除高风险区外）"}},{"type":"Feature","geometry":{"type":"Point","coordinates":[114.130025,22.570966]},"properties":{"full_address":"广东省深圳市罗湖区翠竹街道翠达社区旭飞华达园一期银座阁、九洲阁、富士阁围合区域（除高风险区、小区底商外）"}},{"type":"Feature","geometry":{"type":"Point","coordinates":[114.109802,22.587588]},"properties":{"full_address":"广东省深圳市罗湖区清水河街道龙湖社区龙园山庄东区16栋（除高风险区外）、17栋、18栋、19栋"}},{"type":"Feature","geometry":{"type":"Point","coordinates":[114.11972,22.544621]},"properties":{"full_address":"广东省深圳市罗湖区东门街道东门社区人民北路1006号写字楼4-7楼围合区域（除高风险区外）"}},{"type":"Feature","geometry":{"type":"Point","coordinates":[114.117291,22.53817]},"properties":{"full_address":"广东省深圳市罗湖区南湖街道罗湖桥社区友谊大厦1-7栋围合区域（除高风险区外）及内围底商"}},{"type":"Feature","geometry":{"type":"Point","coordinates":[114.106578,22.55403]},"properties":{"full_address":"广东省深圳市罗湖区桂园街道松园社区鸿翔花园7栋B单元、C单元、鸿翔花园4栋"}},{"type":"Feature","geometry":{"type":"Point","coordinates":[114.107841,22.551157]},"properties":{"full_address":"广东省深圳市罗湖区桂园街道松园社区松园西街48号1栋、48号2栋以及48号2栋旁平房围合区域(除高风险区外）"}},{"type":"Feature","geometry":{"type":"Point","coordinates":[114.111703,22.547383]},"properties":{"full_address":"广东省深圳市罗湖区桂园街道桂木园社区红群楼小区(除高风险区外）"}},{"type":"Feature","geometry":{"type":"Point","coordinates":[114.11145,22.552847]},"properties":{"full_address":"广东省深圳市罗湖区桂园街道松园南小区（除高风险区外）"}},{"type":"Feature","geometry":{"type":"Point","coordinates":[114.107156,22.53982]},"properties":{"full_address":"广东省深圳市罗湖区桂园街道新围社区丽晶大厦北座（除1-4楼底商外））"}},{"type":"Feature","geometry":{"type":"Point","coordinates":[114.114233,22.544178]},"properties":{"full_address":"广东省深圳市罗湖区桂园街道人民桥社区和平广场1至6层底商"}},{"type":"Feature","geometry":{"type":"Point","coordinates":[114.105526,22.548696]},"properties":{"full_address":"广东省深圳市罗湖区桂园街道红村社区红桂一街8号大院（除高风险区外）"}},{"type":"Feature","geometry":{"type":"Point","coordinates":[114.108152,22.546358]},"properties":{"full_address":"广东省深圳市罗湖区桂园街道红村社区红宝路63号1、2、3、5、8、9栋围合区域（除高风险区外）"}},{"type":"Feature","geometry":{"type":"Point","coordinates":[114.10473,22.549965]},"properties":{"full_address":"广东省深圳市罗湖区桂园街道松园社区松园社区都汇中心A栋（除A栋底商外）"}},{"type":"Feature","geometry":{"type":"Point","coordinates":[114.124197,22.541826]},"properties":{"full_address":"广东省深圳市罗湖区南湖街道向西社区向西村西区72号—74号、77号—79号围合区域（除高风险区外）"}},{"type":"Feature","geometry":{"type":"Point","coordinates":[114.100097,22.556953]},"properties":{"full_address":"广东省深圳市福田区园岭街道鹏盛社区鹏盛年华B栋"}},{"type":"Feature","geometry":{"type":"Point","coordinates":[114.103971,22.551044]},"properties":{"full_address":"广东省深圳市福田区园岭街道园东社区红岭中路2027号宿舍楼第2栋"}},{"type":"Feature","geometry":{"type":"Point","coordinates":[114.094626,22.542192]},"properties":{"full_address":"广东省深圳市福田区华强北街道福强社区玮鹏花园（高风险区除外）"}},{"type":"Feature","geometry":{"type":"Point","coordinates":[114.046372,22.510015]},"properties":{"full_address":"广东省深圳市福田区福保街道福保社区红树福苑第5栋、第6栋（A单元、B单元、D单元）"}},{"type":"Feature","geometry":{"type":"Point","coordinates":[114.054502,22.508655]},"properties":{"full_address":"广东省深圳市福田区福保街道福源花园三期（高风险区除外）"}},{"type":"Feature","geometry":{"type":"Point","coordinates":[114.049494,22.521361]},"properties":{"full_address":"广东省深圳市福田区福保街道石厦西村第116栋、第117栋、第134-1栋、第134-2栋、第144栋、第145栋"}},{"type":"Feature","geometry":{"type":"Point","coordinates":[114.09002,22.55291]},"properties":{"full_address":"广东省深圳市福田区园岭街道长城社区长安花园A、C座"}},{"type":"Feature","geometry":{"type":"Point","coordinates":[114.101015,22.561357]},"properties":{"full_address":"广东省深圳市福田区园岭街道上林社区八卦岭宿舍区第8栋"}},{"type":"Feature","geometry":{"type":"Point","coordinates":[114.102286,22.553343]},"properties":{"full_address":"广东省深圳市福田区园岭街道园东社区园岭八街园岭新村第100栋、第103栋"}},{"type":"Feature","geometry":{"type":"Point","coordinates":[114.099012,22.552109]},"properties":{"full_address":"广东省深圳市福田区园岭街道红荔社区园岭四街园中花园A、B栋和1-3层裙楼"}},{"type":"Feature","geometry":{"type":"Point","coordinates":[114.081598,22.529996]},"properties":{"full_address":"广东省深圳市福田区福田街道福田社区大门坊第48栋、第64栋、第65栋、第66栋"}},{"type":"Feature","geometry":{"type":"Point","coordinates":[114.044521,22.545255]},"properties":{"full_address":"广东省深圳市福田区莲花街道惠翔苑（高风险区除外）"}},{"type":"Feature","geometry":{"type":"Point","coordinates":[114.065235,22.561351]},"properties":{"full_address":"广东省深圳市福田区莲花街道长城盛世家园二期第4栋"}},{"type":"Feature","geometry":{"type":"Point","coordinates":[114.094727,22.538157]},"properties":{"full_address":"广东省深圳市福田区南园街道（除高风险区外）"}},{"type":"Feature","geometry":{"type":"Point","coordinates":[114.069515,22.523363]},"properties":{"full_address":"广东省深圳市福田区福田街道福民新村第12栋二、三单元"}},{"type":"Feature","geometry":{"type":"Point","coordinates":[114.100858,22.559394]},"properties":{"full_address":"广东省深圳市福田区园岭街道上林社区八卦岭宿舍区第12栋"}},{"type":"Feature","geometry":{"type":"Point","coordinates":[114.053389,22.521841]},"properties":{"full_address":"广东省深圳市福田区福保街道新天世纪商务中心C座"}},{"type":"Feature","geometry":{"type":"Point","coordinates":[114.055796,22.56562]},"properties":{"full_address":"广东省深圳市福田区梅林街道上梅社区上梅林祠堂村第6号、第7号、第9号、第10号、第11号、第78号、第160号"}},{"type":"Feature","geometry":{"type":"Point","coordinates":[114.051029,22.523887]},"properties":{"full_address":"广东省深圳市福田区福保街道新洲路3188号职工楼"}},{"type":"Feature","geometry":{"type":"Point","coordinates":[114.039109,22.561946]},"properties":{"full_address":"广东省深圳市福田区梅林街道下梅林村第23号、第25号、第26号"}},{"type":"Feature","geometry":{"type":"Point","coordinates":[114.045488,22.554642]},"properties":{"full_address":"广东省深圳市福田区莲花街道景林花园，布尾村第1-17栋、第17B栋、第18-21栋、第23-27栋"}},{"type":"Feature","geometry":{"type":"Point","coordinates":[114.039874,22.55061]},"properties":{"full_address":"广东省深圳市福田区莲花街道狮岭社区景达楼第2栋"}},{"type":"Feature","geometry":{"type":"Point","coordinates":[114.047772,22.522845]},"properties":{"full_address":"广东省深圳市福田区沙头街道新洲南村第36栋-38栋、第44栋、第45栋、第46-1栋、第46-2栋、第47-1栋、第47-2栋、第56栋、第57栋、第59栋"}},{"type":"Feature","geometry":{"type":"Point","coordinates":[114.063164,22.526943]},"properties":{"full_address":"广东省深圳市福田区福田街道上围一村第37号、第39号-第41号、第146号、第147号、第158号-第161号"}},{"type":"Feature","geometry":{"type":"Point","coordinates":[113.997691,22.546834]},"properties":{"full_address":"广东省深圳市福田区香蜜湖街道深康村第6栋B座"}},{"type":"Feature","geometry":{"type":"Point","coordinates":[114.082377,22.532767]},"properties":{"full_address":"广东省深圳市福田区福田街道岗边坊第1号A栋、第1号-3号、第4-1号、第4-2号、第5号-9号、第10-1号、第10-2号、第11号、第16号、第17-1号、第17-2号、第18号、第19-1号、第19-2号、第19-3号、第20号-22号、第22-1号、第23-2号、第23-3号、第26-1号、第26-2号、第28号、第29-1号、第29-2号、第30-1号、第30-2A号、第30-2B号、第31-1号、第31-2号、第32号、第33号、第34-1号、第34-2号、第35-1号、第35-2号、第36号、第50号、第52号-55号、第57号、第59-1号、第59-2号、第60-1号、第60-2号、第61-1号、第61-2号、第62号-68号、第70号、第72号、第73号、第75号、第76号、第87号、第98-1号、第98-2号、第99-1号、第99-2号、第99-3号、第104号、第108号、第109号，赤尾坊第1-1号、第1号-10号、第11-1号、第11-2号、第12-1号、第12-2号、第12-3号、第12-4号、第13号、第14号、第15-1号、第15-2号、第16-1号、第16-2号、第16-3号、第25号、第42号、第43号、第43-1号、第44号"}},{"type":"Feature","geometry":{"type":"Point","coordinates":[114.06494,22.524654]},"properties":{"full_address":"广东省深圳市福田区福田街道西大门坊第86号-90号、第93号-97号、第108号-112号、第116号-120号、第131号、第132号、第144号、第145号、第156号、第157号"}},{"type":"Feature","geometry":{"type":"Point","coordinates":[114.050293,22.521819]},"properties":{"full_address":"广东省深圳市福田区福保街道石厦西村第138栋、第139栋、第119栋、第126栋、第121-1栋、第121-2栋"}},{"type":"Feature","geometry":{"type":"Point","coordinates":[114.031846,22.520746]},"properties":{"full_address":"广东省深圳市福田区沙头街道上沙东村5巷第10号、5巷第11号、6巷第9号-第11号、7巷第10号-第12号、8巷第11号-第15号、9巷第8号-第14号"}},{"type":"Feature","geometry":{"type":"Point","coordinates":[113.933392,22.489626]},"properties":{"full_address":"广东省深圳市南山区蛇口街道海湾社区旧村三巷67号、四巷56号、57号、58号，五巷60号、61号、62号、63号，六巷53号、54号、55号"}},{"type":"Feature","geometry":{"type":"Point","coordinates":[113.957551,22.582826]},"properties":{"full_address":"广东省深圳市南山区西丽街道九祥岭东区13号、66号、67号、67-2号、68号、69号、95号、96号"}},{"type":"Feature","geometry":{"type":"Point","coordinates":[113.952694,22.559496]},"properties":{"full_address":"广东省深圳市南山区西丽街道松坪村梅苑（除高风险区外）"}},{"type":"Feature","geometry":{"type":"Point","coordinates":[113.93095,22.50795]},"properties":{"full_address":"广东省深圳市南山区粤海街道后海村1区（除高风险区外）"}},{"type":"Feature","geometry":{"type":"Point","coordinates":[113.989177,22.533998]},"properties":{"full_address":"广东省深圳市南山区沙河街道光华街小区9栋"}},{"type":"Feature","geometry":{"type":"Point","coordinates":[113.927551,22.503583]},"properties":{"full_address":"广东省深圳市南山区招商街道兰园小区（除高风险区外）"}},{"type":"Feature","geometry":{"type":"Point","coordinates":[113.955711,22.58241]},"properties":{"full_address":"广东省深圳市南山区西丽街道丽新小区、新华书店综合楼"}},{"type":"Feature","geometry":{"type":"Point","coordinates":[113.897989,22.495884]},"properties":{"full_address":"广东省深圳市南山区南山街道紫园（除高风险区外）"}},{"type":"Feature","geometry":{"type":"Point","coordinates":[113.912435,22.489813]},"properties":{"full_address":"广东省深圳市南山区招商街道兰溪谷一期（除高风险区外）"}},{"type":"Feature","geometry":{"type":"Point","coordinates":[113.930564,22.500821]},"properties":{"full_address":"广东省深圳市南山区招商街道爱榕园（除高风险区外）"}},{"type":"Feature","geometry":{"type":"Point","coordinates":[113.914804,22.510367]},"properties":{"full_address":"广东省深圳市南山区南山街道城市山林（除高风险区外）"}},{"type":"Feature","geometry":{"type":"Point","coordinates":[113.930116,22.489767]},"properties":{"full_address":"广东省深圳市南山区蛇口街道围仔西小区（除高风险区外）"}},{"type":"Feature","geometry":{"type":"Point","coordinates":[113.86998,22.577607]},"properties":{"full_address":"广东省深圳市宝安区西乡街道共乐社区宝莲新村七巷3号、4号，八巷1号、2号"}},{"type":"Feature","geometry":{"type":"Point","coordinates":[113.973634,22.693073]},"properties":{"full_address":"广东省深圳市宝安区石岩街道石龙社区汇裕名都花园（除高风险区外）"}},{"type":"Feature","geometry":{"type":"Point","coordinates":[113.873564,22.568893]},"properties":{"full_address":"广东省深圳市宝安区西乡街道永丰社区锦明花园（除高风险区域以外）及华侨新村西堤二巷18号、19号及西堤三巷19号、20号"}},{"type":"Feature","geometry":{"type":"Point","coordinates":[113.850678,22.575344]},"properties":{"full_address":"广东省深圳市宝安区西乡街道劳动社区深圳恒生医院住宅小区（除高风险区域以外）"}},{"type":"Feature","geometry":{"type":"Point","coordinates":[114.116863,22.605188]},"properties":{"full_address":"广东省深圳市龙岗区布吉街道长龙社区东兴楼"}},{"type":"Feature","geometry":{"type":"Point","coordinates":[114.109477,22.607103]},"properties":{"full_address":"广东省深圳市龙岗区吉华街道水径社区格林豪泰酒店"}},{"type":"Feature","geometry":{"type":"Point","coordinates":[114.120159,22.676121]},"properties":{"full_address":"广东省深圳市龙岗区平湖街道上木古社区品冠艺术酒店"}},{"type":"Feature","geometry":{"type":"Point","coordinates":[114.118823,22.671728]},"properties":{"full_address":"广东省深圳市龙岗区平湖街道上木古社区沐云谷BC栋"}},{"type":"Feature","geometry":{"type":"Point","coordinates":[114.255551,22.730588]},"properties":{"full_address":"广东省深圳市龙岗区平湖街道力昌社区民盛路30号和32号"}},{"type":"Feature","geometry":{"type":"Point","coordinates":[114.130674,22.597648]},"properties":{"full_address":"广东省深圳市龙岗区布吉街道罗岗社区百合商业楼A栋"}},{"type":"Feature","geometry":{"type":"Point","coordinates":[114.11783,22.591453]},"properties":{"full_address":"广东省深圳市龙岗区布吉街道金排社区凤尾坑新村55栋"}},{"type":"Feature","geometry":{"type":"Point","coordinates":[114.120906,22.598794]},"properties":{"full_address":"广东省深圳市龙岗区布吉街道国展社区百合酒店公寓D栋"}},{"type":"Feature","geometry":{"type":"Point","coordinates":[114.115982,22.613525]},"properties":{"full_address":"广东省深圳市龙岗区吉华街道光华社区坤祥花语岸（除高风险区外）"}},{"type":"Feature","geometry":{"type":"Point","coordinates":[114.10094,22.613152]},"properties":{"full_address":"广东省深圳市龙岗区翠湖社区青青家园A区（除高风险区外）"}},{"type":"Feature","geometry":{"type":"Point","coordinates":[113.813423,22.72971]},"properties":{"full_address":"广东省深圳市龙岗区横岗街道六约北社区深竹小区三巷8-9号、四巷8-9号、五巷10号、六巷10-11号、七巷10-11号、八巷10-11号、九巷10-11号、十巷1-10号"}},{"type":"Feature","geometry":{"type":"Point","coordinates":[114.109018,22.612518]},"properties":{"full_address":"广东省深圳市龙岗区吉华街道翠湖社区下水径新村小区（除高风险区外）"}},{"type":"Feature","geometry":{"type":"Point","coordinates":[114.147171,22.605934]},"properties":{"full_address":"广东省深圳市龙岗区南湾街道南岭村社区南新小区（除高风险区外）"}},{"type":"Feature","geometry":{"type":"Point","coordinates":[114.062452,22.612624]},"properties":{"full_address":"广东省深圳市龙岗区坂田街道南坑社区南坑路110、112、114、116号，南坑北一巷4、6、7号，南坑北二巷4、5、6、7号"}},{"type":"Feature","geometry":{"type":"Point","coordinates":[114.176875,22.63491]},"properties":{"full_address":"广东省深圳市龙岗区横岗街道六约北社区深峰路1号楼南、2号楼"}},{"type":"Feature","geometry":{"type":"Point","coordinates":[114.188722,22.636936]},"properties":{"full_address":"广东省深圳市龙岗区横岗街道六约南社区圣德堡酒店"}},{"type":"Feature","geometry":{"type":"Point","coordinates":[114.210889,22.644484]},"properties":{"full_address":"广东省深圳市龙岗区横岗街道松柏社区富康路、松柏路、悦民路、松柏路134号、松柏路140号、松柏路138号合围区域（除高风险区外）"}},{"type":"Feature","geometry":{"type":"Point","coordinates":[114.201261,22.643684]},"properties":{"full_address":"广东省深圳市龙岗区横岗街道横岗社区华西二巷1号、2号，商洲文化创意园A、B、C、D、E栋"}},{"type":"Feature","geometry":{"type":"Point","coordinates":[114.06843,22.633316]},"properties":{"full_address":"广东省深圳市龙岗区坂田街道坂田社区中坑街、坂雪岗大道、长发路和沿坂田小学东面围墙延长线至中坑街合围区域（高风险区及坂田社区工作站除外）"}},{"type":"Feature","geometry":{"type":"Point","coordinates":[114.273372,22.732244]},"properties":{"full_address":"广东省深圳市龙岗区龙岗街道龙岗社区福宁一巷1号-7号，福宁二巷1号-6号，福宁三巷1号-7号，福宁四巷1号-6号，福宁新一巷1号-4号，福宁新二巷1号-5号，福宁路7号、9号、11号、13号、15号、17号"}},{"type":"Feature","geometry":{"type":"Point","coordinates":[114.233626,22.549915]},"properties":{"full_address":"广东省深圳市盐田区沙头角街道沙盐路、官下路、金融路、公园路的围合区域、诗宁里小区、文和园小区、诗宁别墅小区"}},{"type":"Feature","geometry":{"type":"Point","coordinates":[114.228575,22.552307]},"properties":{"full_address":"广东省深圳市盐田区沙头角街道田心社区沙深路103号生活区、深盐路商住楼、深盐路3001号、二十小区、田心东路2号、田心东路8号、恩上路东顺工业楼、恩上路105号综合楼、田心东路34号广告楼"}},{"type":"Feature","geometry":{"type":"Point","coordinates":[114.236225,22.553059]},"properties":{"full_address":"广东省深圳市盐田区海山街道鹏湾社区海涛路138号鹏湾花园一村（高风险区域除外）"}},{"type":"Feature","geometry":{"type":"Point","coordinates":[114.23529,22.548976]},"properties":{"full_address":"广东省深圳市盐田区海山街道海涛社区东和路37号进出口宿舍楼（含底层商铺）、海涛路132号东和大厦小区、海涛路118号鹏湾花园二村、金融路52号太平洋住宅区"}},{"type":"Feature","geometry":{"type":"Point","coordinates":[114.265073,22.586473]},"properties":{"full_address":"广东省深圳市盐田区盐田街道东海道、洪安三街、明珠道、洪安二街的围合区域（高风险区除外）"}},{"type":"Feature","geometry":{"type":"Point","coordinates":[114.225679,22.553098]},"properties":{"full_address":"广东省深圳市盐田区沙头角街道盘山公路、深盐路、沙深路、工业西街的围合区域（高风险区域除外）"}},{"type":"Feature","geometry":{"type":"Point","coordinates":[113.79353,22.676699]},"properties":{"full_address":"广东省深圳市龙华区民治街道大岭社区中国建筑第四工程局生活区"}},{"type":"Feature","geometry":{"type":"Point","coordinates":[114.027543,22.625487]},"properties":{"full_address":"广东省深圳市龙华区民治街道大岭社区安居尚龙苑工地"}},{"type":"Feature","geometry":{"type":"Point","coordinates":[114.040198,22.611611]},"properties":{"full_address":"广东省深圳市龙华区民治街道樟坑社区樟坑三区第46栋"}},{"type":"Feature","geometry":{"type":"Point","coordinates":[114.034263,22.64251]},"properties":{"full_address":"广东省深圳市龙华区龙华街道松和社区汇食街2巷15号、3巷12号、4巷10号"}},{"type":"Feature","geometry":{"type":"Point","coordinates":[114.052113,22.71841]},"properties":{"full_address":"广东省深圳市龙华区观澜街道新澜社区大布巷新村第1至3栋"}},{"type":"Feature","geometry":{"type":"Point","coordinates":[114.017283,22.66738]},"properties":{"full_address":"广东省深圳市龙华区龙华街道华联社区阁下工业区（除高风险区外）"}},{"type":"Feature","geometry":{"type":"Point","coordinates":[114.039262,22.614279]},"properties":{"full_address":"广东省深圳市龙华区民治街道樟坑社区樟坑一区第104栋、105栋、111栋、112栋、118栋、119栋、124栋、125栋、131栋、133栋、136栋"}},{"type":"Feature","geometry":{"type":"Point","coordinates":[114.010741,22.650547]},"properties":{"full_address":"广东省深圳市龙华区大浪街道高峰社区赤岭头新一村第50至63栋、80栋、82栋、84至93栋、115栋、116栋"}},{"type":"Feature","geometry":{"type":"Point","coordinates":[114.021387,22.654161]},"properties":{"full_address":"广东省深圳市龙华区龙华街道龙园社区人民路商业中心二期（利金城商业中心）A1栋、A3至A6栋"}},{"type":"Feature","geometry":{"type":"Point","coordinates":[114.039215,22.621229]},"properties":{"full_address":"广东省深圳市龙华区民治街道民强社区民治第一工业区第6栋、11栋、18栋"}},{"type":"Feature","geometry":{"type":"Point","coordinates":[114.077614,22.684284]},"properties":{"full_address":"广东省深圳市龙华区观湖街道樟溪社区下围新邨A栋A1单元"}},{"type":"Feature","geometry":{"type":"Point","coordinates":[114.035402,22.665834]},"properties":{"full_address":"广东省深圳市龙华区龙华街道和联社区富联新村二区第14栋、第57栋、第67栋"}},{"type":"Feature","geometry":{"type":"Point","coordinates":[114.026697,22.624867]},"properties":{"full_address":"广东省深圳市龙华区民治街道大岭社区莱蒙水榭春天6B区第1栋、第3栋、第4栋"}},{"type":"Feature","geometry":{"type":"Point","coordinates":[114.051268,22.602445]},"properties":{"full_address":"广东省深圳市龙华区民治街道民乐社区滢水山庄二区第3至6栋、第8至15栋"}},{"type":"Feature","geometry":{"type":"Point","coordinates":[114.033233,22.66682]},"properties":{"full_address":"广东省深圳市龙华区龙华街道和联社区富泉新村北区第26至39栋、47栋、48栋、50栋、51栋"}},{"type":"Feature","geometry":{"type":"Point","coordinates":[114.029339,22.670053]},"properties":{"full_address":"广东省深圳市龙华区龙华街道玉翠社区金港宾馆、龙观东路32号圆弧形综合楼"}},{"type":"Feature","geometry":{"type":"Point","coordinates":[114.035976,22.633434]},"properties":{"full_address":"广东省深圳市龙华区民治街道新牛社区牛栏前新村第1栋、2栋、10栋、11栋、19栋、24栋、牛栏前村史馆"}},{"type":"Feature","geometry":{"type":"Point","coordinates":[114.083063,22.706232]},"properties":{"full_address":"广东省深圳市龙华区观湖街道新田社区观平路160号、160-2号"}},