{"type":"FeatureCollection","features":[{"type":"Feature","geometry":{"type":"Point","coordinates":[116.547074,39.948015]},"properties":{"full_address":"北京市朝阳区平房（地区）乡泓鑫家园小区（除7号楼外）其他楼宇及底商"}},{"type":"Feature","geometry":{"type":"Point","coordinates":[116.522923,39.920841]},"properties":{"full_address":"北京市朝阳区平房（地区）乡天鹅湾北区18号楼4单元"}},{"type":"Feature","geometry":{"type":"Point","coordinates":[116.550581,39.950246]},"properties":{"full_address":"北京市朝阳区东坝（地区）乡高杨树北里11号楼2单元"}},{"type":"Feature","geometry":{"type":"Point","coordinates":[116.529909,40.008214]},"properties":{"full_address":"北京市朝阳区崔各庄（地区）乡京旺家园1区9号楼"}},{"type":"Feature","geometry":{"type":"Point","coordinates":[116.557963,39.910652]},"properties":{"full_address":"北京市朝阳区三间房（地区）乡中国传媒大学北苑餐厅、 40号楼、 南苑餐厅、 22号楼"}},{"type":"Feature","geometry":{"type":"Point","coordinates":[116.299613,39.863219]},"properties":{"full_address":"北京市丰台区丰台街道东大街6号院12号楼7、8单元"}},{"type":"Feature","geometry":{"type":"Point","coordinates":[116.315824,39.950937]},"properties":{"full_address":"北京市海淀区紫竹院街道中央民族大学附属中学本部除女生宿舍楼以外的其他区域"}},{"type":"Feature","geometry":{"type":"Point","coordinates":[116.661075,39.965074]},"properties":{"full_address":"北京市通州区宋庄镇富豪村除956号、998号、999号、1000号外的其他区域"}},{"type":"Feature","geometry":{"type":"Point","coordinates":[116.521437,39.82063]},"properties":{"full_address":"北京市大兴区亦庄（地区）镇小康家园小区除14号楼以外其他楼栋"}},{"type":"Feature","geometry":{"type":"Point","coordinates":[117.259505,39.140623]},"properties":{"full_address":"天津市天津市河东区向阳楼街道星河花园（2号楼、4号楼除外）"}},{"type":"Feature","geometry":{"type":"Point","coordinates":[117.267894,39.114512]},"properties":{"full_address":"天津市天津市河东区上杭路街道大洋嘉园（15号楼、16号楼除外）、陆典庭园"}},{"type":"Feature","geometry":{"type":"Point","coordinates":[117.230126,39.0978]},"properties":{"full_address":"天津市天津市河西区挂甲寺街名仕达花园除8号楼之外的区域"}},{"type":"Feature","geometry":{"type":"Point","coordinates":[117.239233,39.092083]},"properties":{"full_address":"天津市天津市河西区挂甲寺街景兴西里、景兴里全域（除垃圾转运站）"}},{"type":"Feature","geometry":{"type":"Point","coordinates":[117.237497,39.095322]},"properties":{"full_address":"天津市天津市河西区挂甲寺街美宁公寓（除高风险区域外）、排水大楼合围区域"}},{"type":"Feature","geometry":{"type":"Point","coordinates":[117.229477,39.078185]},"properties":{"full_address":"天津市天津市河西区尖山街五一家园小区除8号楼以外的其他区域"}},{"type":"Feature","geometry":{"type":"Point","coordinates":[117.133568,39.141717]},"properties":{"full_address":"天津市天津市南开区向阳路街云阳里小区（除1号楼5门、6门外）"}},{"type":"Feature","geometry":{"type":"Point","coordinates":[117.181894,39.06634]},"properties":{"full_address":"天津市天津市南开区体育中心街阳光壹佰小区北区7号楼4门"}},{"type":"Feature","geometry":{"type":"Point","coordinates":[117.283108,39.123248]},"properties":{"full_address":"天津市天津市东丽区万新街万隆花园小区除高风险以外区域"}},{"type":"Feature","geometry":{"type":"Point","coordinates":[117.295912,39.111227]},"properties":{"full_address":"天津市天津市东丽区万新街好美嘉园小区4、5、11、12、13、14号楼"}},{"type":"Feature","geometry":{"type":"Point","coordinates":[117.306282,39.138714]},"properties":{"full_address":"天津市天津市东丽区万新街香邑国际小区2、5、7、8号楼"}},{"type":"Feature","geometry":{"type":"Point","coordinates":[117.27083,39.04791]},"properties":{"full_address":"天津市天津市津南区双林街泓春园10号楼、11号楼、13号楼、14号楼"}},{"type":"Feature","geometry":{"type":"Point","coordinates":[115.57344,38.87353]},"properties":{"full_address":"河北省保定市莲池区南起腾飞路、北至七一路、东起慕子医院（恒升路99号）、西至卓正国际酒店（七一东路2358号）合围区域"}},{"type":"Feature","geometry":{"type":"Point","coordinates":[115.435954,38.757644]},"properties":{"full_address":"河北省保定市清苑区白团乡东壁阳城村"}},{"type":"Feature","geometry":{"type":"Point","coordinates":[115.44762,38.74427]},"properties":{"full_address":"河北省保定市清苑区白团乡辛庄村"}},{"type":"Feature","geometry":{"type":"Point","coordinates":[117.776904,40.95381]},"properties":{"full_address":"河北省承德市双滦区锦绣城一区除11号楼以外的区域"}},{"type":"Feature","geometry":{"type":"Point","coordinates":[117.753059,40.959505]},"properties":{"full_address":"河北省承德市双滦区双塔山镇大龙庙村回迁楼除3号楼外其他楼宇"}},{"type":"Feature","geometry":{"type":"Point","coordinates":[117.711873,40.93777]},"properties":{"full_address":"河北省承德市双滦区西地镇八里庄村10组"}},{"type":"Feature","geometry":{"type":"Point","coordinates":[117.944974,40.895261]},"properties":{"full_address":"河北省承德市高新区冯营子村乡村大锅台（凤凰御景店）"}},{"type":"Feature","geometry":{"type":"Point","coordinates":[117.952082,40.892476]},"properties":{"full_address":"河北省承德市高新区润园朗园小区除朗园30号楼以外其他楼栋"}},{"type":"Feature","geometry":{"type":"Point","coordinates":[116.826839,40.043865]},"properties":{"full_address":"河北省廊坊市三河市嘉都小区（31号楼除外）"}},{"type":"Feature","geometry":{"type":"Point","coordinates":[118.954627,42.265186]},"properties":{"full_address":"内蒙古自治区赤峰市红山区哈达街西段路北118号所有经营场所"}},{"type":"Feature","geometry":{"type":"Point","coordinates":[119.477596,42.582123]},"properties":{"full_address":"内蒙古自治区赤峰市松山区哈拉道口学区中学"}},{"type":"Feature","geometry":{"type":"Point","coordinates":[119.344696,42.433139]},"properties":{"full_address":"内蒙古自治区赤峰市松山区安庆镇西域宾馆"}},{"type":"Feature","geometry":{"type":"Point","coordinates":[118.924246,42.273449]},"properties":{"full_address":"内蒙古自治区赤峰市松山区玉龙大街以北、契丹大街以南、松洲路以东、松城路以西整个片区除三个高风险区以外的区域"}},{"type":"Feature","geometry":{"type":"Point","coordinates":[118.929019,42.268288]},"properties":{"full_address":"内蒙古自治区赤峰市松山区松洲街道天王商务楼"}},{"type":"Feature","geometry":{"type":"Point","coordinates":[118.93418,42.28548]},"properties":{"full_address":"内蒙古自治区赤峰市松山区振兴街道永业广场"}},{"type":"Feature","geometry":{"type":"Point","coordinates":[119.343347,42.431247]},"properties":{"full_address":"内蒙古自治区赤峰市松山区安庆镇小北道村馨安小区"}},{"type":"Feature","geometry":{"type":"Point","coordinates":[120.097964,43.877284]},"properties":{"full_address":"内蒙古自治区赤峰市阿鲁科尔沁旗天山镇天元大街东桥东路北天山实验小学"}},{"type":"Feature","geometry":{"type":"Point","coordinates":[120.355676,43.771317]},"properties":{"full_address":"内蒙古自治区赤峰市阿鲁科尔沁旗天山口镇柳家段村"}},{"type":"Feature","geometry":{"type":"Point","coordinates":[120.109355,43.808673]},"properties":{"full_address":"内蒙古自治区赤峰市阿鲁科尔沁旗天山口镇八家村"}},{"type":"Feature","geometry":{"type":"Point","coordinates":[120.055312,43.872946]},"properties":{"full_address":"内蒙古自治区赤峰市阿鲁科尔沁旗汉林西街南天山一中"}},{"type":"Feature","geometry":{"type":"Point","coordinates":[119.65428,42.733059]},"properties":{"full_address":"内蒙古自治区赤峰市翁牛特旗乌敦套海镇强盛幼儿园"}},{"type":"Feature","geometry":{"type":"Point","coordinates":[119.653932,42.730888]},"properties":{"full_address":"内蒙古自治区赤峰市翁牛特旗乌敦套海镇红湖家园"}},{"type":"Feature","geometry":{"type":"Point","coordinates":[119.65202,42.724166]},"properties":{"full_address":"内蒙古自治区赤峰市翁牛特旗乌敦套海镇中心小学"}},{"type":"Feature","geometry":{"type":"Point","coordinates":[119.659349,42.732368]},"properties":{"full_address":"内蒙古自治区赤峰市翁牛特旗乌敦套海镇瑞海家园"}},{"type":"Feature","geometry":{"type":"Point","coordinates":[119.017597,42.935484]},"properties":{"full_address":"内蒙古自治区赤峰市翁牛特旗吉祥家园小区"}},{"type":"Feature","geometry":{"type":"Point","coordinates":[119.017597,42.935484]},"properties":{"full_address":"内蒙古自治区赤峰市翁牛特旗农业小区"}},{"type":"Feature","geometry":{"type":"Point","coordinates":[119.019687,42.940332]},"properties":{"full_address":"内蒙古自治区赤峰市翁牛特旗国税小区1号、2号、3号、4号楼"}},{"type":"Feature","geometry":{"type":"Point","coordinates":[119.016018,42.940028]},"properties":{"full_address":"内蒙古自治区赤峰市翁牛特旗车站小区"}},{"type":"Feature","geometry":{"type":"Point","coordinates":[119.00658,42.936188]},"properties":{"full_address":"内蒙古自治区赤峰市翁牛特旗开发办家属楼"}},{"type":"Feature","geometry":{"type":"Point","coordinates":[119.015848,42.941167]},"properties":{"full_address":"内蒙古自治区赤峰市翁牛特旗玉龙公馆"}},{"type":"Feature","geometry":{"type":"Point","coordinates":[119.016196,42.941418]},"properties":{"full_address":"内蒙古自治区赤峰市翁牛特旗邮电小区"}},{"type":"Feature","geometry":{"type":"Point","coordinates":[119.016016,42.941711]},"properties":{"full_address":"内蒙古自治区赤峰市翁牛特旗邮政小区"}},{"type":"Feature","geometry":{"type":"Point","coordinates":[119.015422,42.942174]},"properties":{"full_address":"内蒙古自治区赤峰市翁牛特旗金地人家5号楼"}},{"type":"Feature","geometry":{"type":"Point","coordinates":[119.015473,42.939576]},"properties":{"full_address":"内蒙古自治区赤峰市翁牛特旗玉龙家园"}},{"type":"Feature","geometry":{"type":"Point","coordinates":[119.025422,42.930424]},"properties":{"full_address":"内蒙古自治区赤峰市翁牛特旗乌丹第一幼儿园东侧平房区"}},{"type":"Feature","geometry":{"type":"Point","coordinates":[118.999735,42.939248]},"properties":{"full_address":"内蒙古自治区赤峰市翁牛特旗民政家园"}},{"type":"Feature","geometry":{"type":"Point","coordinates":[119.000123,42.937821]},"properties":{"full_address":"内蒙古自治区赤峰市翁牛特旗兴和家园小区"}},{"type":"Feature","geometry":{"type":"Point","coordinates":[118.998215,42.940216]},"properties":{"full_address":"内蒙古自治区赤峰市翁牛特旗天和盛景小区"}},{"type":"Feature","geometry":{"type":"Point","coordinates":[117.453074,49.598912]},"properties":{"full_address":"内蒙古自治区呼伦贝尔市满洲里市学子佳园内高风险以外的其他区域"}},{"type":"Feature","geometry":{"type":"Point","coordinates":[111.971663,43.642326]},"properties":{"full_address":"内蒙古自治区锡林郭勒盟二连浩特市桐桉君泰B区及南门街面商铺、北门街面商铺"}},{"type":"Feature","geometry":{"type":"Point","coordinates":[111.977943,43.65317]},"properties":{"full_address":"内蒙古自治区锡林郭勒盟二连浩特市铁路办公楼"}},{"type":"Feature","geometry":{"type":"Point","coordinates":[116.063667,43.944167]},"properties":{"full_address":"内蒙古自治区锡林郭勒盟锡林浩特市大业金河湾B区5号楼"}},{"type":"Feature","geometry":{"type":"Point","coordinates":[116.100455,43.962675]},"properties":{"full_address":"内蒙古自治区锡林郭勒盟锡林浩特市幸福社区小区17号楼"}},{"type":"Feature","geometry":{"type":"Point","coordinates":[116.100034,43.949346]},"properties":{"full_address":"内蒙古自治区锡林郭勒盟锡林浩特市玉玺小区2号楼"}},{"type":"Feature","geometry":{"type":"Point","coordinates":[116.110538,43.961215]},"properties":{"full_address":"内蒙古自治区锡林郭勒盟锡林浩特市公园首府小区15号楼"}},{"type":"Feature","geometry":{"type":"Point","coordinates":[116.10221,43.952801]},"properties":{"full_address":"内蒙古自治区锡林郭勒盟锡林浩特市双拥小区街面房富祥汽车电器电路修理店"}},{"type":"Feature","geometry":{"type":"Point","coordinates":[116.086017,43.927285]},"properties":{"full_address":"内蒙古自治区锡林郭勒盟锡林浩特市都市上苑小区9号楼"}},{"type":"Feature","geometry":{"type":"Point","coordinates":[116.106308,43.932168]},"properties":{"full_address":"内蒙古自治区锡林郭勒盟锡林浩特市万泰家园1号楼"}},{"type":"Feature","geometry":{"type":"Point","coordinates":[116.104056,43.934091]},"properties":{"full_address":"内蒙古自治区锡林郭勒盟锡林浩特市理想家园小区3号楼"}},{"type":"Feature","geometry":{"type":"Point","coordinates":[116.106498,43.945991]},"properties":{"full_address":"内蒙古自治区锡林郭勒盟锡林浩特市109干休所对面思宁汽车钣金喷漆店"}},{"type":"Feature","geometry":{"type":"Point","coordinates":[116.053522,43.920278]},"properties":{"full_address":"内蒙古自治区锡林郭勒盟锡林浩特市方悦名都D区4号楼"}},{"type":"Feature","geometry":{"type":"Point","coordinates":[116.065901,43.942026]},"properties":{"full_address":"内蒙古自治区锡林郭勒盟锡林浩特市大业金河湾D区26号楼"}},{"type":"Feature","geometry":{"type":"Point","coordinates":[116.086032,43.933411]},"properties":{"full_address":"内蒙古自治区锡林郭勒盟锡林浩特市二水厂家属楼"}},{"type":"Feature","geometry":{"type":"Point","coordinates":[116.046503,43.912108]},"properties":{"full_address":"内蒙古自治区锡林郭勒盟锡林浩特市方悦名都A区12号楼"}},{"type":"Feature","geometry":{"type":"Point","coordinates":[116.09699,43.953291]},"properties":{"full_address":"内蒙古自治区锡林郭勒盟锡林浩特市康盛嘉苑小区7号楼"}},{"type":"Feature","geometry":{"type":"Point","coordinates":[116.112422,43.946878]},"properties":{"full_address":"内蒙古自治区锡林郭勒盟锡林浩特市额办小区7号楼"}},{"type":"Feature","geometry":{"type":"Point","coordinates":[116.064637,43.917387]},"properties":{"full_address":"内蒙古自治区锡林郭勒盟锡林浩特市溪林湾小区31号楼"}},{"type":"Feature","geometry":{"type":"Point","coordinates":[116.063667,43.944167]},"properties":{"full_address":"内蒙古自治区锡林郭勒盟锡林浩特市大业金河湾B区"}},{"type":"Feature","geometry":{"type":"Point","coordinates":[116.065901,43.942026]},"properties":{"full_address":"内蒙古自治区锡林郭勒盟锡林浩特市大业金河湾D区"}},{"type":"Feature","geometry":{"type":"Point","coordinates":[116.061952,43.938945]},"properties":{"full_address":"内蒙古自治区锡林郭勒盟锡林浩特市南方小镇小区"}},{"type":"Feature","geometry":{"type":"Point","coordinates":[116.10715,43.964987]},"properties":{"full_address":"内蒙古自治区锡林郭勒盟锡林浩特市幸福社区小区"}},{"type":"Feature","geometry":{"type":"Point","coordinates":[116.096464,43.958625]},"properties":{"full_address":"内蒙古自治区锡林郭勒盟锡林浩特市长安丽景小区"}},{"type":"Feature","geometry":{"type":"Point","coordinates":[116.099189,43.949954]},"properties":{"full_address":"内蒙古自治区锡林郭勒盟锡林浩特市玉玺小区"}},{"type":"Feature","geometry":{"type":"Point","coordinates":[116.109495,43.961153]},"properties":{"full_address":"内蒙古自治区锡林郭勒盟锡林浩特市公园首府小区"}},{"type":"Feature","geometry":{"type":"Point","coordinates":[116.086017,43.927285]},"properties":{"full_address":"内蒙古自治区锡林郭勒盟锡林浩特市都市上苑小区"}},{"type":"Feature","geometry":{"type":"Point","coordinates":[116.107063,43.932285]},"properties":{"full_address":"内蒙古自治区锡林郭勒盟锡林浩特市万泰家园"}},{"type":"Feature","geometry":{"type":"Point","coordinates":[116.103649,43.934393]},"properties":{"full_address":"内蒙古自治区锡林郭勒盟锡林浩特市理想家园小区"}},{"type":"Feature","geometry":{"type":"Point","coordinates":[116.066722,43.918701]},"properties":{"full_address":"内蒙古自治区锡林郭勒盟锡林浩特市城上城小区"}},{"type":"Feature","geometry":{"type":"Point","coordinates":[116.044258,43.913998]},"properties":{"full_address":"内蒙古自治区锡林郭勒盟锡林浩特市方悦名都A区"}},{"type":"Feature","geometry":{"type":"Point","coordinates":[116.053522,43.920278]},"properties":{"full_address":"内蒙古自治区锡林郭勒盟锡林浩特市方悦名都D区"}},{"type":"Feature","geometry":{"type":"Point","coordinates":[116.063497,43.910066]},"properties":{"full_address":"内蒙古自治区锡林郭勒盟锡林浩特市鑫泰苑小区"}},{"type":"Feature","geometry":{"type":"Point","coordinates":[116.096672,43.952335]},"properties":{"full_address":"内蒙古自治区锡林郭勒盟锡林浩特市康盛嘉苑小区"}},{"type":"Feature","geometry":{"type":"Point","coordinates":[116.077806,43.923931]},"properties":{"full_address":"内蒙古自治区锡林郭勒盟锡林浩特市广达欣城小区"}},{"type":"Feature","geometry":{"type":"Point","coordinates":[116.112065,43.947463]},"properties":{"full_address":"内蒙古自治区锡林郭勒盟锡林浩特市额办小区"}},{"type":"Feature","geometry":{"type":"Point","coordinates":[116.086032,43.933411]},"properties":{"full_address":"内蒙古自治区锡林郭勒盟锡林浩特市康裕新苑小区"}},{"type":"Feature","geometry":{"type":"Point","coordinates":[116.065052,43.920037]},"properties":{"full_address":"内蒙古自治区锡林郭勒盟锡林浩特市富丽华庭小区"}},{"type":"Feature","geometry":{"type":"Point","coordinates":[116.064547,43.915543]},"properties":{"full_address":"内蒙古自治区锡林郭勒盟锡林浩特市溪林湾小区"}},{"type":"Feature","geometry":{"type":"Point","coordinates":[116.077218,43.952106]},"properties":{"full_address":"内蒙古自治区锡林郭勒盟锡林浩特市紫藤花园西区5号楼"}},{"type":"Feature","geometry":{"type":"Point","coordinates":[116.077469,43.952523]},"properties":{"full_address":"内蒙古自治区锡林郭勒盟锡林浩特市紫藤花园小区"}},{"type":"Feature","geometry":{"type":"Point","coordinates":[116.086032,43.933411]},"properties":{"full_address":"内蒙古自治区锡林郭勒盟锡林浩特市信合小区"}},{"type":"Feature","geometry":{"type":"Point","coordinates":[121.651876,38.898134]},"properties":{"full_address":"辽宁省大连市中山区葵英街道文明巷（39-42号）"}},{"type":"Feature","geometry":{"type":"Point","coordinates":[121.593,38.937661]},"properties":{"full_address":"辽宁省大连市西岗区香炉礁街道金海社区香水湾5号"}},{"type":"Feature","geometry":{"type":"Point","coordinates":[123.283921,40.289689]},"properties":{"full_address":"辽宁省鞍山市岫岩满族自治县阜昌街道办事处越都华庭小区"}},{"type":"Feature","geometry":{"type":"Point","coordinates":[125.302081,43.793921]},"properties":{"full_address":"吉林省长春市南关区幸福乡吉森漫桦林二期9栋"}},{"type":"Feature","geometry":{"type":"Point","coordinates":[125.487103,43.871647]},"properties":{"full_address":"吉林省长春市二道区长春市传染病医院B栋"}},{"type":"Feature","geometry":{"type":"Point","coordinates":[125.655528,43.511944]},"properties":{"full_address":"吉林省长春市双阳区云山街道阳光安居小区3栋"}},{"type":"Feature","geometry":{"type":"Point","coordinates":[125.654929,43.512107]},"properties":{"full_address":"吉林省长春市双阳区云山街道阳光安居小区1、2栋"}},{"type":"Feature","geometry":{"type":"Point","coordinates":[125.660809,43.532061]},"properties":{"full_address":"吉林省长春市双阳区云山街道城市嘉园二期66号楼"}},{"type":"Feature","geometry":{"type":"Point","coordinates":[125.671886,43.528497]},"properties":{"full_address":"吉林省长春市双阳区云山街道石桥社区葡京市场"}},{"type":"Feature","geometry":{"type":"Point","coordinates":[123.205323,47.338665]},"properties":{"full_address":"黑龙江省齐齐哈尔市龙江县世纪九鼎小区4号楼、6—10号楼"}},{"type":"Feature","geometry":{"type":"Point","coordinates":[125.003171,46.577707]},"properties":{"full_address":"黑龙江省大庆市萨尔图区萨尔图街道萨环东路以南、勤奋南路以西、南一路以北、萨大北路以东建材市场、陶瓷大市场、石材市场所属区域"}},{"type":"Feature","geometry":{"type":"Point","coordinates":[125.130808,46.610154]},"properties":{"full_address":"黑龙江省大庆市萨尔图区（高新区）黎明街道学伟大街沿湖城翠江湾A座"}},{"type":"Feature","geometry":{"type":"Point","coordinates":[125.123578,46.592079]},"properties":{"full_address":"黑龙江省大庆市萨尔图区东安街道东安新村三区东安小区（不含3-38号楼）"}},{"type":"Feature","geometry":{"type":"Point","coordinates":[125.121001,46.618135]},"properties":{"full_address":"黑龙江省大庆市萨尔图区格林街道唐宁杰座小区09号楼"}},{"type":"Feature","geometry":{"type":"Point","coordinates":[125.124932,46.576763]},"properties":{"full_address":"黑龙江省大庆市萨尔图区（高新区）黎明街道东风路维也纳音乐花园南郡A03号楼"}},{"type":"Feature","geometry":{"type":"Point","coordinates":[125.107146,46.607646]},"properties":{"full_address":"黑龙江省大庆市萨尔图区绿园街道北辰一区1-43号楼"}},{"type":"Feature","geometry":{"type":"Point","coordinates":[125.110412,46.59175]},"properties":{"full_address":"黑龙江省大庆市萨尔图区东风街道东风新村新星小区D组团1-37号楼"}},{"type":"Feature","geometry":{"type":"Point","coordinates":[125.115627,46.601515]},"properties":{"full_address":"黑龙江省大庆市萨尔图区东风街道东风新村新源小区B组团2-56号楼"}},{"type":"Feature","geometry":{"type":"Point","coordinates":[125.14616,46.568744]},"properties":{"full_address":"黑龙江省大庆市萨尔图区（高新区）黎明街道创业新街宝利丰大厦"}},{"type":"Feature","geometry":{"type":"Point","coordinates":[125.10019,46.602059]},"properties":{"full_address":"黑龙江省大庆市萨尔图区东风街道东风新村新星小区E组团内高风险区域以外其他区域"}},{"type":"Feature","geometry":{"type":"Point","coordinates":[125.161362,46.589081]},"properties":{"full_address":"黑龙江省大庆市萨尔图区（高新区）黎明街道博学大街联想科技城小区（不含B7号楼、C5号楼及周边商服、B2号楼、B3号楼、C2号楼及周边商服）"}},{"type":"Feature","geometry":{"type":"Point","coordinates":[125.121514,46.586437]},"properties":{"full_address":"黑龙江省大庆市萨尔图区东风街道东风社区卫生服务中心"}},{"type":"Feature","geometry":{"type":"Point","coordinates":[125.120165,46.605059]},"properties":{"full_address":"黑龙江省大庆市萨尔图区东安街道安惠小区E组团5-20号楼"}},{"type":"Feature","geometry":{"type":"Point","coordinates":[125.09476,46.594248]},"properties":{"full_address":"黑龙江省大庆市萨尔图区（高新区）黎明街道新阳路丽都佳苑3号楼、4号楼"}},{"type":"Feature","geometry":{"type":"Point","coordinates":[124.874717,46.702411]},"properties":{"full_address":"黑龙江省大庆市萨尔图区（高新区）黎明街道秀水路150号高端装备制造园B13号厂房（大庆博翼物流有限公司）"}},{"type":"Feature","geometry":{"type":"Point","coordinates":[125.138713,46.581164]},"properties":{"full_address":"黑龙江省大庆市萨尔图区（高新区）黎明街道禾丰路爱马仕名马基地保安亭（东经125.200402、北纬46.571384）"}},{"type":"Feature","geometry":{"type":"Point","coordinates":[125.027769,46.601347]},"properties":{"full_address":"黑龙江省大庆市萨尔图区会战街道利民苑小区（不含9号楼）"}},{"type":"Feature","geometry":{"type":"Point","coordinates":[124.916647,46.634319]},"properties":{"full_address":"黑龙江省大庆市萨尔图区（高新区）黎明街道新发街兴荣工业园厂房周边围栏以内区域（含厂房西侧办公楼）"}},{"type":"Feature","geometry":{"type":"Point","coordinates":[125.122203,46.620018]},"properties":{"full_address":"黑龙江省大庆市萨尔图区格林街道香逸名苑小区三期3号楼、8号楼"}},{"type":"Feature","geometry":{"type":"Point","coordinates":[125.118789,46.624821]},"properties":{"full_address":"黑龙江省大庆市萨尔图区格林街道唯美主邑小区C13号楼"}},{"type":"Feature","geometry":{"type":"Point","coordinates":[125.102462,46.596307]},"properties":{"full_address":"黑龙江省大庆市萨尔图区东风街道纬二路优根口腔所在商服楼栋（新星小区F组团南侧）"}},{"type":"Feature","geometry":{"type":"Point","coordinates":[125.118147,46.615454]},"properties":{"full_address":"黑龙江省大庆市萨尔图区绿园街道百湖花园小区A07号楼"}},{"type":"Feature","geometry":{"type":"Point","coordinates":[125.099478,46.602527]},"properties":{"full_address":"黑龙江省大庆市萨尔图区绿园街道益民小区11号楼"}},{"type":"Feature","geometry":{"type":"Point","coordinates":[125.146174,46.565945]},"properties":{"full_address":"黑龙江省大庆市萨尔图区（高新区）黎明街道创业新街满满海鲜饭店所属栋楼（乾和城小区东侧）"}},{"type":"Feature","geometry":{"type":"Point","coordinates":[125.173382,46.566905]},"properties":{"full_address":"黑龙江省大庆市萨尔图区（高新区）黎明街道阳光东街融公馆小区18号楼"}},{"type":"Feature","geometry":{"type":"Point","coordinates":[125.127304,46.594009]},"properties":{"full_address":"黑龙江省大庆市萨尔图区东安街道广源步行街B5商服"}},{"type":"Feature","geometry":{"type":"Point","coordinates":[125.106512,46.598914]},"properties":{"full_address":"黑龙江省大庆市萨尔图区东风街道新源小区E组团2-9号楼"}},{"type":"Feature","geometry":{"type":"Point","coordinates":[125.108714,46.589929]},"properties":{"full_address":"黑龙江省大庆市萨尔图区东风街道文华小区8-4号楼"}},{"type":"Feature","geometry":{"type":"Point","coordinates":[125.130176,46.603604]},"properties":{"full_address":"黑龙江省大庆市萨尔图区（高新区）黎明街道学伟大街沿湖城御景湾C座"}},{"type":"Feature","geometry":{"type":"Point","coordinates":[125.138713,46.581164]},"properties":{"full_address":"黑龙江省大庆市萨尔图区（高新区）黎明街道新发街兴荣工业园厂房南侧围栏边三个板房（东经125.181938，北纬46.574525）"}},{"type":"Feature","geometry":{"type":"Point","coordinates":[125.190894,46.59244]},"properties":{"full_address":"黑龙江省大庆市萨尔图区（高新区）黎明街道新发街以东、新航路以南、禾丰路以北、翔安大街以西合围区域内高风险区域以外其他区域"}},{"type":"Feature","geometry":{"type":"Point","coordinates":[125.128509,46.624688]},"properties":{"full_address":"黑龙江省大庆市萨尔图区东安街道东风新村安惠小区A组团（不含3-13号楼）"}},{"type":"Feature","geometry":{"type":"Point","coordinates":[125.14705,46.565503]},"properties":{"full_address":"黑龙江省大庆市萨尔图区（高新区）黎明街道安萨路玖玺首府小区（不含Y10号楼）"}},{"type":"Feature","geometry":{"type":"Point","coordinates":[125.145966,46.570153]},"properties":{"full_address":"黑龙江省大庆市萨尔图区（高新区）黎明街道新科路融创中央学府小区（不含10号楼）"}},{"type":"Feature","geometry":{"type":"Point","coordinates":[125.117805,46.58812]},"properties":{"full_address":"黑龙江省大庆市萨尔图区东安街道府明小区（新村七区）"}},{"type":"Feature","geometry":{"type":"Point","coordinates":[125.127805,46.620281]},"properties":{"full_address":"黑龙江省大庆市萨尔图区格林街道格林小镇小区二期内高风险区域以外其他区域"}},{"type":"Feature","geometry":{"type":"Point","coordinates":[125.099163,46.578353]},"properties":{"full_address":"黑龙江省大庆市萨尔图区万宝街道奥维馨苑小区含周边商服（不含201栋楼、213号楼、223号楼）"}},{"type":"Feature","geometry":{"type":"Point","coordinates":[125.121194,46.614231]},"properties":{"full_address":"黑龙江省大庆市萨尔图区绿园街道兰德湖壹号小区（不含B12号楼、D13号楼)"}},{"type":"Feature","geometry":{"type":"Point","coordinates":[125.112562,46.602968]},"properties":{"full_address":"黑龙江省大庆市萨尔图区东风街道东风新村新源小区F组团南、西、北区内高风险区域以外其他区域（南、西、北区组成全域）"}},{"type":"Feature","geometry":{"type":"Point","coordinates":[125.111517,46.601413]},"properties":{"full_address":"黑龙江省大庆市萨尔图区东风街道东风新村新源小区A组团（不含2-26号楼）"}},{"type":"Feature","geometry":{"type":"Point","coordinates":[125.162294,46.631382]},"properties":{"full_address":"黑龙江省大庆市萨尔图区（高新区）黎明街道生态大街爱莲堡花园小区"}},{"type":"Feature","geometry":{"type":"Point","coordinates":[125.122312,46.620644]},"properties":{"full_address":"黑龙江省大庆市萨尔图区格林街道香逸名苑小区一二期B5号楼"}},{"type":"Feature","geometry":{"type":"Point","coordinates":[125.12507,46.608666]},"properties":{"full_address":"黑龙江省大庆市萨尔图区绿园街道绿色家园小区（除S15号楼外）"}},{"type":"Feature","geometry":{"type":"Point","coordinates":[125.161004,46.617912]},"properties":{"full_address":"黑龙江省大庆市萨尔图区（高新区）黎明街道博学大街滨州华府小区"}},{"type":"Feature","geometry":{"type":"Point","coordinates":[125.16186,46.594789]},"properties":{"full_address":"黑龙江省大庆市萨尔图区（高新区）黎明街道博学大街新城御景B区（不含B01号楼）"}},{"type":"Feature","geometry":{"type":"Point","coordinates":[125.160421,46.61381]},"properties":{"full_address":"黑龙江省大庆市萨尔图区（高新区）黎明街道生态大街新城枫景小区"}},{"type":"Feature","geometry":{"type":"Point","coordinates":[125.164604,46.628883]},"properties":{"full_address":"黑龙江省大庆市萨尔图区（高新区）黎明街道东至火炬新街，南至世纪大道，西至学伟大街，北至科技路的合围区域（不含区域内高风险区域和人民医院）"}},{"type":"Feature","geometry":{"type":"Point","coordinates":[125.129342,46.578254]},"properties":{"full_address":"黑龙江省大庆市萨尔图区（高新区）黎明街道东至学伟大街，南至世纪大道，西至建行街，北至纬二路的合围区域（不含区域内高风险区域）"}},{"type":"Feature","geometry":{"type":"Point","coordinates":[125.16291,46.613192]},"properties":{"full_address":"黑龙江省大庆市萨尔图区（高新区）黎明街道恒祥街银河太阳城小区全域"}},{"type":"Feature","geometry":{"type":"Point","coordinates":[125.106441,46.596359]},"properties":{"full_address":"黑龙江省大庆市萨尔图区东风街道东风新村新星小区A组团（一区）1-3号楼、1-14号楼"}},{"type":"Feature","geometry":{"type":"Point","coordinates":[125.161675,46.588765]},"properties":{"full_address":"黑龙江省大庆市萨尔图区（高新区）黎明街道博学大街联想科技城小区B2号楼、B3号楼"}},{"type":"Feature","geometry":{"type":"Point","coordinates":[125.109146,46.571597]},"properties":{"full_address":"黑龙江省大庆市龙凤区三永街道瀚城景苑C01商业楼"}},{"type":"Feature","geometry":{"type":"Point","coordinates":[125.144701,46.555263]},"properties":{"full_address":"黑龙江省大庆市龙凤区龙政街道恒大御湖庄园2号楼"}},{"type":"Feature","geometry":{"type":"Point","coordinates":[125.109389,46.548944]},"properties":{"full_address":"黑龙江省大庆市龙凤区三永街道澳龙小区内高风险区域以外其他区域"}},{"type":"Feature","geometry":{"type":"Point","coordinates":[125.125504,46.514835]},"properties":{"full_address":"黑龙江省大庆市龙凤区龙凤街道湿地福苑小区内高风险区域以外其他区域"}},{"type":"Feature","geometry":{"type":"Point","coordinates":[125.162068,46.545157]},"properties":{"full_address":"黑龙江省大庆市龙凤区湿地街道欣凤学城二期"}},{"type":"Feature","geometry":{"type":"Point","coordinates":[125.146681,46.54654]},"properties":{"full_address":"黑龙江省大庆市龙凤区湿地街道汇宏悦澜湾小区内除高风险区域以外其他区域"}},{"type":"Feature","geometry":{"type":"Point","coordinates":[125.112105,46.530118]},"properties":{"full_address":"黑龙江省大庆市龙凤区龙凤街道厂前北小区内除高风险区域以外其他区域"}},{"type":"Feature","geometry":{"type":"Point","coordinates":[125.030114,46.528305]},"properties":{"full_address":"黑龙江省大庆市龙凤区龙凤镇向阳村向阳大屯所属全域"}},{"type":"Feature","geometry":{"type":"Point","coordinates":[125.143283,46.5507]},"properties":{"full_address":"黑龙江省大庆市龙凤区龙政街道东城领秀D区内高风险区域以外其他区域"}},{"type":"Feature","geometry":{"type":"Point","coordinates":[125.162068,46.545157]},"properties":{"full_address":"黑龙江省大庆市龙凤区湿地街道欣凤学城A区内高风险区域以外其他区域"}},{"type":"Feature","geometry":{"type":"Point","coordinates":[125.186564,46.433222]},"properties":{"full_address":"黑龙江省大庆市龙凤区龙凤镇建兴村于江屯全域"}},{"type":"Feature","geometry":{"type":"Point","coordinates":[125.145911,46.5227]},"properties":{"full_address":"黑龙江省大庆市龙凤区龙凤镇铁东村三屯全域"}},{"type":"Feature","geometry":{"type":"Point","coordinates":[125.113822,46.530627]},"properties":{"full_address":"黑龙江省大庆市龙凤区龙凤街道厂前小区86号楼"}},{"type":"Feature","geometry":{"type":"Point","coordinates":[125.124128,46.509297]},"properties":{"full_address":"黑龙江省大庆市龙凤区龙凤镇建兴村陈俭屯、王大愣屯、新立屯全域"}},{"type":"Feature","geometry":{"type":"Point","coordinates":[125.146359,46.528718]},"properties":{"full_address":"黑龙江省大庆市龙凤区龙凤镇铁东村1屯、2屯全域"}},{"type":"Feature","geometry":{"type":"Point","coordinates":[125.126944,46.513354]},"properties":{"full_address":"黑龙江省大庆市龙凤区龙凤街道千祥雅苑3号楼"}},{"type":"Feature","geometry":{"type":"Point","coordinates":[125.141949,46.559289]},"properties":{"full_address":"黑龙江省大庆市龙凤区龙政街道华溪龙城一期12号楼"}},{"type":"Feature","geometry":{"type":"Point","coordinates":[125.152969,46.542564]},"properties":{"full_address":"黑龙江省大庆市龙凤区湿地街道聚福园20号楼"}},{"type":"Feature","geometry":{"type":"Point","coordinates":[125.139273,46.55541]},"properties":{"full_address":"黑龙江省大庆市龙凤区龙政街道东城领秀华彩园内除高风险区域以外其他区域"}},{"type":"Feature","geometry":{"type":"Point","coordinates":[125.118714,46.575097]},"properties":{"full_address":"黑龙江省大庆市龙凤区三永街道瀚城名苑内除高风险区域以外其他区域"}},{"type":"Feature","geometry":{"type":"Point","coordinates":[125.144701,46.555263]},"properties":{"full_address":"黑龙江省大庆市龙凤区龙政街道滨海花园小区内除高风险区域以外其他区域"}},{"type":"Feature","geometry":{"type":"Point","coordinates":[125.133459,46.558145]},"properties":{"full_address":"黑龙江省大庆市龙凤区东城领秀百邦超市南侧壁至刘涛牛羊肉店和叫了个鸡商服之间区域"}},{"type":"Feature","geometry":{"type":"Point","coordinates":[125.136597,46.557522]},"properties":{"full_address":"黑龙江省大庆市龙凤区龙政街道东城领秀A区内除高风险区域以外其他区域"}},{"type":"Feature","geometry":{"type":"Point","coordinates":[125.121023,46.54538]},"properties":{"full_address":"黑龙江省大庆市龙凤区三永街道瑞安花园小区内除高风险区域以外其他区域"}},{"type":"Feature","geometry":{"type":"Point","coordinates":[125.109389,46.548944]},"properties":{"full_address":"黑龙江省大庆市龙凤区三永街道澳龙小区一家美超市两侧、前方硬封闭管理区域居民楼"}},{"type":"Feature","geometry":{"type":"Point","coordinates":[125.065523,46.560796]},"properties":{"full_address":"黑龙江省大庆市龙凤区东光街道东光小区1-2号楼"}},{"type":"Feature","geometry":{"type":"Point","coordinates":[125.152298,46.552874]},"properties":{"full_address":"黑龙江省大庆市龙凤区龙政街道云水清园小区内除高风险区域以外其他区域"}},{"type":"Feature","geometry":{"type":"Point","coordinates":[125.111948,46.529326]},"properties":{"full_address":"黑龙江省大庆市龙凤区龙凤街道厂前16栋小区内除高风险区域以外其他区域"}},{"type":"Feature","geometry":{"type":"Point","coordinates":[125.087484,46.511266]},"properties":{"full_address":"黑龙江省大庆市龙凤区龙凤街道厂西30号楼小区内除高风险区域以外其他区域"}},{"type":"Feature","geometry":{"type":"Point","coordinates":[125.131112,46.586689]},"properties":{"full_address":"黑龙江省大庆市龙凤区三永街道瀚城景苑小区内除高风险区域以外其他区域"}},{"type":"Feature","geometry":{"type":"Point","coordinates":[125.162663,46.547458]},"properties":{"full_address":"黑龙江省大庆市龙凤区湿地街道欣凤学城A14号楼"}},{"type":"Feature","geometry":{"type":"Point","coordinates":[125.121671,46.532166]},"properties":{"full_address":"黑龙江省大庆市龙凤区龙凤街道龙祥小区内除高风险区域以外其他区域"}},{"type":"Feature","geometry":{"type":"Point","coordinates":[125.138014,46.5607]},"properties":{"full_address":"黑龙江省大庆市龙凤区龙凤街道华溪龙城二期小区内除高风险区域以外其他区域"}},{"type":"Feature","geometry":{"type":"Point","coordinates":[125.099632,46.576812]},"properties":{"full_address":"黑龙江省大庆市龙凤区三永街道昌升地区（万峰路以北，热源街以东，龙泽路以南，凤顺街以西包围范围）"}},{"type":"Feature","geometry":{"type":"Point","coordinates":[125.117209,46.514509]},"properties":{"full_address":"黑龙江省大庆市龙凤区龙凤镇保田村全域"}},{"type":"Feature","geometry":{"type":"Point","coordinates":[125.098022,46.517185]},"properties":{"full_address":"黑龙江省大庆市龙凤区东光街道凯旋城小区全域"}},{"type":"Feature","geometry":{"type":"Point","coordinates":[125.116459,46.532626]},"properties":{"full_address":"黑龙江省大庆市龙凤区龙凤街道街园小区全域"}},{"type":"Feature","geometry":{"type":"Point","coordinates":[125.119564,46.520398]},"properties":{"full_address":"黑龙江省大庆市龙凤区龙凤街道24栋小区全域"}},{"type":"Feature","geometry":{"type":"Point","coordinates":[125.120086,46.517854]},"properties":{"full_address":"黑龙江省大庆市龙凤区龙凤街道阳光俊园小区全域"}},{"type":"Feature","geometry":{"type":"Point","coordinates":[125.124989,46.52345]},"properties":{"full_address":"黑龙江省大庆市龙凤区龙凤街道龙华佳苑小区全域"}},{"type":"Feature","geometry":{"type":"Point","coordinates":[125.095657,46.517587]},"properties":{"full_address":"黑龙江省大庆市龙凤区东光街道炼建小区全域"}},{"type":"Feature","geometry":{"type":"Point","coordinates":[125.125311,46.525824]},"properties":{"full_address":"黑龙江省大庆市龙凤区龙凤街道龙滨苑小区全域"}},{"type":"Feature","geometry":{"type":"Point","coordinates":[125.13192,46.551731]},"properties":{"full_address":"黑龙江省大庆市龙凤区龙政街道东城领秀C区小区全域"}},{"type":"Feature","geometry":{"type":"Point","coordinates":[125.142019,46.557057]},"properties":{"full_address":"黑龙江省大庆市龙凤区龙政街道华溪龙城三期小区全域"}},{"type":"Feature","geometry":{"type":"Point","coordinates":[125.147373,46.573558]},"properties":{"full_address":"黑龙江省大庆市龙凤区兴化街道乙烯五区小区全域"}},{"type":"Feature","geometry":{"type":"Point","coordinates":[125.147373,46.573558]},"properties":{"full_address":"黑龙江省大庆市龙凤区兴化街道乙烯九区小区全域"}},{"type":"Feature","geometry":{"type":"Point","coordinates":[125.212365,46.472128]},"properties":{"full_address":"黑龙江省大庆市龙凤区卧里屯街道筑安二委小区全域"}},{"type":"Feature","geometry":{"type":"Point","coordinates":[125.119822,46.529999]},"properties":{"full_address":"黑龙江省大庆市龙凤区卧里屯街道陆达商住楼小区全域"}},{"type":"Feature","geometry":{"type":"Point","coordinates":[125.124989,46.52345]},"properties":{"full_address":"黑龙江省大庆市龙凤区龙凤镇永泉佳苑小区全域"}},{"type":"Feature","geometry":{"type":"Point","coordinates":[125.233883,46.462011]},"properties":{"full_address":"黑龙江省大庆市龙凤区龙凤镇英勇村全域"}},{"type":"Feature","geometry":{"type":"Point","coordinates":[124.892934,46.621343]},"properties":{"full_address":"黑龙江省大庆市龙凤区东光街道怡园小区全域"}},{"type":"Feature","geometry":{"type":"Point","coordinates":[125.114822,46.531264]},"properties":{"full_address":"黑龙江省大庆市龙凤区龙凤镇湖韵新村小区全域"}},{"type":"Feature","geometry":{"type":"Point","coordinates":[125.086931,46.547934]},"properties":{"full_address":"黑龙江省大庆市龙凤区东光街道冠庆小区全域"}},{"type":"Feature","geometry":{"type":"Point","coordinates":[125.092566,46.541332]},"properties":{"full_address":"黑龙江省大庆市龙凤区东光街道龙北小区全域"}},{"type":"Feature","geometry":{"type":"Point","coordinates":[125.115713,46.536134]},"properties":{"full_address":"黑龙江省大庆市龙凤区龙凤街道凤祥小区全域"}},{"type":"Feature","geometry":{"type":"Point","coordinates":[125.041044,46.513427]},"properties":{"full_address":"黑龙江省大庆市龙凤区光明园区内除高风险区域以外其他区域"}},{"type":"Feature","geometry":{"type":"Point","coordinates":[125.09723,46.542562]},"properties":{"full_address":"黑龙江省大庆市龙凤区龙凤街道凤阳一区内除高风险区域以外其他区域"}},{"type":"Feature","geometry":{"type":"Point","coordinates":[125.122163,46.526375]},"properties":{"full_address":"黑龙江省大庆市龙凤区龙凤街道建成小区内除高风险区域以外其他区域"}},{"type":"Feature","geometry":{"type":"Point","coordinates":[125.108027,46.535235]},"properties":{"full_address":"黑龙江省大庆市龙凤区龙凤街道凤阳三区内除高风险区域以外其他区域"}},{"type":"Feature","geometry":{"type":"Point","coordinates":[125.115138,46.548694]},"properties":{"full_address":"黑龙江省大庆市龙凤区三永街道御湖湾小区内除高风险区域以外其他区域"}},{"type":"Feature","geometry":{"type":"Point","coordinates":[125.053258,46.498325]},"properties":{"full_address":"黑龙江省大庆市龙凤区农批城全域"}},{"type":"Feature","geometry":{"type":"Point","coordinates":[125.157377,46.537217]},"properties":{"full_address":"黑龙江省大庆市龙凤区湿地街道英伦三岛E19号楼"}},{"type":"Feature","geometry":{"type":"Point","coordinates":[125.141947,46.557775]},"properties":{"full_address":"黑龙江省大庆市龙凤区龙凤街道二物业小区全域"}},{"type":"Feature","geometry":{"type":"Point","coordinates":[125.117977,46.534987]},"properties":{"full_address":"黑龙江省大庆市龙凤区龙凤街道铁路小区全域"}},{"type":"Feature","geometry":{"type":"Point","coordinates":[125.12049,46.531206]},"properties":{"full_address":"黑龙江省大庆市龙凤区龙凤街道建安小区全域"}},{"type":"Feature","geometry":{"type":"Point","coordinates":[125.120132,46.52892]},"properties":{"full_address":"黑龙江省大庆市龙凤区龙凤街道龙安新苑小区全域"}},{"type":"Feature","geometry":{"type":"Point","coordinates":[125.077147,46.512851]},"properties":{"full_address":"黑龙江省大庆市龙凤区东光街道沁园小区全域"}},{"type":"Feature","geometry":{"type":"Point","coordinates":[125.037014,46.512401]},"properties":{"full_address":"黑龙江省大庆市龙凤区东光街道光明小区全域"}},{"type":"Feature","geometry":{"type":"Point","coordinates":[125.113178,46.533183]},"properties":{"full_address":"黑龙江省大庆市龙凤区龙凤街道热电一村小区全域"}},{"type":"Feature","geometry":{"type":"Point","coordinates":[125.12049,46.531206]},"properties":{"full_address":"黑龙江省大庆市龙凤区龙凤街道龙化小区全域"}},{"type":"Feature","geometry":{"type":"Point","coordinates":[125.108201,46.5249]},"properties":{"full_address":"黑龙江省大庆市龙凤区龙凤街道万隆家园小区全域"}},{"type":"Feature","geometry":{"type":"Point","coordinates":[125.117326,46.522197]},"properties":{"full_address":"黑龙江省大庆市龙凤区龙凤街道大家乐小区全域"}},{"type":"Feature","geometry":{"type":"Point","coordinates":[125.124989,46.52345]},"properties":{"full_address":"黑龙江省大庆市龙凤区龙凤街道龙凤佳苑小区全域"}},{"type":"Feature","geometry":{"type":"Point","coordinates":[125.131705,46.523667]},"properties":{"full_address":"黑龙江省大庆市龙凤区龙凤街道吉祥馨苑小区全域"}},{"type":"Feature","geometry":{"type":"Point","coordinates":[125.122681,46.543306]},"properties":{"full_address":"黑龙江省大庆市龙凤区龙政街道经纬小区内除高风险区域以外其他区域"}},{"type":"Feature","geometry":{"type":"Point","coordinates":[125.143826,46.541136]},"properties":{"full_address":"黑龙江省大庆市龙凤区湿地街道恒大绿洲小区全域"}},{"type":"Feature","geometry":{"type":"Point","coordinates":[125.168386,46.545918]},"properties":{"full_address":"黑龙江省大庆市龙凤区湿地街道居然花园小区全域"}},{"type":"Feature","geometry":{"type":"Point","coordinates":[124.880678,46.615389]},"properties":{"full_address":"黑龙江省大庆市让胡路区远望二社区12号楼栋"}},{"type":"Feature","geometry":{"type":"Point","coordinates":[124.869397,46.653258]},"properties":{"full_address":"黑龙江省大庆市让胡路区奋斗七区34号楼"}},{"type":"Feature","geometry":{"type":"Point","coordinates":[124.894798,46.571456]},"properties":{"full_address":"黑龙江省大庆市让胡路区东湖小区10区35号楼"}},{"type":"Feature","geometry":{"type":"Point","coordinates":[124.853703,46.621259]},"properties":{"full_address":"黑龙江省大庆市让胡路区富强新城J区3号楼旁平房"}},{"type":"Feature","geometry":{"type":"Point","coordinates":[124.888462,46.619109]},"properties":{"full_address":"黑龙江省大庆市让胡路区怡园小区3-6号楼"}},{"type":"Feature","geometry":{"type":"Point","coordinates":[124.89232,46.5742]},"properties":{"full_address":"黑龙江省大庆市让胡路区东湖祥诚商贸中心商服楼南侧世一大药房至春燕五金商店范围内包括1层、2层（范围包含南侧世一大药房、春燕五金商店）"}},{"type":"Feature","geometry":{"type":"Point","coordinates":[124.896706,46.608421]},"properties":{"full_address":"黑龙江省大庆市让胡路区北方建材装饰城20号楼"}},{"type":"Feature","geometry":{"type":"Point","coordinates":[124.878169,46.66393]},"properties":{"full_address":"黑龙江省大庆市让胡路区北湖馨苑小区区域内高风险区域以外其他区域"}},{"type":"Feature","geometry":{"type":"Point","coordinates":[124.81893,46.602038]},"properties":{"full_address":"黑龙江省大庆市让胡路区喇嘛甸镇宏伟村六屯"}},{"type":"Feature","geometry":{"type":"Point","coordinates":[124.894798,46.571456]},"properties":{"full_address":"黑龙江省大庆市让胡路区东湖街道东湖小区11区内除高风险区域以外其他区域"}},{"type":"Feature","geometry":{"type":"Point","coordinates":[124.894798,46.571456]},"properties":{"full_address":"黑龙江省大庆市让胡路区东湖街道东湖小区8区内除高风险区域以外其他区域"}},{"type":"Feature","geometry":{"type":"Point","coordinates":[124.891245,46.603198]},"properties":{"full_address":"黑龙江省大庆市让胡路区西宾街道银亿阳光城A区内除高风险区域以外其他区域"}},{"type":"Feature","geometry":{"type":"Point","coordinates":[124.906499,46.6071]},"properties":{"full_address":"黑龙江省大庆市让胡路区未来城小区12号楼、15号楼、21号楼、26号楼、33号楼、35号楼"}},{"type":"Feature","geometry":{"type":"Point","coordinates":[124.916389,46.743602]},"properties":{"full_address":"黑龙江省大庆市让胡路区采油六厂新欣小区9-1号楼"}},{"type":"Feature","geometry":{"type":"Point","coordinates":[127.495305,50.248657]},"properties":{"full_address":"黑龙江省黑河市爱辉区兴安街道金融社区迎恩路47号"}},{"type":"Feature","geometry":{"type":"Point","coordinates":[127.495517,50.248743]},"properties":{"full_address":"黑龙江省黑河市爱辉区兴林街110号"}},{"type":"Feature","geometry":{"type":"Point","coordinates":[127.507164,50.245325]},"properties":{"full_address":"黑龙江省黑河市爱辉区黑河市第六小学校园（不含教学楼）"}},{"type":"Feature","geometry":{"type":"Point","coordinates":[127.507164,50.245325]},"properties":{"full_address":"黑龙江省黑河市爱辉区黑河市第六小学校园正门两侧公园路上门市（共14家）及北侧巷道内门市（共1家）"}},{"type":"Feature","geometry":{"type":"Point","coordinates":[127.516792,50.235275]},"properties":{"full_address":"黑龙江省黑河市爱辉区警苑小区2号楼附属门市、警苑小区1号楼、警苑小区1号楼附属门市"}},{"type":"Feature","geometry":{"type":"Point","coordinates":[127.524507,50.235899]},"properties":{"full_address":"黑龙江省黑河市爱辉区花园街道博文社区亮城家园小区除七号楼以外楼宇(含小区邻街门市)"}},{"type":"Feature","geometry":{"type":"Point","coordinates":[127.519015,50.229901]},"properties":{"full_address":"黑龙江省黑河市爱辉区花园街道喇嘛台社区信誉花园小区三期(不含16号楼)及邻街门市"}},{"type":"Feature","geometry":{"type":"Point","coordinates":[127.514624,50.244979]},"properties":{"full_address":"黑龙江省黑河市爱辉区花园街道金兰社区友谊嘉苑高层(不含3单元)及附属门市"}},{"type":"Feature","geometry":{"type":"Point","coordinates":[127.515289,50.245983]},"properties":{"full_address":"黑龙江省黑河市爱辉区花园街道金兰社区友谊嘉苑9号楼及附属门市"}},{"type":"Feature","geometry":{"type":"Point","coordinates":[127.515434,50.245218]},"properties":{"full_address":"黑龙江省黑河市爱辉区花园街道金兰社区友谊嘉苑6号楼B座"}},{"type":"Feature","geometry":{"type":"Point","coordinates":[126.507392,48.240573]},"properties":{"full_address":"黑龙江省黑河市爱辉区花园街道武庙屯社区水务移动小区水务1号楼及附属门市"}},{"type":"Feature","geometry":{"type":"Point","coordinates":[126.507392,48.240573]},"properties":{"full_address":"黑龙江省黑河市爱辉区花园街道武庙屯社区水务移动小区移动楼及附属门市"}},{"type":"Feature","geometry":{"type":"Point","coordinates":[125.352188,46.423508]},"properties":{"full_address":"黑龙江省绥化市安达市利达综合楼4号楼13单元"}},{"type":"Feature","geometry":{"type":"Point","coordinates":[125.336662,46.414936]},"properties":{"full_address":"黑龙江省绥化市安达市牛都名苑小区8号楼4单元"}},{"type":"Feature","geometry":{"type":"Point","coordinates":[125.325346,46.415991]},"properties":{"full_address":"黑龙江省绥化市安达市滨东华府小区B区5号楼10号商服陈家放心肉店"}},{"type":"Feature","geometry":{"type":"Point","coordinates":[125.352968,46.415411]},"properties":{"full_address":"黑龙江省绥化市安达市生态小镇小区6号楼1单元"}},{"type":"Feature","geometry":{"type":"Point","coordinates":[125.349291,46.413016]},"properties":{"full_address":"黑龙江省绥化市安达市福和城小区20号楼5单元"}},{"type":"Feature","geometry":{"type":"Point","coordinates":[125.371551,46.403182]},"properties":{"full_address":"黑龙江省绥化市安达市十一道街天聪驾校南孙某某经营生猪暂存点"}},{"type":"Feature","geometry":{"type":"Point","coordinates":[125.329339,46.412945]},"properties":{"full_address":"黑龙江省绥化市安达市现代华庭一期2号楼4单元"}},{"type":"Feature","geometry":{"type":"Point","coordinates":[125.340766,46.417873]},"properties":{"full_address":"黑龙江省绥化市安达市升平小区"}},{"type":"Feature","geometry":{"type":"Point","coordinates":[125.329918,46.403849]},"properties":{"full_address":"黑龙江省绥化市安达市卧里屯镇瑞德家园小区"}},{"type":"Feature","geometry":{"type":"Point","coordinates":[125.977615,46.066623]},"properties":{"full_address":"黑龙江省绥化市肇东市尚城壹品小区B6栋2单元"}},{"type":"Feature","geometry":{"type":"Point","coordinates":[125.50175,45.998677]},"properties":{"full_address":"黑龙江省绥化市肇东市洪河乡平原村张兴国屯"}},{"type":"Feature","geometry":{"type":"Point","coordinates":[125.61027,46.012542]},"properties":{"full_address":"黑龙江省绥化市肇东市昌五镇国涛嘉园小区一号楼3单元"}},{"type":"Feature","geometry":{"type":"Point","coordinates":[125.599305,46.010698]},"properties":{"full_address":"黑龙江省绥化市肇东市昌五镇十字街东新玛特精品店"}},{"type":"Feature","geometry":{"type":"Point","coordinates":[121.458184,31.259443]},"properties":{"full_address":"上海市上海市静安区芷江西路街道中山北路814弄"}},{"type":"Feature","geometry":{"type":"Point","coordinates":[121.438949,31.258117]},"properties":{"full_address":"上海市上海市普陀区宜川路街道交通路1913弄1-10号、15-18号"}},{"type":"Feature","geometry":{"type":"Point","coordinates":[121.204479,31.095241]},"properties":{"full_address":"上海市上海市松江区佘山镇林荫新路1288号上海佘山茂御臻品之选酒店"}},{"type":"Feature","geometry":{"type":"Point","coordinates":[118.834036,32.111012]},"properties":{"full_address":"江苏省南京市栖霞区迈皋桥街道郑远元修脚房连锁加盟店（迈皋桥街道合作村92-60-112号）"}},{"type":"Feature","geometry":{"type":"Point","coordinates":[118.321314,33.943815]},"properties":{"full_address":"江苏省宿迁市宿豫区锦绣江南小区"}},{"type":"Feature","geometry":{"type":"Point","coordinates":[118.358637,33.939986]},"properties":{"full_address":"江苏省宿迁市宿豫区安泰佳园小区"}},{"type":"Feature","geometry":{"type":"Point","coordinates":[118.332052,33.947235]},"properties":{"full_address":"江苏省宿迁市宿豫区江山大道38号1A栋厂房"}},{"type":"Feature","geometry":{"type":"Point","coordinates":[119.506873,26.08129]},"properties":{"full_address":"福建省福州市马尾区亭江镇笏山村全域"}},{"type":"Feature","geometry":{"type":"Point","coordinates":[119.536998,26.101634]},"properties":{"full_address":"福建省福州市马尾区亭江镇东岐村下桶新村8号"}},{"type":"Feature","geometry":{"type":"Point","coordinates":[117.060423,28.262222]},"properties":{"full_address":"江西省鹰潭市月湖区梅园街道晨宇云轩小区（除二栋）"}},{"type":"Feature","geometry":{"type":"Point","coordinates":[116.828912,28.187984]},"properties":{"full_address":"江西省鹰潭市余江区邓埠街道磨仂洲5号院"}},{"type":"Feature","geometry":{"type":"Point","coordinates":[117.216554,28.284155]},"properties":{"full_address":"江西省鹰潭市贵溪市东门街道筲箕山社区筲箕山菜市场"}},{"type":"Feature","geometry":{"type":"Point","coordinates":[117.213446,28.287754]},"properties":{"full_address":"江西省鹰潭市贵溪市东门街道信江社区汪张小区"}},{"type":"Feature","geometry":{"type":"Point","coordinates":[117.050147,28.261363]},"properties":{"full_address":"江西省鹰潭市信江新区夏埠乡滨江社区恒大绿洲二期26栋三单元"}},{"type":"Feature","geometry":{"type":"Point","coordinates":[117.050147,28.261363]},"properties":{"full_address":"江西省鹰潭市信江新区夏埠乡滨江社区恒大绿洲二期22栋一单元"}},{"type":"Feature","geometry":{"type":"Point","coordinates":[117.050355,28.262199]},"properties":{"full_address":"江西省鹰潭市信江新区夏埠乡滨江社区恒大绿洲学府里1栋"}},{"type":"Feature","geometry":{"type":"Point","coordinates":[116.020279,26.471363]},"properties":{"full_address":"江西省赣州市宁都县梅江镇老学坪（新菜市场）"}},{"type":"Feature","geometry":{"type":"Point","coordinates":[116.013621,26.470996]},"properties":{"full_address":"江西省赣州市宁都县京豪宾馆"}},{"type":"Feature","geometry":{"type":"Point","coordinates":[116.005394,26.485254]},"properties":{"full_address":"江西省赣州市宁都县易堂学校"}},{"type":"Feature","geometry":{"type":"Point","coordinates":[116.013621,26.470996]},"properties":{"full_address":"江西省赣州市宁都县兴达米业"}},{"type":"Feature","geometry":{"type":"Point","coordinates":[116.025288,26.460853]},"properties":{"full_address":"江西省赣州市宁都县新庄村卫生室"}},{"type":"Feature","geometry":{"type":"Point","coordinates":[116.024834,26.460821]},"properties":{"full_address":"江西省赣州市宁都县新庄菜市场"}},{"type":"Feature","geometry":{"type":"Point","coordinates":[116.007824,26.466785]},"properties":{"full_address":"江西省赣州市宁都县香江国际"}},{"type":"Feature","geometry":{"type":"Point","coordinates":[116.007681,26.44105]},"properties":{"full_address":"江西省赣州市宁都县体育馆"}},{"type":"Feature","geometry":{"type":"Point","coordinates":[116.020003,26.469182]},"properties":{"full_address":"江西省赣州市宁都县宁师附小"}},{"type":"Feature","geometry":{"type":"Point","coordinates":[116.345367,26.339736]},"properties":{"full_address":"江西省赣州市宁都县宁都二中"}},{"type":"Feature","geometry":{"type":"Point","coordinates":[116.000093,26.49097]},"properties":{"full_address":"江西省赣州市宁都县梅江镇中梁江都府"}},{"type":"Feature","geometry":{"type":"Point","coordinates":[116.021965,26.468166]},"properties":{"full_address":"江西省赣州市宁都县梅江镇三环北路巴罗娜酒庄"}},{"type":"Feature","geometry":{"type":"Point","coordinates":[116.015767,26.474079]},"properties":{"full_address":"江西省赣州市宁都县梅江镇名门家苑"}},{"type":"Feature","geometry":{"type":"Point","coordinates":[116.019877,26.472049]},"properties":{"full_address":"江西省赣州市宁都县梅江镇美食街"}},{"type":"Feature","geometry":{"type":"Point","coordinates":[116.00655,26.470614]},"properties":{"full_address":"江西省赣州市宁都县梅江镇凌云菜市场"}},{"type":"Feature","geometry":{"type":"Point","coordinates":[116.01575,26.476751]},"properties":{"full_address":"江西省赣州市宁都县梅江镇红山岭小区"}},{"type":"Feature","geometry":{"type":"Point","coordinates":[116.009322,26.480066]},"properties":{"full_address":"江西省赣州市宁都县梅江镇第五幼儿园"}},{"type":"Feature","geometry":{"type":"Point","coordinates":[116.007282,26.486927]},"properties":{"full_address":"江西省赣州市宁都县梅江镇背村"}},{"type":"Feature","geometry":{"type":"Point","coordinates":[116.02247,26.485235]},"properties":{"full_address":"江西省赣州市宁都县梅江镇北门村熊屋山"}},{"type":"Feature","geometry":{"type":"Point","coordinates":[116.00606,26.50084]},"properties":{"full_address":"江西省赣州市宁都县梅江迳口完小"}},{"type":"Feature","geometry":{"type":"Point","coordinates":[116.012588,26.463255]},"properties":{"full_address":"江西省赣州市宁都县京都豪庭"}},{"type":"Feature","geometry":{"type":"Point","coordinates":[116.025577,26.467202]},"properties":{"full_address":"江西省赣州市宁都县河东中学"}},{"type":"Feature","geometry":{"type":"Point","coordinates":[116.013693,26.458571]},"properties":{"full_address":"江西省赣州市宁都县梅江镇新庄华夏农业公司后门月生排"}},{"type":"Feature","geometry":{"type":"Point","coordinates":[116.018002,26.465872]},"properties":{"full_address":"江西省赣州市宁都县梅江镇城南二路"}},{"type":"Feature","geometry":{"type":"Point","coordinates":[114.907075,25.847726]},"properties":{"full_address":"江西省赣州市经开区锦绣星城小区"}},{"type":"Feature","geometry":{"type":"Point","coordinates":[114.905292,25.847489]},"properties":{"full_address":"江西省赣州市经开区锦绣星城嘉苑小区"}},{"type":"Feature","geometry":{"type":"Point","coordinates":[114.90277,25.830053]},"properties":{"full_address":"江西省赣州市经开区台湾城小区"}},{"type":"Feature","geometry":{"type":"Point","coordinates":[114.907832,25.839977]},"properties":{"full_address":"江西省赣州市经开区七一九社区南区"}},{"type":"Feature","geometry":{"type":"Point","coordinates":[114.904804,25.838071]},"properties":{"full_address":"江西省赣州市经开区景荣嘉苑小区"}},{"type":"Feature","geometry":{"type":"Point","coordinates":[114.903072,25.850489]},"properties":{"full_address":"江西省赣州市经开区水韵嘉城C区"}},{"type":"Feature","geometry":{"type":"Point","coordinates":[114.89908,25.858315]},"properties":{"full_address":"江西省赣州市经开区杨梅新村"}},{"type":"Feature","geometry":{"type":"Point","coordinates":[114.899169,25.832587]},"properties":{"full_address":"江西省赣州市经开区金星新村"}},{"type":"Feature","geometry":{"type":"Point","coordinates":[114.981546,25.826862]},"properties":{"full_address":"江西省赣州市经开区田心新村西区"}},{"type":"Feature","geometry":{"type":"Point","coordinates":[115.155666,27.554275]},"properties":{"full_address":"江西省吉安市峡江县巴邱镇天成华府小区"}},{"type":"Feature","geometry":{"type":"Point","coordinates":[115.162716,27.563313]},"properties":{"full_address":"江西省吉安市峡江县巴邱镇学府公馆15栋"}},{"type":"Feature","geometry":{"type":"Point","coordinates":[115.33026,27.604067]},"properties":{"full_address":"江西省吉安市峡江县水边镇荣耀华府3栋"}},{"type":"Feature","geometry":{"type":"Point","coordinates":[114.969407,27.561651]},"properties":{"full_address":"江西省吉安市峡江县水边镇下痕村委桥头自然村"}},{"type":"Feature","geometry":{"type":"Point","coordinates":[115.31022,27.57332]},"properties":{"full_address":"江西省吉安市峡江县水边镇何君新村C栋"}},{"type":"Feature","geometry":{"type":"Point","coordinates":[115.316312,27.585373]},"properties":{"full_address":"江西省吉安市峡江县水边镇玉府佳园5栋"}},{"type":"Feature","geometry":{"type":"Point","coordinates":[115.412687,27.535468]},"properties":{"full_address":"江西省吉安市峡江县桐林乡桐林村委直坑自然村"}},{"type":"Feature","geometry":{"type":"Point","coordinates":[115.164104,27.565433]},"properties":{"full_address":"江西省吉安市峡江县巴邱镇书香佳苑北区7栋"}},{"type":"Feature","geometry":{"type":"Point","coordinates":[115.434183,27.31576]},"properties":{"full_address":"江西省吉安市永丰县永丰县人民医院"}},{"type":"Feature","geometry":{"type":"Point","coordinates":[115.415104,27.321707]},"properties":{"full_address":"江西省吉安市永丰县恩江镇国际都会"}},{"type":"Feature","geometry":{"type":"Point","coordinates":[115.433178,27.318042]},"properties":{"full_address":"江西省吉安市永丰县恩江镇中南海爱好文具总店"}},{"type":"Feature","geometry":{"type":"Point","coordinates":[115.435283,27.31894]},"properties":{"full_address":"江西省吉安市永丰县恩江镇五交童衣世界"}},{"type":"Feature","geometry":{"type":"Point","coordinates":[115.435037,27.313966]},"properties":{"full_address":"江西省吉安市永丰县恩江镇状元华府全聚福中式快餐店"}},{"type":"Feature","geometry":{"type":"Point","coordinates":[115.452717,27.301133]},"properties":{"full_address":"江西省吉安市永丰县恩江镇卫生院"}},{"type":"Feature","geometry":{"type":"Point","coordinates":[115.420312,27.321229]},"properties":{"full_address":"江西省吉安市永丰县恩江镇花园村水陂头新村B栋屯田小燕餐馆"}},{"type":"Feature","geometry":{"type":"Point","coordinates":[115.441889,27.288578]},"properties":{"full_address":"江西省吉安市永丰县恩江镇桥南贯岭百佳超市"}},{"type":"Feature","geometry":{"type":"Point","coordinates":[115.744466,26.991108]},"properties":{"full_address":"江西省吉安市永丰县恩江镇希望苑小区"}},{"type":"Feature","geometry":{"type":"Point","coordinates":[115.599319,26.891566]},"properties":{"full_address":"江西省吉安市永丰县恩江镇相聚阁大酒店"}},{"type":"Feature","geometry":{"type":"Point","coordinates":[115.43469,27.320895]},"properties":{"full_address":"江西省吉安市永丰县恩江镇国光超市"}},{"type":"Feature","geometry":{"type":"Point","coordinates":[115.430904,27.328463]},"properties":{"full_address":"江西省吉安市永丰县恩江镇万尚和景壹号院"}},{"type":"Feature","geometry":{"type":"Point","coordinates":[115.427718,27.319366]},"properties":{"full_address":"江西省吉安市永丰县恩江镇永丰欧阳修大道联通营业厅"}},{"type":"Feature","geometry":{"type":"Point","coordinates":[115.429942,27.314584]},"properties":{"full_address":"江西省吉安市永丰县恩江镇万尚大酒店"}},{"type":"Feature","geometry":{"type":"Point","coordinates":[115.43845,27.317192]},"properties":{"full_address":"江西省吉安市永丰县恩江镇永丰县妇幼保健院"}},{"type":"Feature","geometry":{"type":"Point","coordinates":[115.430904,27.328463]},"properties":{"full_address":"江西省吉安市永丰县恩江镇永丰县亚马逊自助餐"}},{"type":"Feature","geometry":{"type":"Point","coordinates":[115.429961,27.309651]},"properties":{"full_address":"江西省吉安市永丰县恩江镇万尚坎上坎火锅店"}},{"type":"Feature","geometry":{"type":"Point","coordinates":[115.424689,27.318284]},"properties":{"full_address":"江西省吉安市永丰县恩江镇人社局旁好永福早餐店"}},{"type":"Feature","geometry":{"type":"Point","coordinates":[115.426289,27.323855]},"properties":{"full_address":"江西省吉安市永丰县恩江镇实验学校正大门对面麻辣烫店"}},{"type":"Feature","geometry":{"type":"Point","coordinates":[115.420041,27.284539]},"properties":{"full_address":"江西省吉安市永丰县恩江镇岭上村礼堂"}},{"type":"Feature","geometry":{"type":"Point","coordinates":[115.430904,27.328463]},"properties":{"full_address":"江西省吉安市永丰县恩江镇万尚广场"}},{"type":"Feature","geometry":{"type":"Point","coordinates":[115.430904,27.328463]},"properties":{"full_address":"江西省吉安市永丰县恩江镇豪德亨牛排店"}},{"type":"Feature","geometry":{"type":"Point","coordinates":[115.427622,27.313726]},"properties":{"full_address":"江西省吉安市永丰县恩江镇全民健身中心旁大金空调店"}},{"type":"Feature","geometry":{"type":"Point","coordinates":[115.430904,27.328463]},"properties":{"full_address":"江西省吉安市永丰县恩江镇尹家坪菜市场"}},{"type":"Feature","geometry":{"type":"Point","coordinates":[115.433566,27.323948]},"properties":{"full_address":"江西省吉安市永丰县恩江镇跃进西路哈喽宝贝店"}},{"type":"Feature","geometry":{"type":"Point","coordinates":[115.431984,27.320814]},"properties":{"full_address":"江西省吉安市永丰县恩江镇开吉社区隔壁南昌瓦罐汤店"}},{"type":"Feature","geometry":{"type":"Point","coordinates":[115.424006,27.322981]},"properties":{"full_address":"江西省吉安市永丰县恩江镇尹家坪农贸市场后面早阳餐早餐店"}},{"type":"Feature","geometry":{"type":"Point","coordinates":[115.430904,27.328463]},"properties":{"full_address":"江西省吉安市永丰县恩江镇花园小区A栋7单元金秀茶馆"}},{"type":"Feature","geometry":{"type":"Point","coordinates":[115.430904,27.328463]},"properties":{"full_address":"江西省吉安市永丰县恩江镇南洋超市"}},{"type":"Feature","geometry":{"type":"Point","coordinates":[115.460254,27.31863]},"properties":{"full_address":"江西省吉安市永丰县佐龙乡瑶上村竹山村"}},{"type":"Feature","geometry":{"type":"Point","coordinates":[120.43084,36.30755]},"properties":{"full_address":"山东省青岛市城阳区城阳街道办事处御景尚都小区32号楼"}},{"type":"Feature","geometry":{"type":"Point","coordinates":[120.399866,36.305191]},"properties":{"full_address":"山东省青岛市城阳区城阳街道办事处银盛泰国际商务港"}},{"type":"Feature","geometry":{"type":"Point","coordinates":[120.87536,36.38353]},"properties":{"full_address":"山东省青岛市即墨区岘山路兰州拉面馆（绿城店）"}},{"type":"Feature","geometry":{"type":"Point","coordinates":[120.266216,36.390007]},"properties":{"full_address":"山东省青岛市即墨区大信镇润霖优选超市"}},{"type":"Feature","geometry":{"type":"Point","coordinates":[120.443014,36.417281]},"properties":{"full_address":"山东省青岛市即墨区楼子疃如海超市"}},{"type":"Feature","geometry":{"type":"Point","coordinates":[120.443362,36.352509]},"properties":{"full_address":"山东省青岛市即墨区环秀街道办事处后东城村"}},{"type":"Feature","geometry":{"type":"Point","coordinates":[120.40934,36.41162]},"properties":{"full_address":"山东省青岛市即墨区华山二路76号A-26小鱼尼莫亲子游泳俱乐部"}},{"type":"Feature","geometry":{"type":"Point","coordinates":[120.407411,36.375838]},"properties":{"full_address":"山东省青岛市即墨区岘山花城小区北门口刘广昌排骨鸡米饭"}},{"type":"Feature","geometry":{"type":"Point","coordinates":[120.408549,36.399672]},"properties":{"full_address":"山东省青岛市即墨区鹤山路即墨服装市场一层赵记肉夹馍馄饨馆"}},{"type":"Feature","geometry":{"type":"Point","coordinates":[120.436634,36.373391]},"properties":{"full_address":"山东省青岛市即墨区文化路63号塔元楼区烤肉拌饭"}},{"type":"Feature","geometry":{"type":"Point","coordinates":[120.388675,36.335851]},"properties":{"full_address":"山东省青岛市即墨区嵩山一路48-20号满江秋烤鱼餐厅"}},{"type":"Feature","geometry":{"type":"Point","coordinates":[120.410835,36.372501]},"properties":{"full_address":"山东省青岛市即墨区岘山花城北门菜鸟驿站"}},{"type":"Feature","geometry":{"type":"Point","coordinates":[120.448762,36.398394]},"properties":{"full_address":"山东省青岛市即墨区鹤山路444号海尚海谷子源母婴店"}},{"type":"Feature","geometry":{"type":"Point","coordinates":[120.442176,36.39598]},"properties":{"full_address":"山东省青岛市即墨区鹤山路599号圣帝亚广场佳乐家超市"}},{"type":"Feature","geometry":{"type":"Point","coordinates":[120.390248,36.331588]},"properties":{"full_address":"山东省青岛市即墨区天山一路信和居小区5号德庄火锅"}},{"type":"Feature","geometry":{"type":"Point","coordinates":[120.440518,36.404161]},"properties":{"full_address":"山东省青岛市即墨区店子山小区门口母鸡汤店"}},{"type":"Feature","geometry":{"type":"Point","coordinates":[120.426637,36.397978]},"properties":{"full_address":"山东省青岛市即墨区鹤山路939号新利群肯德基"}},{"type":"Feature","geometry":{"type":"Point","coordinates":[120.609824,36.390791]},"properties":{"full_address":"山东省青岛市即墨区鳌山卫街道办事处射箭口村"}},{"type":"Feature","geometry":{"type":"Point","coordinates":[120.474209,36.405551]},"properties":{"full_address":"山东省青岛市即墨区潮海街道办事处流浩河三路136号君卓篮球俱乐部"}},{"type":"Feature","geometry":{"type":"Point","coordinates":[120.423201,36.382023]},"properties":{"full_address":"山东省青岛市即墨区环秀街道办事处店子山三路268号高迪墨香郡科威国际不动产"}},{"type":"Feature","geometry":{"type":"Point","coordinates":[120.523791,36.451937]},"properties":{"full_address":"山东省青岛市即墨区龙泉街道办事处解放三路101号青岛宇远新材料有限公司"}},{"type":"Feature","geometry":{"type":"Point","coordinates":[120.691751,36.490123]},"properties":{"full_address":"山东省青岛市即墨区温泉街道办事处东杨戈庄村"}},{"type":"Feature","geometry":{"type":"Point","coordinates":[120.469652,36.393073]},"properties":{"full_address":"山东省青岛市即墨区通济街道西城社区"}},{"type":"Feature","geometry":{"type":"Point","coordinates":[120.469652,36.393073]},"properties":{"full_address":"山东省青岛市即墨区通济街道长辛社区"}},{"type":"Feature","geometry":{"type":"Point","coordinates":[120.478636,36.392747]},"properties":{"full_address":"山东省青岛市即墨区通济街道河西社区"}},{"type":"Feature","geometry":{"type":"Point","coordinates":[120.469652,36.393073]},"properties":{"full_address":"山东省青岛市即墨区通济街道马山社区"}},{"type":"Feature","geometry":{"type":"Point","coordinates":[120.469652,36.393073]},"properties":{"full_address":"山东省青岛市即墨区通济街道德馨社区"}},{"type":"Feature","geometry":{"type":"Point","coordinates":[120.469652,36.393073]},"properties":{"full_address":"山东省青岛市即墨区通济街道盛兴社区"}},{"type":"Feature","geometry":{"type":"Point","coordinates":[120.402279,36.40267]},"properties":{"full_address":"山东省青岛市即墨区通济街道八里庄社区"}},{"type":"Feature","geometry":{"type":"Point","coordinates":[120.469652,36.393073]},"properties":{"full_address":"山东省青岛市即墨区通济街道山东社区"}},{"type":"Feature","geometry":{"type":"Point","coordinates":[120.469652,36.393073]},"properties":{"full_address":"山东省青岛市即墨区通济街道阁里社区"}},{"type":"Feature","geometry":{"type":"Point","coordinates":[120.175931,36.465727]},"properties":{"full_address":"山东省青岛市即墨区通济街道龙湾头社区"}},{"type":"Feature","geometry":{"type":"Point","coordinates":[120.469652,36.393073]},"properties":{"full_address":"山东省青岛市即墨区通济街道城北社区"}},{"type":"Feature","geometry":{"type":"Point","coordinates":[120.402279,36.40267]},"properties":{"full_address":"山东省青岛市即墨区通济街道郭庄社区"}},{"type":"Feature","geometry":{"type":"Point","coordinates":[120.385158,36.337978]},"properties":{"full_address":"山东省青岛市即墨区通济新经济区福海村"}},{"type":"Feature","geometry":{"type":"Point","coordinates":[120.385158,36.337978]},"properties":{"full_address":"山东省青岛市即墨区通济新经济区开元村"}},{"type":"Feature","geometry":{"type":"Point","coordinates":[120.385158,36.337978]},"properties":{"full_address":"山东省青岛市即墨区通济新经济区华耀村"}},{"type":"Feature","geometry":{"type":"Point","coordinates":[120.385158,36.337978]},"properties":{"full_address":"山东省青岛市即墨区通济新经济区云溪村"}},{"type":"Feature","geometry":{"type":"Point","coordinates":[120.385158,36.337978]},"properties":{"full_address":"山东省青岛市即墨区通济新经济区里仁村"}},{"type":"Feature","geometry":{"type":"Point","coordinates":[120.478636,36.392747]},"properties":{"full_address":"山东省青岛市即墨区环秀街道墨河社区"}},{"type":"Feature","geometry":{"type":"Point","coordinates":[120.456645,36.369458]},"properties":{"full_address":"山东省青岛市即墨区环秀街道滨湖社区"}},{"type":"Feature","geometry":{"type":"Point","coordinates":[120.459812,36.379682]},"properties":{"full_address":"山东省青岛市即墨区环秀街道观澜社区"}},{"type":"Feature","geometry":{"type":"Point","coordinates":[120.652928,36.342885]},"properties":{"full_address":"山东省青岛市即墨区环秀街道新民社区"}},{"type":"Feature","geometry":{"type":"Point","coordinates":[120.469652,36.393073]},"properties":{"full_address":"山东省青岛市即墨区环秀街道华庭社区"}},{"type":"Feature","geometry":{"type":"Point","coordinates":[120.469652,36.393073]},"properties":{"full_address":"山东省青岛市即墨区环秀街道文化街社区"}},{"type":"Feature","geometry":{"type":"Point","coordinates":[120.469652,36.393073]},"properties":{"full_address":"山东省青岛市即墨区环秀街道健民街社区"}},{"type":"Feature","geometry":{"type":"Point","coordinates":[120.469652,36.393073]},"properties":{"full_address":"山东省青岛市即墨区环秀街道金茂社区"}},{"type":"Feature","geometry":{"type":"Point","coordinates":[120.452295,36.370654]},"properties":{"full_address":"山东省青岛市即墨区环秀街道官庄社区"}},{"type":"Feature","geometry":{"type":"Point","coordinates":[120.478636,36.392747]},"properties":{"full_address":"山东省青岛市即墨区环秀街道山前社区"}},{"type":"Feature","geometry":{"type":"Point","coordinates":[120.469652,36.393073]},"properties":{"full_address":"山东省青岛市即墨区环秀街道滨河社区"}},{"type":"Feature","geometry":{"type":"Point","coordinates":[120.469652,36.393073]},"properties":{"full_address":"山东省青岛市即墨区环秀街道兴家疃社区"}},{"type":"Feature","geometry":{"type":"Point","coordinates":[120.455,36.37274]},"properties":{"full_address":"山东省青岛市即墨区环秀街道顺河社区"}},{"type":"Feature","geometry":{"type":"Point","coordinates":[120.493819,36.333136]},"properties":{"full_address":"山东省青岛市即墨区环秀街道叫儿埠社区"}},{"type":"Feature","geometry":{"type":"Point","coordinates":[120.448362,36.452093]},"properties":{"full_address":"山东省青岛市即墨区北安街道宋化泉村"}},{"type":"Feature","geometry":{"type":"Point","coordinates":[120.453655,36.533721]},"properties":{"full_address":"山东省青岛市即墨区灵山街道西三泉村"}},{"type":"Feature","geometry":{"type":"Point","coordinates":[120.462538,36.393547]},"properties":{"full_address":"山东省青岛市即墨区潮海街道文富居小区B1南区"}},{"type":"Feature","geometry":{"type":"Point","coordinates":[120.447128,36.389639]},"properties":{"full_address":"山东省青岛市即墨区数字装备产业发展服务中心"}},{"type":"Feature","geometry":{"type":"Point","coordinates":[120.469652,36.393073]},"properties":{"full_address":"山东省青岛市即墨区大信街道信胜社区"}},{"type":"Feature","geometry":{"type":"Point","coordinates":[120.469652,36.393073]},"properties":{"full_address":"山东省青岛市即墨区聚信社区"}},{"type":"Feature","geometry":{"type":"Point","coordinates":[120.469652,36.393073]},"properties":{"full_address":"山东省青岛市即墨区信成社区"}},{"type":"Feature","geometry":{"type":"Point","coordinates":[120.521056,36.530153]},"properties":{"full_address":"山东省青岛市即墨区灵山街道洽泊村"}},{"type":"Feature","geometry":{"type":"Point","coordinates":[120.515076,36.413402]},"properties":{"full_address":"山东省青岛市即墨区天一仁和郡小区"}},{"type":"Feature","geometry":{"type":"Point","coordinates":[120.469652,36.393073]},"properties":{"full_address":"山东省青岛市即墨区大信街道永乐社区"}},{"type":"Feature","geometry":{"type":"Point","coordinates":[120.469652,36.393073]},"properties":{"full_address":"山东省青岛市即墨区大信街道向阳社区"}},{"type":"Feature","geometry":{"type":"Point","coordinates":[120.460085,36.438736]},"properties":{"full_address":"山东省青岛市即墨区北安街道鑫源明居小区"}},{"type":"Feature","geometry":{"type":"Point","coordinates":[120.405701,36.376548]},"properties":{"full_address":"山东省青岛市即墨区通济街道淮涉河一路893号梧桐巷文旅中心"}},{"type":"Feature","geometry":{"type":"Point","coordinates":[120.371108,36.379055]},"properties":{"full_address":"山东省青岛市即墨区闫家岭民兴钢木制品厂"}},{"type":"Feature","geometry":{"type":"Point","coordinates":[116.602168,35.398492]},"properties":{"full_address":"山东省济宁市任城区唐口街道锡龙大酒店"}},{"type":"Feature","geometry":{"type":"Point","coordinates":[116.505873,35.470004]},"properties":{"full_address":"山东省济宁市任城区南张街道前店村"}},{"type":"Feature","geometry":{"type":"Point","coordinates":[116.508341,35.46808]},"properties":{"full_address":"山东省济宁市任城区南张街道后店村"}},{"type":"Feature","geometry":{"type":"Point","coordinates":[116.542833,35.46056]},"properties":{"full_address":"山东省济宁市任城区南张街道仙庄村"}},{"type":"Feature","geometry":{"type":"Point","coordinates":[116.61616,35.394382]},"properties":{"full_address":"山东省济宁市任城区观音阁街道东南华城宏河美地"}},{"type":"Feature","geometry":{"type":"Point","coordinates":[116.511505,35.427781]},"properties":{"full_address":"山东省济宁市任城区南张街道李庙村"}},{"type":"Feature","geometry":{"type":"Point","coordinates":[116.501975,35.442186]},"properties":{"full_address":"山东省济宁市任城区南张街道潘家村"}},{"type":"Feature","geometry":{"type":"Point","coordinates":[116.481822,35.336618]},"properties":{"full_address":"山东省济宁市任城区唐口街道朱庙村"}},{"type":"Feature","geometry":{"type":"Point","coordinates":[116.462905,35.299092]},"properties":{"full_address":"山东省济宁市任城区唐口街道前王堂村"}},{"type":"Feature","geometry":{"type":"Point","coordinates":[116.559052,35.346372]},"properties":{"full_address":"山东省济宁市任城区安居街道孙井村"}},{"type":"Feature","geometry":{"type":"Point","coordinates":[116.592434,35.413132]},"properties":{"full_address":"山东省济宁市任城区阜桥街道办事处中区建委宿舍"}},{"type":"Feature","geometry":{"type":"Point","coordinates":[116.592758,35.395515]},"properties":{"full_address":"山东省济宁市任城区阜桥街道办事处土门子街2号楼"}},{"type":"Feature","geometry":{"type":"Point","coordinates":[116.595062,35.411911]},"properties":{"full_address":"山东省济宁市任城区阜桥街道办事处核桃园小区23号楼"}},{"type":"Feature","geometry":{"type":"Point","coordinates":[116.633169,35.446641]},"properties":{"full_address":"山东省济宁市任城区李营街道明苑小区"}},{"type":"Feature","geometry":{"type":"Point","coordinates":[116.500262,35.473724]},"properties":{"full_address":"山东省济宁市任城区南张街道办事处文郑村"}},{"type":"Feature","geometry":{"type":"Point","coordinates":[116.548568,35.43292]},"properties":{"full_address":"山东省济宁市任城区南张街道办事处刘前村"}},{"type":"Feature","geometry":{"type":"Point","coordinates":[116.490229,35.306588]},"properties":{"full_address":"山东省济宁市任城区唐口街道唐宁居小区"}},{"type":"Feature","geometry":{"type":"Point","coordinates":[116.465374,35.287153]},"properties":{"full_address":"山东省济宁市任城区唐口街道韭菜姜村"}},{"type":"Feature","geometry":{"type":"Point","coordinates":[116.512146,35.412984]},"properties":{"full_address":"山东省济宁市任城区安居街道运河湾社区"}},{"type":"Feature","geometry":{"type":"Point","coordinates":[116.592091,35.418936]},"properties":{"full_address":"山东省济宁市任城区仙营街道秦庄农贸市场"}},{"type":"Feature","geometry":{"type":"Point","coordinates":[116.643514,35.427297]},"properties":{"full_address":"山东省济宁市任城区仙营街道海能花园"}},{"type":"Feature","geometry":{"type":"Point","coordinates":[116.587357,35.429714]},"properties":{"full_address":"山东省济宁市任城区仙营街道文化小区"}},{"type":"Feature","geometry":{"type":"Point","coordinates":[116.525884,35.462786]},"properties":{"full_address":"山东省济宁市任城区南张街道孔家村"}},{"type":"Feature","geometry":{"type":"Point","coordinates":[116.553822,35.422202]},"properties":{"full_address":"山东省济宁市任城区金城街道开泰花园小区"}},{"type":"Feature","geometry":{"type":"Point","coordinates":[116.504461,35.522974]},"properties":{"full_address":"山东省济宁市任城区二十里铺街道程街村"}},{"type":"Feature","geometry":{"type":"Point","coordinates":[116.336641,35.411715]},"properties":{"full_address":"山东省济宁市嘉祥县嘉祥街道温馨佳苑"}},{"type":"Feature","geometry":{"type":"Point","coordinates":[116.351589,35.407508]},"properties":{"full_address":"山东省济宁市嘉祥县嘉祥街道学府名都"}},{"type":"Feature","geometry":{"type":"Point","coordinates":[116.123615,35.767281]},"properties":{"full_address":"山东省济宁市梁山县水泊街道运河小区"}},{"type":"Feature","geometry":{"type":"Point","coordinates":[116.100005,35.804634]},"properties":{"full_address":"山东省济宁市梁山县水泊街道正信楼"}},{"type":"Feature","geometry":{"type":"Point","coordinates":[116.099875,35.823359]},"properties":{"full_address":"山东省济宁市梁山县梁山街道关庄村就俩菜餐馆"}},{"type":"Feature","geometry":{"type":"Point","coordinates":[116.077309,35.800809]},"properties":{"full_address":"山东省济宁市梁山县梁山街道凤园超市（梁山街道一中西边路口）"}},{"type":"Feature","geometry":{"type":"Point","coordinates":[116.285783,35.668791]},"properties":{"full_address":"山东省济宁市梁山县韩垓镇魏堂村吴垓自然村"}},{"type":"Feature","geometry":{"type":"Point","coordinates":[116.118671,35.802193]},"properties":{"full_address":"山东省济宁市梁山县梁山仁和医院"}},{"type":"Feature","geometry":{"type":"Point","coordinates":[116.091271,35.802964]},"properties":{"full_address":"山东省济宁市梁山县水泊街道医药公司家属院"}},{"type":"Feature","geometry":{"type":"Point","coordinates":[116.125593,35.776896]},"properties":{"full_address":"山东省济宁市梁山县水泊街道德馨花园"}},{"type":"Feature","geometry":{"type":"Point","coordinates":[116.086987,35.782541]},"properties":{"full_address":"山东省济宁市梁山县水泊街道山水家园"}},{"type":"Feature","geometry":{"type":"Point","coordinates":[116.08554,35.795203]},"properties":{"full_address":"山东省济宁市梁山县水泊街道东方福地花园"}},{"type":"Feature","geometry":{"type":"Point","coordinates":[116.090652,35.778472]},"properties":{"full_address":"山东省济宁市梁山县梁山县水泊街道马振扬村"}},{"type":"Feature","geometry":{"type":"Point","coordinates":[116.119011,35.786513]},"properties":{"full_address":"山东省济宁市梁山县水泊街道郑垓村"}},{"type":"Feature","geometry":{"type":"Point","coordinates":[116.086197,35.777979]},"properties":{"full_address":"山东省济宁市梁山县水泊街道锦绣城南区"}},{"type":"Feature","geometry":{"type":"Point","coordinates":[116.092192,35.799801]},"properties":{"full_address":"山东省济宁市梁山县水泊街道八一小区"}},{"type":"Feature","geometry":{"type":"Point","coordinates":[116.100362,35.805247]},"properties":{"full_address":"山东省济宁市梁山县水泊街道龙城广场"}},{"type":"Feature","geometry":{"type":"Point","coordinates":[116.099875,35.823359]},"properties":{"full_address":"山东省济宁市梁山县梁山街道关庄村"}},{"type":"Feature","geometry":{"type":"Point","coordinates":[116.078424,35.81457]},"properties":{"full_address":"山东省济宁市梁山县梁山街道梁元小区"}},{"type":"Feature","geometry":{"type":"Point","coordinates":[116.257625,35.652918]},"properties":{"full_address":"山东省济宁市梁山县韩垓镇高店村"}},{"type":"Feature","geometry":{"type":"Point","coordinates":[116.284301,35.648122]},"properties":{"full_address":"山东省济宁市梁山县韩垓镇西马垓村"}},{"type":"Feature","geometry":{"type":"Point","coordinates":[116.282217,35.650865]},"properties":{"full_address":"山东省济宁市梁山县韩垓镇薛垓村"}},{"type":"Feature","geometry":{"type":"Point","coordinates":[116.292698,35.670156]},"properties":{"full_address":"山东省济宁市梁山县韩垓镇蔡徐村"}},{"type":"Feature","geometry":{"type":"Point","coordinates":[116.324413,35.654834]},"properties":{"full_address":"山东省济宁市梁山县韩垓镇开河南村"}},{"type":"Feature","geometry":{"type":"Point","coordinates":[116.324386,35.657216]},"properties":{"full_address":"山东省济宁市梁山县韩垓镇开河北村"}},{"type":"Feature","geometry":{"type":"Point","coordinates":[116.302827,35.690916]},"properties":{"full_address":"山东省济宁市梁山县韩垓镇油坊村"}},{"type":"Feature","geometry":{"type":"Point","coordinates":[116.28314,35.67311]},"properties":{"full_address":"山东省济宁市梁山县韩垓镇桑庄村"}},{"type":"Feature","geometry":{"type":"Point","coordinates":[116.26853,35.707416]},"properties":{"full_address":"山东省济宁市梁山县韩岗镇刁集村"}},{"type":"Feature","geometry":{"type":"Point","coordinates":[116.27431,35.706412]},"properties":{"full_address":"山东省济宁市梁山县韩岗镇彭庄村"}},{"type":"Feature","geometry":{"type":"Point","coordinates":[116.268086,35.697397]},"properties":{"full_address":"山东省济宁市梁山县韩岗镇李坊村"}},{"type":"Feature","geometry":{"type":"Point","coordinates":[116.28094,35.70479]},"properties":{"full_address":"山东省济宁市梁山县韩岗镇薛楼村"}},{"type":"Feature","geometry":{"type":"Point","coordinates":[116.102224,35.815179]},"properties":{"full_address":"山东省济宁市梁山县拳铺镇东马社区"}},{"type":"Feature","geometry":{"type":"Point","coordinates":[116.061317,35.89548]},"properties":{"full_address":"山东省济宁市梁山县大路口乡刘举楼村"}},{"type":"Feature","geometry":{"type":"Point","coordinates":[116.035563,35.89227]},"properties":{"full_address":"山东省济宁市梁山县大路口乡吕那里村"}},{"type":"Feature","geometry":{"type":"Point","coordinates":[116.027407,35.866932]},"properties":{"full_address":"山东省济宁市梁山县寿张集镇义和庄村"}},{"type":"Feature","geometry":{"type":"Point","coordinates":[115.907924,35.872769]},"properties":{"full_address":"山东省济宁市梁山县黑虎庙镇吴楼村"}},{"type":"Feature","geometry":{"type":"Point","coordinates":[116.060365,35.84078]},"properties":{"full_address":"山东省济宁市梁山县杨营镇张庄村"}},{"type":"Feature","geometry":{"type":"Point","coordinates":[116.093238,35.785514]},"properties":{"full_address":"山东省济宁市梁山县水泊街道郝山头村"}},{"type":"Feature","geometry":{"type":"Point","coordinates":[116.104588,35.801952]},"properties":{"full_address":"山东省济宁市梁山县水泊街道付庙村"}},{"type":"Feature","geometry":{"type":"Point","coordinates":[116.09679,35.796845]},"properties":{"full_address":"山东省济宁市梁山县水泊街道后集村"}},{"type":"Feature","geometry":{"type":"Point","coordinates":[116.117819,35.773035]},"properties":{"full_address":"山东省济宁市梁山县水泊街道刘集村"}},{"type":"Feature","geometry":{"type":"Point","coordinates":[116.095795,35.807899]},"properties":{"full_address":"山东省济宁市梁山县水泊街道水泊花园小区"}},{"type":"Feature","geometry":{"type":"Point","coordinates":[116.087851,35.78776]},"properties":{"full_address":"山东省济宁市梁山县水泊街道县医院家属院"}},{"type":"Feature","geometry":{"type":"Point","coordinates":[116.12617,35.781726]},"properties":{"full_address":"山东省济宁市梁山县水泊街道杏花村社区"}},{"type":"Feature","geometry":{"type":"Point","coordinates":[116.568075,35.398363]},"properties":{"full_address":"山东省济宁市梁山县水泊街道龙城御苑"}},{"type":"Feature","geometry":{"type":"Point","coordinates":[116.086296,35.78651]},"properties":{"full_address":"山东省济宁市梁山县水泊街道中央名郡"}},{"type":"Feature","geometry":{"type":"Point","coordinates":[116.101547,35.803242]},"properties":{"full_address":"山东省济宁市梁山县水泊街道国棉厂第二家属院"}},{"type":"Feature","geometry":{"type":"Point","coordinates":[116.090883,35.804922]},"properties":{"full_address":"山东省济宁市梁山县梁山街道国棉厂第四家属院"}},{"type":"Feature","geometry":{"type":"Point","coordinates":[116.102224,35.815179]},"properties":{"full_address":"山东省济宁市梁山县梁山街道流畅河社区"}},{"type":"Feature","geometry":{"type":"Point","coordinates":[116.113711,35.808234]},"properties":{"full_address":"山东省济宁市梁山县梁山街道任庄村"}},{"type":"Feature","geometry":{"type":"Point","coordinates":[116.265183,35.669788]},"properties":{"full_address":"山东省济宁市梁山县韩垓镇郭楼村"}},{"type":"Feature","geometry":{"type":"Point","coordinates":[116.30284,35.660166]},"properties":{"full_address":"山东省济宁市梁山县韩垓镇高庄村"}},{"type":"Feature","geometry":{"type":"Point","coordinates":[116.292568,35.642279]},"properties":{"full_address":"山东省济宁市梁山县韩垓镇东马垓村"}},{"type":"Feature","geometry":{"type":"Point","coordinates":[115.995929,35.8035]},"properties":{"full_address":"山东省济宁市梁山县马营镇赵坝村"}},{"type":"Feature","geometry":{"type":"Point","coordinates":[116.0765,35.752442]},"properties":{"full_address":"山东省济宁市梁山县马营镇王楼村"}},{"type":"Feature","geometry":{"type":"Point","coordinates":[116.198993,35.68706]},"properties":{"full_address":"山东省济宁市梁山县拳铺镇徐集阳光小区"}},{"type":"Feature","geometry":{"type":"Point","coordinates":[116.100569,35.722924]},"properties":{"full_address":"山东省济宁市梁山县拳铺镇郭堂村"}},{"type":"Feature","geometry":{"type":"Point","coordinates":[117.013582,35.413393]},"properties":{"full_address":"山东省济宁市邹城市钢山街道颜舍国际（齐鲁时代店）"}},{"type":"Feature","geometry":{"type":"Point","coordinates":[117.014341,35.423475]},"properties":{"full_address":"山东省济宁市邹城市钢山街道鑫琦府邸小区（南区）"}},{"type":"Feature","geometry":{"type":"Point","coordinates":[116.984599,35.437756]},"properties":{"full_address":"山东省济宁市邹城市钢山街道碧桂园小区"}},{"type":"Feature","geometry":{"type":"Point","coordinates":[117.011016,35.416161]},"properties":{"full_address":"山东省济宁市邹城市钢山街道齐鲁时代花园二期1号楼"}},{"type":"Feature","geometry":{"type":"Point","coordinates":[116.607307,35.429295]},"properties":{"full_address":"山东省济宁市高新区洸河街道贵熙园小区"}},{"type":"Feature","geometry":{"type":"Point","coordinates":[116.615048,35.366453]},"properties":{"full_address":"山东省济宁市太白湖新区许庄街道京杭佳苑F区13号楼"}},{"type":"Feature","geometry":{"type":"Point","coordinates":[116.584299,35.35031]},"properties":{"full_address":"山东省济宁市太白湖新区许庄街道恒大名都小区"}},{"type":"Feature","geometry":{"type":"Point","coordinates":[109.485392,30.276544]},"properties":{"full_address":"湖北省恩施土家族苗族自治州恩施市舞阳坝街道金凤苑小区除1栋以外的其他区域"}},{"type":"Feature","geometry":{"type":"Point","coordinates":[109.503048,30.279592]},"properties":{"full_address":"湖北省恩施土家族苗族自治州恩施市舞阳坝街道土桥坝制药厂宿舍区除12栋以外的其他区域"}},{"type":"Feature","geometry":{"type":"Point","coordinates":[109.473878,30.265268]},"properties":{"full_address":"湖北省恩施土家族苗族自治州恩施市舞阳坝街道蔡家河小区除7栋2单元以外的其他区域"}},{"type":"Feature","geometry":{"type":"Point","coordinates":[109.473878,30.265268]},"properties":{"full_address":"湖北省恩施土家族苗族自治州恩施市小渡船街道大帝新居小区除1单元以外的其他区域及底层商铺"}},{"type":"Feature","geometry":{"type":"Point","coordinates":[109.473878,30.265268]},"properties":{"full_address":"湖北省恩施土家族苗族自治州恩施市六角亭街道首府壹品小区除7栋一单元以外的其他区域"}},{"type":"Feature","geometry":{"type":"Point","coordinates":[109.498383,30.309596]},"properties":{"full_address":"湖北省恩施土家族苗族自治州恩施市金子坝街道万福国际小区除7、8、9栋以外的其他区域及底层商铺"}},{"type":"Feature","geometry":{"type":"Point","coordinates":[109.495465,30.324921]},"properties":{"full_address":"湖北省恩施土家族苗族自治州恩施市金子坝街道花果山小区除9排4栋、5栋以外的其他区域"}},{"type":"Feature","geometry":{"type":"Point","coordinates":[109.530849,30.289532]},"properties":{"full_address":"湖北省恩施土家族苗族自治州恩施市七里坪街道七里坪产业园除14栋以外的其他区域"}},{"type":"Feature","geometry":{"type":"Point","coordinates":[114.124197,22.541826]},"properties":{"full_address":"广东省深圳市罗湖区南湖街道向西社区向西村西区72号—74号围合区域"}},{"type":"Feature","geometry":{"type":"Point","coordinates":[114.142194,22.58058]},"properties":{"full_address":"广东省深圳市罗湖区东湖街道翠鹏社区鹏城花园一期7栋1单元"}},{"type":"Feature","geometry":{"type":"Point","coordinates":[114.134713,22.549624]},"properties":{"full_address":"广东省深圳市罗湖区黄贝街道华丽小区（除高风险区外）"}},{"type":"Feature","geometry":{"type":"Point","coordinates":[114.04467,22.555484]},"properties":{"full_address":"广东省深圳市福田区莲花街道布尾村第40栋"}},{"type":"Feature","geometry":{"type":"Point","coordinates":[114.100959,22.538919]},"properties":{"full_address":"广东省深圳市福田区南园街道巴登社区巴登村第99号"}},{"type":"Feature","geometry":{"type":"Point","coordinates":[114.039248,22.561945]},"properties":{"full_address":"广东省深圳市福田区梅林街道下梅林村第22号"}},{"type":"Feature","geometry":{"type":"Point","coordinates":[114.039109,22.561946]},"properties":{"full_address":"广东省深圳市福田区梅林街道下梅林村第23号、第25号、第26号"}},{"type":"Feature","geometry":{"type":"Point","coordinates":[114.046966,22.555212]},"properties":{"full_address":"广东省深圳市福田区莲花街道天一名居天怡阁"}},{"type":"Feature","geometry":{"type":"Point","coordinates":[114.079278,22.53673]},"properties":{"full_address":"广东省深圳市福田区福田街道福华路103号文化楼"}},{"type":"Feature","geometry":{"type":"Point","coordinates":[114.039136,22.562816]},"properties":{"full_address":"广东省深圳市福田区梅林街道下梅社区梅林路257号宿舍B栋"}},{"type":"Feature","geometry":{"type":"Point","coordinates":[114.074784,22.535348]},"properties":{"full_address":"广东省深圳市福田区福田街道福田村福新坊第60栋"}},{"type":"Feature","geometry":{"type":"Point","coordinates":[114.077722,22.531234]},"properties":{"full_address":"广东省深圳市福田区福田街道大康福盈门A单元、B单元、C单元"}},{"type":"Feature","geometry":{"type":"Point","coordinates":[114.039136,22.562816]},"properties":{"full_address":"广东省深圳市福田区梅林街道下梅社区梅林路257号宿舍A栋、C栋"}},{"type":"Feature","geometry":{"type":"Point","coordinates":[114.052462,22.520464]},"properties":{"full_address":"广东省深圳市福田区福保街道石厦新村第11栋、第12栋"}},{"type":"Feature","geometry":{"type":"Point","coordinates":[114.071407,22.524691]},"properties":{"full_address":"广东省深圳市福田区福田街道车检大厦"}},{"type":"Feature","geometry":{"type":"Point","coordinates":[114.100737,22.538989]},"properties":{"full_address":"广东省深圳市福田区南园街道巴登社区巴登村第97号、第98号、第106号-第108号、第114号-第116号"}},{"type":"Feature","geometry":{"type":"Point","coordinates":[114.084,22.531]},"properties":{"full_address":"广东省深圳市福田区南园街道汇港名苑北1栋-北3栋"}},{"type":"Feature","geometry":{"type":"Point","coordinates":[114.079021,22.532784]},"properties":{"full_address":"广东省深圳市福田区福田街道牛巷坊第2栋-第5栋、第20栋-第23栋、第28栋-第31栋"}},{"type":"Feature","geometry":{"type":"Point","coordinates":[114.089615,22.544865]},"properties":{"full_address":"广东省深圳市福田区华强北街道桑达大厦"}},{"type":"Feature","geometry":{"type":"Point","coordinates":[114.101637,22.538724]},"properties":{"full_address":"广东省深圳市福田区南园街道巴登村北区第70栋-第83栋、第86栋-第91栋、第100栋、第101栋"}},{"type":"Feature","geometry":{"type":"Point","coordinates":[114.044699,22.55532]},"properties":{"full_address":"广东省深圳市福田区莲花街道布尾村第27栋"}},{"type":"Feature","geometry":{"type":"Point","coordinates":[114.078541,22.534022]},"properties":{"full_address":"广东省深圳市福田区福田街道祠堂坊第1栋、2栋、6栋、7栋、11栋-35栋"}},{"type":"Feature","geometry":{"type":"Point","coordinates":[114.077736,22.536058]},"properties":{"full_address":"广东省深圳市福田区福田街道福华路155号小区第1栋-第3栋、第5栋、第6栋，福华路155号综合楼及裙楼"}},{"type":"Feature","geometry":{"type":"Point","coordinates":[114.062707,22.527151]},"properties":{"full_address":"广东省深圳市福田区福田街道上围一村第162栋-166栋、第172栋-第174栋、第176栋、第177栋、第179栋- 181栋、第185栋-第197栋"}},{"type":"Feature","geometry":{"type":"Point","coordinates":[114.079367,22.535501]},"properties":{"full_address":"广东省深圳市福田区福田街道西头坊第40栋、第41栋、第43栋、第47栋-第49栋，福益楼A座、B座"}},{"type":"Feature","geometry":{"type":"Point","coordinates":[114.082868,22.535872]},"properties":{"full_address":"广东省深圳市福田区福田街道福星路162号福星花园大厦裙楼"}},{"type":"Feature","geometry":{"type":"Point","coordinates":[114.054793,22.565883]},"properties":{"full_address":"广东省深圳市福田区梅林街道上梅林新村第18-2栋、第19栋-第21栋、第26栋-第33栋、第38栋-第50栋、第52栋-第61栋、第154栋-第159栋、第161栋-第185栋、第188栋-第201栋、第206栋-第219栋、第223栋、第224栋"}},{"type":"Feature","geometry":{"type":"Point","coordinates":[114.083872,22.536833]},"properties":{"full_address":"广东省深圳市福田区福田街道福星路172号、福星路196号、福华路17号、福华路19号上武楼3-8楼"}},{"type":"Feature","geometry":{"type":"Point","coordinates":[114.03986,22.562839]},"properties":{"full_address":"广东省深圳市福田区梅林街道北环大道辅路-梅林路-梅丽路-梅华支路围合区域(高风险区、锦林新居除外)"}},{"type":"Feature","geometry":{"type":"Point","coordinates":[114.231081,22.543475]},"properties":{"full_address":"广东省深圳市盐田区沙头角边境特别管理区"}},{"type":"Feature","geometry":{"type":"Point","coordinates":[114.010741,22.650547]},"properties":{"full_address":"广东省深圳市龙华区大浪街道高峰社区赤岭头新一村第50至63栋、80栋、82栋、84至93栋、115栋、116栋"}},{"type":"Feature","geometry":{"type":"Point","coordinates":[113.829518,22.694948]},"properties":{"full_address":"广东省深圳市龙华区观湖街道新田社区（除高风险区外）"}},{"type":"Feature","geometry":{"type":"Point","coordinates":[113.019189,22.515528]},"properties":{"full_address":"广东省江门市新会区圭峰会城汇侨花园小区27座"}},{"type":"Feature","geometry":{"type":"Point","coordinates":[113.042947,22.545147]},"properties":{"full_address":"广东省江门市新会区圭峰会城玉圭园小区B区38幢"}},{"type":"Feature","geometry":{"type":"Point","coordinates":[113.053847,22.499307]},"properties":{"full_address":"广东省江门市新会区圭峰会城碧桂园盛世名门小区一街八座、九座"}},{"type":"Feature","geometry":{"type":"Point","coordinates":[113.018111,22.512532]},"properties":{"full_address":"广东省江门市新会区圭峰会城工业大道、冈州大道中、冈州大道西、紫华路和新会大道所合围的区域，紫华园小区以及紫华园小区南侧与新会大道西之间区域（高风险区除外）"}},{"type":"Feature","geometry":{"type":"Point","coordinates":[113.050995,22.514734]},"properties":{"full_address":"广东省江门市新会区圭峰会城光华里59座以南，名苑华庭42座以北，名苑华庭41座以西合围区域"}},{"type":"Feature","geometry":{"type":"Point","coordinates":[113.049945,22.493057]},"properties":{"full_address":"广东省江门市新会区梅江村梅苑中村1巷1号至6号、1巷5号至6巷5号、梅江小学以南至今洲路区域"}},{"type":"Feature","geometry":{"type":"Point","coordinates":[112.79087,22.249355]},"properties":{"full_address":"广东省江门市台山市麦当劳（台城街道台城通济路2-4号2层）"}},{"type":"Feature","geometry":{"type":"Point","coordinates":[112.826125,22.244025]},"properties":{"full_address":"广东省江门市台山市台城街道昌大昌广场"}},{"type":"Feature","geometry":{"type":"Point","coordinates":[112.798546,22.244262]},"properties":{"full_address":"广东省江门市台山市台城街道秀荷花城（高风险区除外）"}},{"type":"Feature","geometry":{"type":"Point","coordinates":[112.784934,22.25929]},"properties":{"full_address":"广东省江门市台山市中石化加油站（台城街道S273旧群厚工业区西南400米）"}},{"type":"Feature","geometry":{"type":"Point","coordinates":[114.522353,22.752471]},"properties":{"full_address":"广东省惠州市大亚湾区澳头街道金湾花园8栋"}},{"type":"Feature","geometry":{"type":"Point","coordinates":[114.530777,22.749965]},"properties":{"full_address":"广东省惠州市大亚湾区澳头街道中央公园9栋"}},{"type":"Feature","geometry":{"type":"Point","coordinates":[114.521376,22.747383]},"properties":{"full_address":"广东省惠州市大亚湾区澳头街道国力凯旋城6栋"}},{"type":"Feature","geometry":{"type":"Point","coordinates":[114.524887,22.748494]},"properties":{"full_address":"广东省惠州市大亚湾区澳头街道国力凯旋城21栋"}},{"type":"Feature","geometry":{"type":"Point","coordinates":[114.522847,22.750741]},"properties":{"full_address":"广东省惠州市大亚湾区澳头街道天悦龙庭12栋"}},{"type":"Feature","geometry":{"type":"Point","coordinates":[114.523202,22.752025]},"properties":{"full_address":"广东省惠州市大亚湾区澳头街道天悦龙庭15栋"}},{"type":"Feature","geometry":{"type":"Point","coordinates":[113.618216,22.919769]},"properties":{"full_address":"广东省东莞市沙田镇海腾国际码头（除高风险区）"}},{"type":"Feature","geometry":{"type":"Point","coordinates":[107.967941,21.547289]},"properties":{"full_address":"广西壮族自治区防城港市东兴市七星社区第2网格"}},{"type":"Feature","geometry":{"type":"Point","coordinates":[107.967941,21.547289]},"properties":{"full_address":"广西壮族自治区防城港市东兴市七星社区第4网格"}},{"type":"Feature","geometry":{"type":"Point","coordinates":[107.96775,21.55367]},"properties":{"full_address":"广西壮族自治区防城港市东兴市七星社区天和路明秀小区"}},{"type":"Feature","geometry":{"type":"Point","coordinates":[107.967916,21.538029]},"properties":{"full_address":"广西壮族自治区防城港市东兴市公园社区第1网格"}},{"type":"Feature","geometry":{"type":"Point","coordinates":[107.972783,21.542026]},"properties":{"full_address":"广西壮族自治区防城港市东兴市中山社区第2网格"}},{"type":"Feature","geometry":{"type":"Point","coordinates":[107.975283,21.543677]},"properties":{"full_address":"广西壮族自治区防城港市东兴市中山社区北仑大道桂滨小区"}},{"type":"Feature","geometry":{"type":"Point","coordinates":[108.020438,21.565536]},"properties":{"full_address":"广西壮族自治区防城港市东兴市楠木山村"}},{"type":"Feature","geometry":{"type":"Point","coordinates":[107.979378,21.558403]},"properties":{"full_address":"广西壮族自治区防城港市东兴市深沟社区金湖路89号华隆凤翔阁小区"}},{"type":"Feature","geometry":{"type":"Point","coordinates":[107.967941,21.547289]},"properties":{"full_address":"广西壮族自治区防城港市东兴市七星社区第13网格成德国际贸易广场商住小区（含商铺）"}},{"type":"Feature","geometry":{"type":"Point","coordinates":[107.986687,21.55583]},"properties":{"full_address":"广西壮族自治区防城港市东兴市深沟社区第4网格喜盈门小区17栋、18栋、19栋、20栋"}},{"type":"Feature","geometry":{"type":"Point","coordinates":[107.977458,21.559778]},"properties":{"full_address":"广西壮族自治区防城港市东兴市深沟社区第13网格东盟花园小区"}},{"type":"Feature","geometry":{"type":"Point","coordinates":[107.975128,21.552825]},"properties":{"full_address":"广西壮族自治区防城港市东兴市深沟社区第22网格的明基花园"}},{"type":"Feature","geometry":{"type":"Point","coordinates":[107.967941,21.547289]},"properties":{"full_address":"广西壮族自治区防城港市东兴市七星社区第21网格"}},{"type":"Feature","geometry":{"type":"Point","coordinates":[108.008751,21.666996]},"properties":{"full_address":"广西壮族自治区防城港市东兴市马路镇大桥村大桥组"}},{"type":"Feature","geometry":{"type":"Point","coordinates":[109.762974,18.312921]},"properties":{"full_address":"海南省三亚市海棠区江林社区林旺镇林旺南安置区A1-12"}},{"type":"Feature","geometry":{"type":"Point","coordinates":[109.511854,18.250412]},"properties":{"full_address":"海南省三亚市吉阳区商品街社区麒麟巷20号政府大院1、2、4、6栋"}},{"type":"Feature","geometry":{"type":"Point","coordinates":[109.512112,18.249625]},"properties":{"full_address":"海南省三亚市吉阳区商品街社区河东路中亚酒店后面怡和花园小区"}},{"type":"Feature","geometry":{"type":"Point","coordinates":[109.537038,18.30166]},"properties":{"full_address":"海南省三亚市吉阳区南新居得月村"}},{"type":"Feature","geometry":{"type":"Point","coordinates":[109.505435,18.269903]},"properties":{"full_address":"海南省三亚市吉阳区新月社区金凤凰山庄小区2栋，3栋1单元"}},{"type":"Feature","geometry":{"type":"Point","coordinates":[109.51563,18.2454]},"properties":{"full_address":"海南省三亚市吉阳区商品街社区大东海安置区B、C栋"}},{"type":"Feature","geometry":{"type":"Point","coordinates":[109.521251,18.23118]},"properties":{"full_address":"海南省三亚市吉阳区下洋田社区海外宿舍2栋"}},{"type":"Feature","geometry":{"type":"Point","coordinates":[109.500272,18.312721]},"properties":{"full_address":"海南省三亚市吉阳区抱坡村委会东至师部农场路，北至海上丝绸之路，西至和盛兴业钢材（包含和盛兴业），南至芒果地边缘"}},{"type":"Feature","geometry":{"type":"Point","coordinates":[109.529022,18.291428]},"properties":{"full_address":"海南省三亚市吉阳区东岸村委会保利悦府小区（6、7、8栋除外）"}},{"type":"Feature","geometry":{"type":"Point","coordinates":[109.519358,18.294183]},"properties":{"full_address":"海南省三亚市吉阳区南新居食品厂小区，千百惠超市仓库"}},{"type":"Feature","geometry":{"type":"Point","coordinates":[109.513522,18.247656]},"properties":{"full_address":"海南省三亚市吉阳区商品街社区八巷10、12、14号楼、七巷48、50号楼"}},{"type":"Feature","geometry":{"type":"Point","coordinates":[109.514052,18.248728]},"properties":{"full_address":"海南省三亚市吉阳区商品街社区十巷20号，十一巷17号、19号"}},{"type":"Feature","geometry":{"type":"Point","coordinates":[109.51552,18.24654]},"properties":{"full_address":"海南省三亚市吉阳区商品街社区五巷49、51号楼"}},{"type":"Feature","geometry":{"type":"Point","coordinates":[109.531242,18.251418]},"properties":{"full_address":"海南省三亚市吉阳区临春社区第二网格：北至狗岭路，东至人民防空办公室，南至嘉诚超市，西至临春二路；"}},{"type":"Feature","geometry":{"type":"Point","coordinates":[109.530308,18.251817]},"properties":{"full_address":"海南省三亚市吉阳区临春社区第三网格：东至临春二路，北至狗岭路，南至三路五巷，西至临春花都花卉苗圃"}},{"type":"Feature","geometry":{"type":"Point","coordinates":[109.527553,18.248668]},"properties":{"full_address":"海南省三亚市吉阳区临春社区第四网格： 东至四网格与五，七网格分界线，西至山水国际外围，北至三路五巷，南至临春农贸市场"}},{"type":"Feature","geometry":{"type":"Point","coordinates":[109.527553,18.248668]},"properties":{"full_address":"海南省三亚市吉阳区临春社区第七网格： 东至六路一巷，北至六网格与五网格分界线，西至大汇嘉园外围，南至临春七组安置区山顶"}},{"type":"Feature","geometry":{"type":"Point","coordinates":[109.51228,18.2441]},"properties":{"full_address":"海南省三亚市吉阳区港门村社区第一网格：河东路至榆亚路(除教育巷3号为高风险区；鸿洲时代海岸小区、市教育局、河东路128号和130号为低风险区）"}},{"type":"Feature","geometry":{"type":"Point","coordinates":[109.516533,18.237469]},"properties":{"full_address":"海南省三亚市吉阳区港门村社区第二网格：临春河一巷至十三巷（除临春河五巷2号、临春河十二巷11号为高风险地区；美丰小区、三永银河海湾小区、临春河路市委工地为低风险区）；临春河路41号到135号；市委安置楼"}},{"type":"Feature","geometry":{"type":"Point","coordinates":[109.516059,18.241963]},"properties":{"full_address":"海南省三亚市吉阳区港门村社区第三网格：东一路一巷（除26号、49号、86号）、东一路二巷、东二路（除38号、43号、103号）、东三路"}},{"type":"Feature","geometry":{"type":"Point","coordinates":[109.5147,18.239842]},"properties":{"full_address":"海南省三亚市吉阳区港门村社区第四网格：三路（除24号、41号、45号、48号）、四路（除20号、24号、25号、28号）"}},{"type":"Feature","geometry":{"type":"Point","coordinates":[109.515174,18.241385]},"properties":{"full_address":"海南省三亚市吉阳区港门村社区第五网格：港门村上村路（除31号、69号、亮威公寓）、一路一巷（除15号）"}},{"type":"Feature","geometry":{"type":"Point","coordinates":[109.5147,18.239842]},"properties":{"full_address":"海南省三亚市吉阳区港门村社区第六网格：二路（除21号、43号）"}},{"type":"Feature","geometry":{"type":"Point","coordinates":[109.513099,18.243745]},"properties":{"full_address":"海南省三亚市吉阳区港门村社区第七网格：一路四巷（除15号）、一路五巷（除聚龙公寓）"}},{"type":"Feature","geometry":{"type":"Point","coordinates":[109.513017,18.245168]},"properties":{"full_address":"海南省三亚市吉阳区港门村社区第八网格：港华街一巷、港华街二巷"}},{"type":"Feature","geometry":{"type":"Point","coordinates":[109.515924,18.244766]},"properties":{"full_address":"海南省三亚市吉阳区港门村社区第九网格：一路二巷（除2号、4号、22号、24号、30号、36号、45号、福全兴超市、鹭园公寓、利维公寓、天龙大厦）、一路三巷（除24号、29号、32号）"}},{"type":"Feature","geometry":{"type":"Point","coordinates":[109.510158,18.260809]},"properties":{"full_address":"海南省三亚市吉阳区月川社区川河路一巷8-2、8-3、8-4；川河路二巷8-12、8-14、8-16；"}},{"type":"Feature","geometry":{"type":"Point","coordinates":[109.505758,18.263635]},"properties":{"full_address":"海南省三亚市吉阳区月川社区东一巷1-82、1-83、1-85、1-90、1-91、1-89；"}},{"type":"Feature","geometry":{"type":"Point","coordinates":[109.505758,18.263635]},"properties":{"full_address":"海南省三亚市吉阳区月川社区东二巷2-61、2-62、2-63、2-71、2-72、2-73、2-74、2-75；东二巷3-59、3-58、3-57、3-56、3-55、3-69、3-70、3-71、3-68、3-61、3-60；东二巷5-38、5-35、5-36、5-37、5-41、5-40、5-39、5-42"}},{"type":"Feature","geometry":{"type":"Point","coordinates":[109.50375,18.244219]},"properties":{"full_address":"海南省三亚市天涯区和平社区港务局二区小区（全部）"}},{"type":"Feature","geometry":{"type":"Point","coordinates":[109.451951,18.296619]},"properties":{"full_address":"海南省三亚市天涯区羊新社区龙眼园路437、438、439号"}},{"type":"Feature","geometry":{"type":"Point","coordinates":[109.440284,18.299698]},"properties":{"full_address":"海南省三亚市天涯区回辉社区东至一村五路与一村中路交接处，西至一村五路小巷口，南至一村五路南侧居民楼边界，北至一村五路北侧居民楼边界"}},{"type":"Feature","geometry":{"type":"Point","coordinates":[109.446786,18.309886]},"properties":{"full_address":"海南省三亚市天涯区水蛟村委会东至水蛟路（不包括凤凰八一新村），南至鹿城大道，西至三亚博鑫商旅，北至新开田一组北部田边"}},{"type":"Feature","geometry":{"type":"Point","coordinates":[109.454758,18.296332]},"properties":{"full_address":"海南省三亚市天涯区羊栏村委会羊西五小组64号楼"}},{"type":"Feature","geometry":{"type":"Point","coordinates":[109.451631,18.303056]},"properties":{"full_address":"海南省三亚市天涯区羊栏村委会羊栏留一间旅租楼栋"}},{"type":"Feature","geometry":{"type":"Point","coordinates":[109.412643,18.298156]},"properties":{"full_address":"海南省三亚市天涯区桶井村委会凤凰村三小组"}},{"type":"Feature","geometry":{"type":"Point","coordinates":[109.507655,18.242058]},"properties":{"full_address":"海南省三亚市天涯区建设街社区建设街"}},{"type":"Feature","geometry":{"type":"Point","coordinates":[109.507952,18.242833]},"properties":{"full_address":"海南省三亚市天涯区建设街社区立新巷"}},{"type":"Feature","geometry":{"type":"Point","coordinates":[109.507975,18.243356]},"properties":{"full_address":"海南省三亚市天涯区建设街社区建新巷"}},{"type":"Feature","geometry":{"type":"Point","coordinates":[109.504343,18.240476]},"properties":{"full_address":"海南省三亚市天涯区建设街社区跃进街"}},{"type":"Feature","geometry":{"type":"Point","coordinates":[109.500816,18.257214]},"properties":{"full_address":"海南省三亚市天涯区儋州村社区第2-5网格（东至解放路，西至胜利路，南至团结路，北至第三中学外校园巷）"}},{"type":"Feature","geometry":{"type":"Point","coordinates":[109.451951,18.296619]},"properties":{"full_address":"海南省三亚市天涯区羊新社区龙眼园路一巷往东到居委会门口"}},{"type":"Feature","geometry":{"type":"Point","coordinates":[109.508004,18.223682]},"properties":{"full_address":"海南省三亚市天涯区   南海社区渔村路十三巷213号、211-1号、207-1号"}},{"type":"Feature","geometry":{"type":"Point","coordinates":[109.44074,18.305735]},"properties":{"full_address":"海南省三亚市天涯区水蛟村委会新开田村二组"}},{"type":"Feature","geometry":{"type":"Point","coordinates":[109.217784,19.744993]},"properties":{"full_address":"海南省儋州市市辖区新英湾办事处：新都居委会"}},{"type":"Feature","geometry":{"type":"Point","coordinates":[109.583852,19.527236]},"properties":{"full_address":"海南省儋州市市辖区那大镇先锋社区：文化北路泰安苑F2、F4、A3、A6栋"}},{"type":"Feature","geometry":{"type":"Point","coordinates":[106.452965,29.530242]},"properties":{"full_address":"重庆市重庆市渝中区凤驿来凤鱼璧山兔（解放碑步行街店）"}},{"type":"Feature","geometry":{"type":"Point","coordinates":[106.582207,29.558299]},"properties":{"full_address":"重庆市重庆市渝中区田土香老菜坊（解放碑店）"}},{"type":"Feature","geometry":{"type":"Point","coordinates":[106.573517,29.555678]},"properties":{"full_address":"重庆市重庆市渝中区邓记莽子老火锅（民生路店）"}},{"type":"Feature","geometry":{"type":"Point","coordinates":[106.582606,29.557467]},"properties":{"full_address":"重庆市重庆市渝中区练杰精品酒店（解放碑长江索道店）"}},{"type":"Feature","geometry":{"type":"Point","coordinates":[106.572768,29.560624]},"properties":{"full_address":"重庆市重庆市渝中区临江路16号文华大厦A、B、C栋"}},{"type":"Feature","geometry":{"type":"Point","coordinates":[106.571603,29.558197]},"properties":{"full_address":"重庆市重庆市渝中区华莱士炸鸡汉堡临江路店所在楼栋及临街店铺（渝中区临江路118号、118号附1-2号、126号）"}},{"type":"Feature","geometry":{"type":"Point","coordinates":[104.11222,30.615529]},"properties":{"full_address":"四川省成都市锦江区狮子山街道学府芳邻1-4栋"}},{"type":"Feature","geometry":{"type":"Point","coordinates":[104.10419,30.602574]},"properties":{"full_address":"四川省成都市锦江区锦华路街道经天路6号院1-7栋，包含底商"}},{"type":"Feature","geometry":{"type":"Point","coordinates":[104.137695,30.59487]},"properties":{"full_address":"四川省成都市锦江区成龙路街道卓锦城6期1-22栋"}},{"type":"Feature","geometry":{"type":"Point","coordinates":[104.106593,30.629192]},"properties":{"full_address":"四川省成都市锦江区沙河街道镏金岁月1-8栋，包含商业"}},{"type":"Feature","geometry":{"type":"Point","coordinates":[103.988392,30.674364]},"properties":{"full_address":"四川省成都市青羊区苏坡街道德商金沙十年小区1-4栋（清水滨河路131号）"}},{"type":"Feature","geometry":{"type":"Point","coordinates":[103.988685,30.676864]},"properties":{"full_address":"四川省成都市青羊区苏坡街道米兰香洲小区1-4栋（清水滨河路104号）"}},{"type":"Feature","geometry":{"type":"Point","coordinates":[103.987145,30.675946]},"properties":{"full_address":"四川省成都市青羊区苏坡街道清水河畔小区1-6栋（金福南路55号）"}},{"type":"Feature","geometry":{"type":"Point","coordinates":[103.990809,30.674426]},"properties":{"full_address":"四川省成都市青羊区苏坡街道英伦金沙小区1-3栋（清水滨河路99号）"}},{"type":"Feature","geometry":{"type":"Point","coordinates":[103.96414,30.66723]},"properties":{"full_address":"四川省成都市青羊区蔡桥街道万科金色领域小区1-10、14-18栋（含底商）（光华南三路88号）"}},{"type":"Feature","geometry":{"type":"Point","coordinates":[104.041269,30.653074]},"properties":{"full_address":"四川省成都市青羊区草堂街道一环路西一段155号院1-4、6-10、12-19栋，（一环路西一段155号）"}},{"type":"Feature","geometry":{"type":"Point","coordinates":[104.081435,30.667436]},"properties":{"full_address":"四川省成都市青羊区草市街道帘官公所街57号院（帘官公所街57号）"}},{"type":"Feature","geometry":{"type":"Point","coordinates":[104.099487,30.772613]},"properties":{"full_address":"四川省成都市金牛区天回镇街道北斗七星城全部楼栋（含底商）"}},{"type":"Feature","geometry":{"type":"Point","coordinates":[104.057393,30.721722]},"properties":{"full_address":"四川省成都市金牛区沙河源街道凌江尚府1-2栋（含底商）"}},{"type":"Feature","geometry":{"type":"Point","coordinates":[104.066197,30.719564]},"properties":{"full_address":"四川省成都市金牛区沙河源街道水韵天府1栋、7栋（含底商）"}},{"type":"Feature","geometry":{"type":"Point","coordinates":[104.03603,30.687501]},"properties":{"full_address":"四川省成都市金牛区茶店子街道五里墩路东二巷1、3、5、7、9号院和二环路西三段62号院"}},{"type":"Feature","geometry":{"type":"Point","coordinates":[104.072974,30.719819]},"properties":{"full_address":"四川省成都市金牛区沙河源街道王贾红豆华庭2栋、6栋"}},{"type":"Feature","geometry":{"type":"Point","coordinates":[104.068479,30.706049]},"properties":{"full_address":"四川省成都市金牛区五块石街道赛云台北路5号院和7号院"}},{"type":"Feature","geometry":{"type":"Point","coordinates":[104.062375,30.703231]},"properties":{"full_address":"四川省成都市金牛区五块石街道五福花园1-8栋（含底商）"}},{"type":"Feature","geometry":{"type":"Point","coordinates":[104.062433,30.704638]},"properties":{"full_address":"四川省成都市金牛区五块石街道玉居庵西路8号院、五福苑、成都铁路局五块石小区、华凌尚城"}},{"type":"Feature","geometry":{"type":"Point","coordinates":[103.996862,30.708752]},"properties":{"full_address":"四川省成都市金牛区金泉街道白鸽岛尚2栋、3栋（含底商）"}},{"type":"Feature","geometry":{"type":"Point","coordinates":[104.08575,30.675]},"properties":{"full_address":"四川省成都市金牛区驷马桥街道恒大曹家巷广场3号楼1栋、3号楼2栋及底商"}},{"type":"Feature","geometry":{"type":"Point","coordinates":[104.039696,30.679663]},"properties":{"full_address":"四川省成都市金牛区抚琴街道营通街99号，金鱼街18号，金鱼街7号，抚琴西北街26号，营中巷32号，营通街16号，抚琴街1号院，金琴路164号9、10、11、12栋，抚琴街南四巷5号，抚琴街南一巷12号、14号"}},{"type":"Feature","geometry":{"type":"Point","coordinates":[103.99556,30.639044]},"properties":{"full_address":"四川省成都市武侯区果盛路以东南、果堰街以东北、顺和路以西北、武草路以西南合围区域（除中海熙苑一期外）"}},{"type":"Feature","geometry":{"type":"Point","coordinates":[104.034078,30.636534]},"properties":{"full_address":"四川省成都市武侯区浆洗街街道红牌楼北街5号院"}},{"type":"Feature","geometry":{"type":"Point","coordinates":[104.002631,30.64533]},"properties":{"full_address":"四川省成都市武侯区晋阳街道晋康街289号民乐园东区1-2栋（含底商）"}},{"type":"Feature","geometry":{"type":"Point","coordinates":[104.001152,30.658997]},"properties":{"full_address":"四川省成都市武侯区晋阳街道金世纪皇家幼儿园、皇家别墅C34-C36、皇家花园10栋、12栋、17栋（含底商）"}},{"type":"Feature","geometry":{"type":"Point","coordinates":[104.042921,30.606942]},"properties":{"full_address":"四川省成都市武侯区浆洗街街道双楠社区除应急保供、医疗救助单位和已划定为高风险区的小区院落以外的其他区域"}},{"type":"Feature","geometry":{"type":"Point","coordinates":[104.030169,30.649755]},"properties":{"full_address":"四川省成都市武侯区浆洗街街道少陵社区除应急保供、医疗救助单位和已划定为高风险区的小区院落以外的其他区域"}},{"type":"Feature","geometry":{"type":"Point","coordinates":[104.042921,30.606942]},"properties":{"full_address":"四川省成都市武侯区浆洗街街道百花社区除应急保供、医疗救助单位和已划定为高风险区的小区院落以外的其他区域"}},{"type":"Feature","geometry":{"type":"Point","coordinates":[104.038102,30.642056]},"properties":{"full_address":"四川省成都市武侯区浆洗街街道七道堰社区除应急保供、医疗救助单位和已划定为高风险区的小区院落以外的其他区域"}},{"type":"Feature","geometry":{"type":"Point","coordinates":[104.0375,30.637495]},"properties":{"full_address":"四川省成都市武侯区浆洗街街道广福桥社区除应急保供、医疗救助单位和已划定为高风险区的小区院落以外的其他区域"}},{"type":"Feature","geometry":{"type":"Point","coordinates":[104.035452,30.636837]},"properties":{"full_address":"四川省成都市武侯区浆洗街街道楠欣社区除应急保供、医疗救助单位和已划定为高风险区的小区院落以外的其他区域"}},{"type":"Feature","geometry":{"type":"Point","coordinates":[103.998036,30.654597]},"properties":{"full_address":"四川省成都市武侯区晋阳街道中央花园二期除高风险楼栋以外的其他楼栋"}},{"type":"Feature","geometry":{"type":"Point","coordinates":[104.081795,30.640011]},"properties":{"full_address":"四川省成都市武侯区望江路街道龙江路28号小区（含底商）"}},{"type":"Feature","geometry":{"type":"Point","coordinates":[103.992009,30.608901]},"properties":{"full_address":"四川省成都市武侯区簇桥街道成双大道、武侯大道铁佛段、百锦路、龙井北街、龙井南街、簇桥后街合围区域"}},{"type":"Feature","geometry":{"type":"Point","coordinates":[103.980782,30.653844]},"properties":{"full_address":"四川省成都市武侯区华兴街道南桥社区三环路以南、成双大道以东区域"}},{"type":"Feature","geometry":{"type":"Point","coordinates":[103.991087,30.609642]},"properties":{"full_address":"四川省成都市武侯区簇桥街道锦城社区成双大道、智远大道、金履二路、武侯大道铁佛段合围区域"}},{"type":"Feature","geometry":{"type":"Point","coordinates":[103.987886,30.602254]},"properties":{"full_address":"四川省成都市武侯区华兴街道三河社区沈家桥路以南、黄堰河以东、武侯大道以北、鸡公堰以西合围区域"}},{"type":"Feature","geometry":{"type":"Point","coordinates":[103.991165,30.594379]},"properties":{"full_address":"四川省成都市武侯区金花桥街道文昌社区成双大道以南、武侯大道文昌段以东北区域"}},{"type":"Feature","geometry":{"type":"Point","coordinates":[104.031557,30.633538]},"properties":{"full_address":"四川省成都市武侯区红牌楼街道红牌楼商业广场、翻胎厂宿舍（含底商）"}},{"type":"Feature","geometry":{"type":"Point","coordinates":[104.031379,30.633505]},"properties":{"full_address":"四川省成都市武侯区红牌楼街道二环路南四段69号优客联邦一期（含底商）"}},{"type":"Feature","geometry":{"type":"Point","coordinates":[104.030331,30.6323]},"properties":{"full_address":"四川省成都市武侯区红牌楼街道董家湾北街3号优客联邦二期（含底商）"}},{"type":"Feature","geometry":{"type":"Point","coordinates":[104.03127,30.631268]},"properties":{"full_address":"四川省成都市武侯区红牌楼街道长城西一路39号优客联邦三期（含底商）"}},{"type":"Feature","geometry":{"type":"Point","coordinates":[104.029313,30.632749]},"properties":{"full_address":"四川省成都市武侯区红牌楼街道佳灵路7号红牌楼广场（含底商）"}},{"type":"Feature","geometry":{"type":"Point","coordinates":[104.030638,30.630282]},"properties":{"full_address":"四川省成都市武侯区红牌楼街道新马路24号长城嘉苑（含底商）"}},{"type":"Feature","geometry":{"type":"Point","coordinates":[104.029542,30.63071]},"properties":{"full_address":"四川省成都市武侯区红牌楼街道董家湾北街2号长城福苑（含底商）"}},{"type":"Feature","geometry":{"type":"Point","coordinates":[104.029466,30.6291]},"properties":{"full_address":"四川省成都市武侯区红牌楼街道董家湾正街1号长城馨苑（含底商）"}},{"type":"Feature","geometry":{"type":"Point","coordinates":[104.029859,30.630832]},"properties":{"full_address":"四川省成都市武侯区红牌楼街道新马路27号宿舍（含底商）"}},{"type":"Feature","geometry":{"type":"Point","coordinates":[104.028428,30.628546]},"properties":{"full_address":"四川省成都市武侯区红牌楼街道董家湾北街8号拉萨安居苑（含底商）"}},{"type":"Feature","geometry":{"type":"Point","coordinates":[104.026674,30.629542]},"properties":{"full_address":"四川省成都市武侯区红牌楼街道佳灵路39号优地A区（含底商）"}},{"type":"Feature","geometry":{"type":"Point","coordinates":[104.029125,30.633464]},"properties":{"full_address":"四川省成都市武侯区红牌楼街道董家湾北街15号院（含底商）"}},{"type":"Feature","geometry":{"type":"Point","coordinates":[104.02747,30.629034]},"properties":{"full_address":"四川省成都市武侯区红牌楼街道董家湾北街17号院（含底商）"}},{"type":"Feature","geometry":{"type":"Point","coordinates":[104.028184,30.634282]},