{"type":"FeatureCollection","features":[{"type":"Feature","geometry":{"type":"Point","coordinates":[115.901303,40.374294]},"properties":{"province":"北京市","city":"延庆区","county":"康庄镇","community":"草原情羊蝎子火锅店","full_address":"北京市延庆区康庄镇草原情羊蝎子火锅店","info":""}},{"type":"Feature","geometry":{"type":"Point","coordinates":[115.902105,40.373121]},"properties":{"province":"北京市","city":"延庆区","county":"康庄镇","community":"百品尚购物中心","full_address":"北京市延庆区康庄镇百品尚购物中心","info":""}},{"type":"Feature","geometry":{"type":"Point","coordinates":[115.970936,40.458857]},"properties":{"province":"北京市","city":"延庆区","county":"儒林街道","community":"长青削面馆","full_address":"北京市延庆区儒林街道长青削面馆","info":""}},{"type":"Feature","geometry":{"type":"Point","coordinates":[117.251344,39.077359]},"properties":{"province":"天津市","city":"天津市","county":"河西区","community":"陈塘庄街四信里8-11号楼除10号楼1门外","full_address":"天津市天津市河西区陈塘庄街四信里8-11号楼除10号楼1门外","info":""}},{"type":"Feature","geometry":{"type":"Point","coordinates":[117.314289,39.139464]},"properties":{"province":"天津市","city":"天津市","county":"东丽区","community":"万新街蔚秀花园（除9、10、11、14、15、22、23、26号楼）","full_address":"天津市天津市东丽区万新街蔚秀花园（除9、10、11、14、15、22、23、26号楼）","info":""}},{"type":"Feature","geometry":{"type":"Point","coordinates":[117.296287,39.048961]},"properties":{"province":"天津市","city":"天津市","county":"津南区","community":"双林街海天南苑除1号楼、2号楼、15号楼以外区域","full_address":"天津市天津市津南区双林街海天南苑除1号楼、2号楼、15号楼以外区域","info":""}},{"type":"Feature","geometry":{"type":"Point","coordinates":[117.276752,39.051271]},"properties":{"province":"天津市","city":"天津市","county":"津南区","community":"双林街津铁惠苑小区19号楼","full_address":"天津市天津市津南区双林街津铁惠苑小区19号楼","info":""}},{"type":"Feature","geometry":{"type":"Point","coordinates":[117.286701,39.054176]},"properties":{"province":"天津市","city":"天津市","county":"津南区","community":"双林街福松源庄7号楼3门","full_address":"天津市天津市津南区双林街福松源庄7号楼3门","info":""}},{"type":"Feature","geometry":{"type":"Point","coordinates":[117.293936,39.055411]},"properties":{"province":"天津市","city":"天津市","county":"津南区","community":"双林街海天馨苑诚勤园13号楼4门","full_address":"天津市天津市津南区双林街海天馨苑诚勤园13号楼4门","info":""}},{"type":"Feature","geometry":{"type":"Point","coordinates":[117.316058,39.046749]},"properties":{"province":"天津市","city":"天津市","county":"津南区","community":"双港镇金地格林棕榈苑D区30号楼","full_address":"天津市天津市津南区双港镇金地格林棕榈苑D区30号楼","info":""}},{"type":"Feature","geometry":{"type":"Point","coordinates":[121.581931,38.902179]},"properties":{"province":"辽宁省","city":"大连市","county":"沙河口区","community":"南沙河口街道幸福e家5期6区其他区域","full_address":"辽宁省大连市沙河口区南沙河口街道幸福e家5期6区其他区域","info":""}},{"type":"Feature","geometry":{"type":"Point","coordinates":[124.397193,40.132978]},"properties":{"province":"辽宁省","city":"丹东市","county":"元宝区","community":"兴东街道环球小区","full_address":"辽宁省丹东市元宝区兴东街道环球小区","info":""}},{"type":"Feature","geometry":{"type":"Point","coordinates":[124.356511,40.110629]},"properties":{"province":"辽宁省","city":"丹东市","county":"振兴区","community":"帽盔山街道桃源逸景小区5号楼/6号楼/9号楼/10号楼","full_address":"辽宁省丹东市振兴区帽盔山街道桃源逸景小区5号楼/6号楼/9号楼/10号楼","info":""}},{"type":"Feature","geometry":{"type":"Point","coordinates":[124.361788,40.099156]},"properties":{"province":"辽宁省","city":"丹东市","county":"振兴区","community":"纤维街道福春街58号","full_address":"辽宁省丹东市振兴区纤维街道福春街58号","info":""}},{"type":"Feature","geometry":{"type":"Point","coordinates":[124.369533,40.127859]},"properties":{"province":"辽宁省","city":"丹东市","county":"振兴区","community":"永昌街道保利一期A2区","full_address":"辽宁省丹东市振兴区永昌街道保利一期A2区","info":""}},{"type":"Feature","geometry":{"type":"Point","coordinates":[124.356837,40.099544]},"properties":{"province":"辽宁省","city":"丹东市","county":"振兴区","community":"纤维街道和谐家园小区","full_address":"辽宁省丹东市振兴区纤维街道和谐家园小区","info":""}},{"type":"Feature","geometry":{"type":"Point","coordinates":[124.257482,40.005731]},"properties":{"province":"辽宁省","city":"丹东市","county":"振兴区","community":"汤池镇复兴村","full_address":"辽宁省丹东市振兴区汤池镇复兴村","info":""}},{"type":"Feature","geometry":{"type":"Point","coordinates":[124.348383,40.091408]},"properties":{"province":"辽宁省","city":"丹东市","county":"振兴区","community":"纤维街道大肚院平房区","full_address":"辽宁省丹东市振兴区纤维街道大肚院平房区","info":""}},{"type":"Feature","geometry":{"type":"Point","coordinates":[124.36882,40.127717]},"properties":{"province":"辽宁省","city":"丹东市","county":"振兴区","community":"永昌街道保利一期B区5号楼","full_address":"辽宁省丹东市振兴区永昌街道保利一期B区5号楼","info":""}},{"type":"Feature","geometry":{"type":"Point","coordinates":[124.420357,40.156125]},"properties":{"province":"辽宁省","city":"丹东市","county":"振安区","community":"珍珠街道曙光家园小区1号楼、2号楼","full_address":"辽宁省丹东市振安区珍珠街道曙光家园小区1号楼、2号楼","info":""}},{"type":"Feature","geometry":{"type":"Point","coordinates":[121.47407,31.222666]},"properties":{"province":"上海市","city":"上海市","county":"黄浦区","community":"打浦桥街道建国东路391号浅草37度1皮肤管理定制中心（新天地店）","full_address":"上海市上海市黄浦区打浦桥街道建国东路391号浅草37度1皮肤管理定制中心（新天地店）","info":""}},{"type":"Feature","geometry":{"type":"Point","coordinates":[121.469016,31.250452]},"properties":{"province":"上海市","city":"上海市","county":"静安区","community":"芷江西路街道西藏北路新赵家宅（36号、51-112号、119-120号）","full_address":"上海市上海市静安区芷江西路街道西藏北路新赵家宅（36号、51-112号、119-120号）","info":""}},{"type":"Feature","geometry":{"type":"Point","coordinates":[121.404917,31.239925]},"properties":{"province":"上海市","city":"上海市","county":"普陀区","community":"曹杨新村街道兰溪路148号耕耘茶室","full_address":"上海市上海市普陀区曹杨新村街道兰溪路148号耕耘茶室","info":""}},{"type":"Feature","geometry":{"type":"Point","coordinates":[121.472901,31.320807]},"properties":{"province":"上海市","city":"上海市","county":"宝山区","community":"高境镇殷高西路333号长江国际生活广场东区二楼老炉家木炭烤肉店","full_address":"上海市上海市宝山区高境镇殷高西路333号长江国际生活广场东区二楼老炉家木炭烤肉店","info":""}},{"type":"Feature","geometry":{"type":"Point","coordinates":[121.599107,31.013634]},"properties":{"province":"上海市","city":"上海市","county":"奉贤区","community":"金汇镇梅园村部分区域（东至航塘港，西至航塘公路，南至梅园9组小排河，北至浦东/奉贤界河）","full_address":"上海市上海市奉贤区金汇镇梅园村部分区域（东至航塘港，西至航塘公路，南至梅园9组小排河，北至浦东/奉贤界河）","info":""}},{"type":"Feature","geometry":{"type":"Point","coordinates":[120.245571,31.552285]},"properties":{"province":"江苏省","city":"无锡市","county":"滨湖区","community":"荣巷街道集景花园其他片区","full_address":"江苏省无锡市滨湖区荣巷街道集景花园其他片区","info":""}},{"type":"Feature","geometry":{"type":"Point","coordinates":[120.259474,31.552415]},"properties":{"province":"江苏省","city":"无锡市","county":"滨湖区","community":"蠡园街道隐秀苑线泾浜东侧","full_address":"江苏省无锡市滨湖区蠡园街道隐秀苑线泾浜东侧","info":""}},{"type":"Feature","geometry":{"type":"Point","coordinates":[120.340177,31.595122]},"properties":{"province":"江苏省","city":"无锡市","county":"梁溪区","community":"广益街道广益星苑","full_address":"江苏省无锡市梁溪区广益街道广益星苑","info":""}},{"type":"Feature","geometry":{"type":"Point","coordinates":[120.284087,31.597541]},"properties":{"province":"江苏省","city":"无锡市","county":"梁溪区","community":"北大街街道凤宾家园","full_address":"江苏省无锡市梁溪区北大街街道凤宾家园","info":""}},{"type":"Feature","geometry":{"type":"Point","coordinates":[120.272386,31.585396]},"properties":{"province":"江苏省","city":"无锡市","county":"梁溪区","community":"惠山街道锡园","full_address":"江苏省无锡市梁溪区惠山街道锡园","info":""}},{"type":"Feature","geometry":{"type":"Point","coordinates":[120.268272,31.595037]},"properties":{"province":"江苏省","city":"无锡市","county":"梁溪区","community":"山北街道二泉东园","full_address":"江苏省无锡市梁溪区山北街道二泉东园","info":""}},{"type":"Feature","geometry":{"type":"Point","coordinates":[120.316331,31.529784]},"properties":{"province":"江苏省","city":"无锡市","county":"梁溪区","community":"扬名街道芦村新村","full_address":"江苏省无锡市梁溪区扬名街道芦村新村","info":""}},{"type":"Feature","geometry":{"type":"Point","coordinates":[120.363266,31.550681]},"properties":{"province":"江苏省","city":"无锡市","county":"新吴区","community":"旺庄街道春潮花园一区","full_address":"江苏省无锡市新吴区旺庄街道春潮花园一区","info":""}},{"type":"Feature","geometry":{"type":"Point","coordinates":[120.336503,31.569748]},"properties":{"province":"江苏省","city":"无锡市","county":"新吴区","community":"江溪街道中海海雅锦园一期","full_address":"江苏省无锡市新吴区江溪街道中海海雅锦园一期","info":""}},{"type":"Feature","geometry":{"type":"Point","coordinates":[120.439381,31.474747]},"properties":{"province":"江苏省","city":"无锡市","county":"新吴区","community":"硕放街道南星苑","full_address":"江苏省无锡市新吴区硕放街道南星苑","info":""}},{"type":"Feature","geometry":{"type":"Point","coordinates":[120.448983,31.488633]},"properties":{"province":"江苏省","city":"无锡市","county":"新吴区","community":"硕放街道吉祥花园","full_address":"江苏省无锡市新吴区硕放街道吉祥花园","info":""}},{"type":"Feature","geometry":{"type":"Point","coordinates":[120.448036,31.482023]},"properties":{"province":"江苏省","city":"无锡市","county":"新吴区","community":"硕放街道如家公寓","full_address":"江苏省无锡市新吴区硕放街道如家公寓","info":""}},{"type":"Feature","geometry":{"type":"Point","coordinates":[117.253233,34.240639]},"properties":{"province":"江苏省","city":"徐州市","county":"云龙区","community":"大郭庄街道如意社区","full_address":"江苏省徐州市云龙区大郭庄街道如意社区","info":""}},{"type":"Feature","geometry":{"type":"Point","coordinates":[117.204248,34.261343]},"properties":{"province":"江苏省","city":"徐州市","county":"云龙区","community":"子房街道梁庄社区利群小区","full_address":"江苏省徐州市云龙区子房街道梁庄社区利群小区","info":""}},{"type":"Feature","geometry":{"type":"Point","coordinates":[117.222224,34.205093]},"properties":{"province":"江苏省","city":"徐州市","county":"泉山区","community":"翟山街道翡翠城","full_address":"江苏省徐州市泉山区翟山街道翡翠城","info":""}},{"type":"Feature","geometry":{"type":"Point","coordinates":[117.229678,34.208557]},"properties":{"province":"江苏省","city":"徐州市","county":"泉山区","community":"翟山街道御景湾社区","full_address":"江苏省徐州市泉山区翟山街道御景湾社区","info":""}},{"type":"Feature","geometry":{"type":"Point","coordinates":[117.227994,34.205983]},"properties":{"province":"江苏省","city":"徐州市","county":"泉山区","community":"翟山街道东南郡","full_address":"江苏省徐州市泉山区翟山街道东南郡","info":""}},{"type":"Feature","geometry":{"type":"Point","coordinates":[117.172753,34.259261]},"properties":{"province":"江苏省","city":"徐州市","county":"泉山区","community":"翟山街道姚庄社区昆仑御小区","full_address":"江苏省徐州市泉山区翟山街道姚庄社区昆仑御小区","info":""}},{"type":"Feature","geometry":{"type":"Point","coordinates":[117.218145,34.204532]},"properties":{"province":"江苏省","city":"徐州市","county":"泉山区","community":"翟山街道文欣花园小区","full_address":"江苏省徐州市泉山区翟山街道文欣花园小区","info":""}},{"type":"Feature","geometry":{"type":"Point","coordinates":[117.222016,34.212468]},"properties":{"province":"江苏省","city":"徐州市","county":"泉山区","community":"翟山街道花语社区花语城二期","full_address":"江苏省徐州市泉山区翟山街道花语社区花语城二期","info":""}},{"type":"Feature","geometry":{"type":"Point","coordinates":[117.274153,34.473117]},"properties":{"province":"江苏省","city":"徐州市","county":"铜山区","community":"柳泉镇铙山村","full_address":"江苏省徐州市铜山区柳泉镇铙山村","info":""}},{"type":"Feature","geometry":{"type":"Point","coordinates":[117.191527,34.189999]},"properties":{"province":"江苏省","city":"徐州市","county":"铜山区","community":"铜山街道玉泉河社区万科新都会小区","full_address":"江苏省徐州市铜山区铜山街道玉泉河社区万科新都会小区","info":""}},{"type":"Feature","geometry":{"type":"Point","coordinates":[117.566461,33.543859]},"properties":{"province":"安徽省","city":"宿州市","county":"灵璧县","community":"东蔬社区除高风险区外的其他区域","full_address":"安徽省宿州市灵璧县东蔬社区除高风险区外的其他区域","info":""}},{"type":"Feature","geometry":{"type":"Point","coordinates":[117.556626,33.541613]},"properties":{"province":"安徽省","city":"宿州市","county":"灵璧县","community":"山南社区除高风险区外的其他区域","full_address":"安徽省宿州市灵璧县山南社区除高风险区外的其他区域","info":""}},{"type":"Feature","geometry":{"type":"Point","coordinates":[117.5568,33.542145]},"properties":{"province":"安徽省","city":"宿州市","county":"灵璧县","community":"太平社区除高风险区外的其他区域","full_address":"安徽省宿州市灵璧县太平社区除高风险区外的其他区域","info":""}},{"type":"Feature","geometry":{"type":"Point","coordinates":[117.553181,33.527932]},"properties":{"province":"安徽省","city":"宿州市","county":"灵璧县","community":"滨河社区除高风险区外的其他区域","full_address":"安徽省宿州市灵璧县滨河社区除高风险区外的其他区域","info":""}},{"type":"Feature","geometry":{"type":"Point","coordinates":[117.557722,33.391376]},"properties":{"province":"安徽省","city":"宿州市","county":"灵璧县","community":"韦集镇除高风险区外的其他区域","full_address":"安徽省宿州市灵璧县韦集镇除高风险区外的其他区域","info":""}},{"type":"Feature","geometry":{"type":"Point","coordinates":[117.58245,33.464007]},"properties":{"province":"安徽省","city":"宿州市","county":"灵璧县","community":"向阳镇除高风险区外的其他区域","full_address":"安徽省宿州市灵璧县向阳镇除高风险区外的其他区域","info":""}},{"type":"Feature","geometry":{"type":"Point","coordinates":[117.505892,33.543213]},"properties":{"province":"安徽省","city":"宿州市","county":"灵璧县","community":"灵城镇刘赵村除高风险区外的其他区域","full_address":"安徽省宿州市灵璧县灵城镇刘赵村除高风险区外的其他区域","info":""}},{"type":"Feature","geometry":{"type":"Point","coordinates":[117.542295,33.543493]},"properties":{"province":"安徽省","city":"宿州市","county":"灵璧县","community":"西关社区除高风险区外的其他区域","full_address":"安徽省宿州市灵璧县西关社区除高风险区外的其他区域","info":""}},{"type":"Feature","geometry":{"type":"Point","coordinates":[117.882936,33.478012]},"properties":{"province":"安徽省","city":"宿州市","county":"泗县","community":"运河街道除高风险区外的其他区域","full_address":"安徽省宿州市泗县运河街道除高风险区外的其他区域","info":""}},{"type":"Feature","geometry":{"type":"Point","coordinates":[117.882936,33.478012]},"properties":{"province":"安徽省","city":"宿州市","county":"泗县","community":"虹城街道除高风险区外的其他区域","full_address":"安徽省宿州市泗县虹城街道除高风险区外的其他区域","info":""}},{"type":"Feature","geometry":{"type":"Point","coordinates":[117.882936,33.478012]},"properties":{"province":"安徽省","city":"宿州市","county":"泗县","community":"泗水街道除高风险区外的其他区域","full_address":"安徽省宿州市泗县泗水街道除高风险区外的其他区域","info":""}},{"type":"Feature","geometry":{"type":"Point","coordinates":[117.877551,33.486382]},"properties":{"province":"安徽省","city":"宿州市","county":"泗县","community":"泗城镇除高风险区外的其他区域","full_address":"安徽省宿州市泗县泗城镇除高风险区外的其他区域","info":""}},{"type":"Feature","geometry":{"type":"Point","coordinates":[117.894231,33.384838]},"properties":{"province":"安徽省","city":"宿州市","county":"泗县","community":"大路口镇除高风险区外的其他区域","full_address":"安徽省宿州市泗县大路口镇除高风险区外的其他区域","info":""}},{"type":"Feature","geometry":{"type":"Point","coordinates":[117.722861,33.368532]},"properties":{"province":"安徽省","city":"宿州市","county":"泗县","community":"草沟镇除高风险区外的其他区域","full_address":"安徽省宿州市泗县草沟镇除高风险区外的其他区域","info":""}},{"type":"Feature","geometry":{"type":"Point","coordinates":[117.824432,33.363866]},"properties":{"province":"安徽省","city":"宿州市","county":"泗县","community":"丁湖镇除高风险区外的其他区域","full_address":"安徽省宿州市泗县丁湖镇除高风险区外的其他区域","info":""}},{"type":"Feature","geometry":{"type":"Point","coordinates":[117.865704,33.564974]},"properties":{"province":"安徽省","city":"宿州市","county":"泗县","community":"屏山镇除高风险区外的其他区域","full_address":"安徽省宿州市泗县屏山镇除高风险区外的其他区域","info":""}},{"type":"Feature","geometry":{"type":"Point","coordinates":[117.975757,33.411939]},"properties":{"province":"安徽省","city":"宿州市","county":"泗县","community":"墩集镇除高风险区外的其他区域","full_address":"安徽省宿州市泗县墩集镇除高风险区外的其他区域","info":""}},{"type":"Feature","geometry":{"type":"Point","coordinates":[118.059095,33.587959]},"properties":{"province":"安徽省","city":"宿州市","county":"泗县","community":"黑塔镇除高风险区外的其他区域","full_address":"安徽省宿州市泗县黑塔镇除高风险区外的其他区域","info":""}},{"type":"Feature","geometry":{"type":"Point","coordinates":[117.713639,33.509679]},"properties":{"province":"安徽省","city":"宿州市","county":"泗县","community":"长沟镇除高风险区外的其他区域","full_address":"安徽省宿州市泗县长沟镇除高风险区外的其他区域","info":""}},{"type":"Feature","geometry":{"type":"Point","coordinates":[117.879683,33.700728]},"properties":{"province":"安徽省","city":"宿州市","county":"泗县","community":"大庄镇除高风险区外的其他区域","full_address":"安徽省宿州市泗县大庄镇除高风险区外的其他区域","info":""}},{"type":"Feature","geometry":{"type":"Point","coordinates":[119.988858,26.882027]},"properties":{"province":"福建省","city":"宁德市","county":"霞浦县","community":"东至松城街道西山洋，北至松城街道变电站，西南至松城街道真如寺","full_address":"福建省宁德市霞浦县东至松城街道西山洋，北至松城街道变电站，西南至松城街道真如寺","info":""}},{"type":"Feature","geometry":{"type":"Point","coordinates":[120.001474,26.878347]},"properties":{"province":"福建省","city":"宁德市","county":"霞浦县","community":"北至松城街道河沿路，南至松城街道太康路，东至松城街道永福弄，西至松城街道茶厂路","full_address":"福建省宁德市霞浦县北至松城街道河沿路，南至松城街道太康路，东至松城街道永福弄，西至松城街道茶厂路","info":""}},{"type":"Feature","geometry":{"type":"Point","coordinates":[120.003494,26.880146]},"properties":{"province":"福建省","city":"宁德市","county":"霞浦县","community":"北至松城街道龙首花园步行街上弄，南至松城街道山河路，东至松城街道龙首路，西至松城街道文化广场对面十米路","full_address":"福建省宁德市霞浦县北至松城街道龙首花园步行街上弄，南至松城街道山河路，东至松城街道龙首路，西至松城街道文化广场对面十米路","info":""}},{"type":"Feature","geometry":{"type":"Point","coordinates":[120.013357,26.884924]},"properties":{"province":"福建省","city":"宁德市","county":"霞浦县","community":"松港街道百丽花园小区","full_address":"福建省宁德市霞浦县松港街道百丽花园小区","info":""}},{"type":"Feature","geometry":{"type":"Point","coordinates":[120.011029,26.880842]},"properties":{"province":"福建省","city":"宁德市","county":"霞浦县","community":"松城街道燕窝里第四双格，东至松城街道龙马新村，西至松城街道霞富弄，北至松城街道太康路，南至松城街道燕窝里165号","full_address":"福建省宁德市霞浦县松城街道燕窝里第四双格，东至松城街道龙马新村，西至松城街道霞富弄，北至松城街道太康路，南至松城街道燕窝里165号","info":""}},{"type":"Feature","geometry":{"type":"Point","coordinates":[120.028253,26.908124]},"properties":{"province":"福建省","city":"宁德市","county":"霞浦县","community":"松港街道金顶国际1期 1号楼、2号楼、5号楼","full_address":"福建省宁德市霞浦县松港街道金顶国际1期 1号楼、2号楼、5号楼","info":""}},{"type":"Feature","geometry":{"type":"Point","coordinates":[120.012045,26.87984]},"properties":{"province":"福建省","city":"宁德市","county":"霞浦县","community":"松城街道家缘小区第二排、第三排、第四排","full_address":"福建省宁德市霞浦县松城街道家缘小区第二排、第三排、第四排","info":""}},{"type":"Feature","geometry":{"type":"Point","coordinates":[120.00836,26.881372]},"properties":{"province":"福建省","city":"宁德市","county":"霞浦县","community":"松城街道康辉花园1号楼","full_address":"福建省宁德市霞浦县松城街道康辉花园1号楼","info":""}},{"type":"Feature","geometry":{"type":"Point","coordinates":[119.984562,26.865271]},"properties":{"province":"福建省","city":"宁德市","county":"霞浦县","community":"松城街道玉旺新村前三排","full_address":"福建省宁德市霞浦县松城街道玉旺新村前三排","info":""}},{"type":"Feature","geometry":{"type":"Point","coordinates":[109.006125,34.170275]},"properties":{"province":"陕西省","city":"西安市","county":"长安区","community":"韦曲街道简王井村的其他区域","full_address":"陕西省西安市长安区韦曲街道简王井村的其他区域","info":""}},{"type":"Feature","geometry":{"type":"Point","coordinates":[109.03037,34.159108]},"properties":{"province":"陕西省","city":"西安市","county":"长安区","community":"大兆街道三益村","full_address":"陕西省西安市长安区大兆街道三益村","info":""}},{"type":"Feature","geometry":{"type":"Point","coordinates":[109.021664,34.172007]},"properties":{"province":"陕西省","city":"西安市","county":"长安区","community":"大兆街道东伍村","full_address":"陕西省西安市长安区大兆街道东伍村","info":""}}]}