{"type":"FeatureCollection","features":[{"type":"Feature","geometry":{"type":"Point","coordinates":[117.230277,39.123512]},"properties":{"province":"天津市","city":"天津市","county":"河东区","community":"大王庄街道十二经路四号院1号楼","full_address":"天津市天津市河东区大王庄街道十二经路四号院1号楼","info":""}},{"type":"Feature","geometry":{"type":"Point","coordinates":[117.267528,39.117936]},"properties":{"province":"天津市","city":"天津市","county":"河东区","community":"上杭路街道第六大道区域（含第博雅园、陆典庭园、大洋嘉园、道俊华园、俊东公寓、俊东大厦）","full_address":"天津市天津市河东区上杭路街道第六大道区域（含第博雅园、陆典庭园、大洋嘉园、道俊华园、俊东公寓、俊东大厦）","info":""}},{"type":"Feature","geometry":{"type":"Point","coordinates":[117.256492,39.138911]},"properties":{"province":"天津市","city":"天津市","county":"河东区","community":"向阳楼街道昕旺南苑1号楼、2号楼","full_address":"天津市天津市河东区向阳楼街道昕旺南苑1号楼、2号楼","info":""}},{"type":"Feature","geometry":{"type":"Point","coordinates":[117.2065,39.101997]},"properties":{"province":"天津市","city":"天津市","county":"河西区","community":"桃园街盛瑞公寓2号楼3门","full_address":"天津市天津市河西区桃园街盛瑞公寓2号楼3门","info":""}},{"type":"Feature","geometry":{"type":"Point","coordinates":[117.257377,39.060187]},"properties":{"province":"天津市","city":"天津市","county":"河西区","community":"东海街道九江里10门、12门、14门、24门、26门、28门、30门、32门及外围底商","full_address":"天津市天津市河西区东海街道九江里10门、12门、14门、24门、26门、28门、30门、32门及外围底商","info":""}},{"type":"Feature","geometry":{"type":"Point","coordinates":[117.270317,39.075814]},"properties":{"province":"天津市","city":"天津市","county":"河西区","community":"柳林街金海湾花园21号楼","full_address":"天津市天津市河西区柳林街金海湾花园21号楼","info":""}},{"type":"Feature","geometry":{"type":"Point","coordinates":[117.26326,39.070007]},"properties":{"province":"天津市","city":"天津市","county":"河西区","community":"柳林街恒山里12门、14门、16门、26门至32门、46门、48门","full_address":"天津市天津市河西区柳林街恒山里12门、14门、16门、26门至32门、46门、48门","info":""}},{"type":"Feature","geometry":{"type":"Point","coordinates":[117.207161,39.098526]},"properties":{"province":"天津市","city":"天津市","county":"河西区","community":"越秀路街黄埔里2、4、9、13、27、29、30门","full_address":"天津市天津市河西区越秀路街黄埔里2、4、9、13、27、29、30门","info":""}},{"type":"Feature","geometry":{"type":"Point","coordinates":[117.231908,39.08687]},"properties":{"province":"天津市","city":"天津市","county":"河西区","community":"尖山街红升里41、43、45、47门","full_address":"天津市天津市河西区尖山街红升里41、43、45、47门","info":""}},{"type":"Feature","geometry":{"type":"Point","coordinates":[117.256187,39.06168]},"properties":{"province":"天津市","city":"天津市","county":"河西区","community":"东海街九江里平房、枫林路北头公共厕所","full_address":"天津市天津市河西区东海街九江里平房、枫林路北头公共厕所","info":""}},{"type":"Feature","geometry":{"type":"Point","coordinates":[117.143802,39.085065]},"properties":{"province":"天津市","city":"天津市","county":"南开区","community":"王顶堤街林苑西里19号楼","full_address":"天津市天津市南开区王顶堤街林苑西里19号楼","info":""}},{"type":"Feature","geometry":{"type":"Point","coordinates":[117.215448,39.181793]},"properties":{"province":"天津市","city":"天津市","county":"河北区","community":"铁东路街道曙光路17号增1号-增26号小二楼","full_address":"天津市天津市河北区铁东路街道曙光路17号增1号-增26号小二楼","info":""}},{"type":"Feature","geometry":{"type":"Point","coordinates":[117.222342,39.151246]},"properties":{"province":"天津市","city":"天津市","county":"河北区","community":"王串场街道明溪里小区1号楼（8—10门）","full_address":"天津市天津市河北区王串场街道明溪里小区1号楼（8—10门）","info":""}},{"type":"Feature","geometry":{"type":"Point","coordinates":[117.215418,39.182229]},"properties":{"province":"天津市","city":"天津市","county":"河北区","community":"铁东路街道爱贤里小区2号楼12、13门","full_address":"天津市天津市河北区铁东路街道爱贤里小区2号楼12、13门","info":""}},{"type":"Feature","geometry":{"type":"Point","coordinates":[117.47676,39.190322]},"properties":{"province":"天津市","city":"天津市","county":"东丽区","community":"东丽湖街道华侨城汇涛苑4号楼","full_address":"天津市天津市东丽区东丽湖街道华侨城汇涛苑4号楼","info":""}},{"type":"Feature","geometry":{"type":"Point","coordinates":[117.305219,39.086369]},"properties":{"province":"天津市","city":"天津市","county":"东丽区","community":"张贵庄街詹滨西里小区南院19、27号楼","full_address":"天津市天津市东丽区张贵庄街詹滨西里小区南院19、27号楼","info":""}},{"type":"Feature","geometry":{"type":"Point","coordinates":[117.111384,39.124025]},"properties":{"province":"天津市","city":"天津市","county":"西青区","community":"中北镇凯信佳园小区1号楼","full_address":"天津市天津市西青区中北镇凯信佳园小区1号楼","info":""}},{"type":"Feature","geometry":{"type":"Point","coordinates":[117.114701,39.043537]},"properties":{"province":"天津市","city":"天津市","county":"西青区","community":"精武镇锦泽苑小区43号楼","full_address":"天津市天津市西青区精武镇锦泽苑小区43号楼","info":""}},{"type":"Feature","geometry":{"type":"Point","coordinates":[117.216739,38.993891]},"properties":{"province":"天津市","city":"天津市","county":"西青区","community":"大寺镇芦欣家园小区四区8号楼","full_address":"天津市天津市西青区大寺镇芦欣家园小区四区8号楼","info":""}},{"type":"Feature","geometry":{"type":"Point","coordinates":[117.286415,39.054357]},"properties":{"province":"天津市","city":"天津市","county":"津南区","community":"双林街福松源庄一期15号楼","full_address":"天津市天津市津南区双林街福松源庄一期15号楼","info":""}},{"type":"Feature","geometry":{"type":"Point","coordinates":[117.351509,39.248933]},"properties":{"province":"天津市","city":"天津市","county":"北辰区","community":"西堤头镇刘快庄村永川小区1号楼、2号楼、3号楼、9号楼、10号楼、11号楼、20号楼、21号楼、22号楼","full_address":"天津市天津市北辰区西堤头镇刘快庄村永川小区1号楼、2号楼、3号楼、9号楼、10号楼、11号楼、20号楼、21号楼、22号楼","info":""}},{"type":"Feature","geometry":{"type":"Point","coordinates":[117.350412,39.241425]},"properties":{"province":"天津市","city":"天津市","county":"北辰区","community":"西堤头镇刘快庄村百合家园公寓A座、B座、C座","full_address":"天津市天津市北辰区西堤头镇刘快庄村百合家园公寓A座、B座、C座","info":""}},{"type":"Feature","geometry":{"type":"Point","coordinates":[117.351837,39.24106]},"properties":{"province":"天津市","city":"天津市","county":"北辰区","community":"西堤头镇刘快庄村鼎力酒店（聚福嘉苑公寓西店）及沿街底商","full_address":"天津市天津市北辰区西堤头镇刘快庄村鼎力酒店（聚福嘉苑公寓西店）及沿街底商","info":""}},{"type":"Feature","geometry":{"type":"Point","coordinates":[117.352473,39.249169]},"properties":{"province":"天津市","city":"天津市","county":"北辰区","community":"西堤头镇刘快庄村康派尔商铺115号-128号","full_address":"天津市天津市北辰区西堤头镇刘快庄村康派尔商铺115号-128号","info":""}},{"type":"Feature","geometry":{"type":"Point","coordinates":[114.575242,38.027191]},"properties":{"province":"河北省","city":"石家庄市","county":"裕华区","community":"裕东街道阳光361小区","full_address":"河北省石家庄市裕华区裕东街道阳光361小区","info":""}},{"type":"Feature","geometry":{"type":"Point","coordinates":[114.52575,38.024125]},"properties":{"province":"河北省","city":"石家庄市","county":"裕华区","community":"槐底街道槐底二区","full_address":"河北省石家庄市裕华区槐底街道槐底二区","info":""}},{"type":"Feature","geometry":{"type":"Point","coordinates":[118.141661,39.828415]},"properties":{"province":"河北省","city":"唐山市","county":"丰润区","community":"燕山路街道金泰花园小区204楼","full_address":"河北省唐山市丰润区燕山路街道金泰花园小区204楼","info":""}},{"type":"Feature","geometry":{"type":"Point","coordinates":[118.145335,39.82582]},"properties":{"province":"河北省","city":"唐山市","county":"丰润区","community":"金桥小学（东校区）","full_address":"河北省唐山市丰润区金桥小学（东校区）","info":""}},{"type":"Feature","geometry":{"type":"Point","coordinates":[118.147606,39.831108]},"properties":{"province":"河北省","city":"唐山市","county":"丰润区","community":"浭阳街道金域华府小区10号楼","full_address":"河北省唐山市丰润区浭阳街道金域华府小区10号楼","info":""}},{"type":"Feature","geometry":{"type":"Point","coordinates":[118.112801,39.822259]},"properties":{"province":"河北省","city":"唐山市","county":"丰润区","community":"天赐良园小区2号楼","full_address":"河北省唐山市丰润区天赐良园小区2号楼","info":""}},{"type":"Feature","geometry":{"type":"Point","coordinates":[118.037628,39.907437]},"properties":{"province":"河北省","city":"唐山市","county":"丰润区","community":"杨官林镇黄家屯村阳光小区108号楼","full_address":"河北省唐山市丰润区杨官林镇黄家屯村阳光小区108号楼","info":""}},{"type":"Feature","geometry":{"type":"Point","coordinates":[118.197731,39.805339]},"properties":{"province":"河北省","city":"唐山市","county":"丰润区","community":"银城铺镇殷官屯村（北小街）","full_address":"河北省唐山市丰润区银城铺镇殷官屯村（北小街）","info":""}},{"type":"Feature","geometry":{"type":"Point","coordinates":[115.214905,37.932313]},"properties":{"province":"河北省","city":"辛集市","county":"辛集市","community":"维也纳酒店（兴华路与方碑大街交口西北角）","full_address":"河北省辛集市辛集市维也纳酒店（兴华路与方碑大街交口西北角）","info":""}},{"type":"Feature","geometry":{"type":"Point","coordinates":[115.210636,37.93772]},"properties":{"province":"河北省","city":"辛集市","county":"辛集市","community":"亨盛小区南区东院2号楼","full_address":"河北省辛集市辛集市亨盛小区南区东院2号楼","info":""}},{"type":"Feature","geometry":{"type":"Point","coordinates":[126.761453,45.727293]},"properties":{"province":"黑龙江省","city":"哈尔滨市","county":"香坊区","community":"金源幸福小区","full_address":"黑龙江省哈尔滨市香坊区金源幸福小区","info":""}},{"type":"Feature","geometry":{"type":"Point","coordinates":[126.685463,45.725451]},"properties":{"province":"黑龙江省","city":"哈尔滨市","county":"香坊区","community":"香坊大街45-3号院","full_address":"黑龙江省哈尔滨市香坊区香坊大街45-3号院","info":""}},{"type":"Feature","geometry":{"type":"Point","coordinates":[126.673367,45.675695]},"properties":{"province":"黑龙江省","city":"哈尔滨市","county":"香坊区","community":"黎明街道办事处穆家新区9号楼","full_address":"黑龙江省哈尔滨市香坊区黎明街道办事处穆家新区9号楼","info":""}},{"type":"Feature","geometry":{"type":"Point","coordinates":[126.727454,45.731695]},"properties":{"province":"黑龙江省","city":"哈尔滨市","county":"香坊区","community":"城东新居C区5号楼","full_address":"黑龙江省哈尔滨市香坊区城东新居C区5号楼","info":""}},{"type":"Feature","geometry":{"type":"Point","coordinates":[126.677846,45.723892]},"properties":{"province":"黑龙江省","city":"哈尔滨市","county":"香坊区","community":"通站街106号院内多福公寓","full_address":"黑龙江省哈尔滨市香坊区通站街106号院内多福公寓","info":""}},{"type":"Feature","geometry":{"type":"Point","coordinates":[126.726039,45.729561]},"properties":{"province":"黑龙江省","city":"哈尔滨市","county":"香坊区","community":"城东新居D区8号楼","full_address":"黑龙江省哈尔滨市香坊区城东新居D区8号楼","info":""}},{"type":"Feature","geometry":{"type":"Point","coordinates":[126.677798,45.725027]},"properties":{"province":"黑龙江省","city":"哈尔滨市","county":"香坊区","community":"香木街副12-10号院1号楼","full_address":"黑龙江省哈尔滨市香坊区香木街副12-10号院1号楼","info":""}},{"type":"Feature","geometry":{"type":"Point","coordinates":[126.679488,45.726504]},"properties":{"province":"黑龙江省","city":"哈尔滨市","county":"香坊区","community":"古香街44号楼","full_address":"黑龙江省哈尔滨市香坊区古香街44号楼","info":""}},{"type":"Feature","geometry":{"type":"Point","coordinates":[126.75841,45.727079]},"properties":{"province":"黑龙江省","city":"哈尔滨市","county":"香坊区","community":"高丽风情小镇全域","full_address":"黑龙江省哈尔滨市香坊区高丽风情小镇全域","info":""}},{"type":"Feature","geometry":{"type":"Point","coordinates":[126.73983,45.721534]},"properties":{"province":"黑龙江省","city":"哈尔滨市","county":"香坊区","community":"幸福镇安居社区4号楼","full_address":"黑龙江省哈尔滨市香坊区幸福镇安居社区4号楼","info":""}},{"type":"Feature","geometry":{"type":"Point","coordinates":[126.797418,45.700963]},"properties":{"province":"黑龙江省","city":"哈尔滨市","county":"香坊区","community":"哈纺社区210栋","full_address":"黑龙江省哈尔滨市香坊区哈纺社区210栋","info":""}},{"type":"Feature","geometry":{"type":"Point","coordinates":[126.679885,45.722312]},"properties":{"province":"黑龙江省","city":"哈尔滨市","county":"香坊区","community":"香坊大街200号院","full_address":"黑龙江省哈尔滨市香坊区香坊大街200号院","info":""}},{"type":"Feature","geometry":{"type":"Point","coordinates":[126.684216,45.724776]},"properties":{"province":"黑龙江省","city":"哈尔滨市","county":"香坊区","community":"香武胡同4号","full_address":"黑龙江省哈尔滨市香坊区香武胡同4号","info":""}},{"type":"Feature","geometry":{"type":"Point","coordinates":[126.6842,45.724847]},"properties":{"province":"黑龙江省","city":"哈尔滨市","county":"香坊区","community":"香武胡同6号","full_address":"黑龙江省哈尔滨市香坊区香武胡同6号","info":""}},{"type":"Feature","geometry":{"type":"Point","coordinates":[126.684229,45.725]},"properties":{"province":"黑龙江省","city":"哈尔滨市","county":"香坊区","community":"香武胡同10号1单元、2单元、3单元","full_address":"黑龙江省哈尔滨市香坊区香武胡同10号1单元、2单元、3单元","info":""}},{"type":"Feature","geometry":{"type":"Point","coordinates":[130.360267,46.815368]},"properties":{"province":"黑龙江省","city":"佳木斯市","county":"向阳区","community":"龙海名苑D栋","full_address":"黑龙江省佳木斯市向阳区龙海名苑D栋","info":""}},{"type":"Feature","geometry":{"type":"Point","coordinates":[130.340134,46.79557]},"properties":{"province":"黑龙江省","city":"佳木斯市","county":"向阳区","community":"时代景城九号楼","full_address":"黑龙江省佳木斯市向阳区时代景城九号楼","info":""}},{"type":"Feature","geometry":{"type":"Point","coordinates":[130.362288,46.819308]},"properties":{"province":"黑龙江省","city":"佳木斯市","county":"向阳区","community":"市委22号楼","full_address":"黑龙江省佳木斯市向阳区市委22号楼","info":""}},{"type":"Feature","geometry":{"type":"Point","coordinates":[130.350915,46.801716]},"properties":{"province":"黑龙江省","city":"佳木斯市","county":"向阳区","community":"铭诗苑A座","full_address":"黑龙江省佳木斯市向阳区铭诗苑A座","info":""}},{"type":"Feature","geometry":{"type":"Point","coordinates":[130.364488,46.803734]},"properties":{"province":"黑龙江省","city":"佳木斯市","county":"向阳区","community":"杏湖嘉苑","full_address":"黑龙江省佳木斯市向阳区杏湖嘉苑","info":""}},{"type":"Feature","geometry":{"type":"Point","coordinates":[130.368803,46.807333]},"properties":{"province":"黑龙江省","city":"佳木斯市","county":"向阳区","community":"金厦佳苑","full_address":"黑龙江省佳木斯市向阳区金厦佳苑","info":""}},{"type":"Feature","geometry":{"type":"Point","coordinates":[130.360882,46.799372]},"properties":{"province":"黑龙江省","city":"佳木斯市","county":"向阳区","community":"杏林人家","full_address":"黑龙江省佳木斯市向阳区杏林人家","info":""}},{"type":"Feature","geometry":{"type":"Point","coordinates":[130.35825,46.80425]},"properties":{"province":"黑龙江省","city":"佳木斯市","county":"向阳区","community":"建业一号楼","full_address":"黑龙江省佳木斯市向阳区建业一号楼","info":""}},{"type":"Feature","geometry":{"type":"Point","coordinates":[130.369409,46.805797]},"properties":{"province":"黑龙江省","city":"佳木斯市","county":"向阳区","community":"鸿业大厦","full_address":"黑龙江省佳木斯市向阳区鸿业大厦","info":""}},{"type":"Feature","geometry":{"type":"Point","coordinates":[130.344461,46.802529]},"properties":{"province":"黑龙江省","city":"佳木斯市","county":"向阳区","community":"南铁西社区39号楼","full_address":"黑龙江省佳木斯市向阳区南铁西社区39号楼","info":""}},{"type":"Feature","geometry":{"type":"Point","coordinates":[130.368959,46.812058]},"properties":{"province":"黑龙江省","city":"佳木斯市","county":"向阳区","community":"世水花园三期8号楼","full_address":"黑龙江省佳木斯市向阳区世水花园三期8号楼","info":""}},{"type":"Feature","geometry":{"type":"Point","coordinates":[130.367945,46.812322]},"properties":{"province":"黑龙江省","city":"佳木斯市","county":"向阳区","community":"世水花园二期12号楼","full_address":"黑龙江省佳木斯市向阳区世水花园二期12号楼","info":""}},{"type":"Feature","geometry":{"type":"Point","coordinates":[130.35786,46.81787]},"properties":{"province":"黑龙江省","city":"佳木斯市","county":"向阳区","community":"时代景城三期A栋","full_address":"黑龙江省佳木斯市向阳区时代景城三期A栋","info":""}},{"type":"Feature","geometry":{"type":"Point","coordinates":[130.356626,46.776924]},"properties":{"province":"黑龙江省","city":"佳木斯市","county":"向阳区","community":"天福城新丰村安置楼J栋","full_address":"黑龙江省佳木斯市向阳区天福城新丰村安置楼J栋","info":""}},{"type":"Feature","geometry":{"type":"Point","coordinates":[130.373844,46.796295]},"properties":{"province":"黑龙江省","city":"佳木斯市","county":"向阳区","community":"中山名苑7号楼","full_address":"黑龙江省佳木斯市向阳区中山名苑7号楼","info":""}},{"type":"Feature","geometry":{"type":"Point","coordinates":[130.347977,46.811784]},"properties":{"province":"黑龙江省","city":"佳木斯市","county":"向阳区","community":"长青街教育小区","full_address":"黑龙江省佳木斯市向阳区长青街教育小区","info":""}},{"type":"Feature","geometry":{"type":"Point","coordinates":[130.361901,46.805448]},"properties":{"province":"黑龙江省","city":"佳木斯市","county":"向阳区","community":"世水花园一期至三期","full_address":"黑龙江省佳木斯市向阳区世水花园一期至三期","info":""}},{"type":"Feature","geometry":{"type":"Point","coordinates":[130.367009,46.809711]},"properties":{"province":"黑龙江省","city":"佳木斯市","county":"向阳区","community":"中元宾馆","full_address":"黑龙江省佳木斯市向阳区中元宾馆","info":""}},{"type":"Feature","geometry":{"type":"Point","coordinates":[130.339624,46.826899]},"properties":{"province":"黑龙江省","city":"佳木斯市","county":"向阳区","community":"港龙东方城11号楼","full_address":"黑龙江省佳木斯市向阳区港龙东方城11号楼","info":""}},{"type":"Feature","geometry":{"type":"Point","coordinates":[130.357125,46.80825]},"properties":{"province":"黑龙江省","city":"佳木斯市","county":"向阳区","community":"御景华庭1期6号楼","full_address":"黑龙江省佳木斯市向阳区御景华庭1期6号楼","info":""}},{"type":"Feature","geometry":{"type":"Point","coordinates":[130.361178,46.810688]},"properties":{"province":"黑龙江省","city":"佳木斯市","county":"向阳区","community":"幸福家园独栋楼","full_address":"黑龙江省佳木斯市向阳区幸福家园独栋楼","info":""}},{"type":"Feature","geometry":{"type":"Point","coordinates":[130.354916,46.802967]},"properties":{"province":"黑龙江省","city":"佳木斯市","county":"向阳区","community":"鹤电小区1号楼","full_address":"黑龙江省佳木斯市向阳区鹤电小区1号楼","info":""}},{"type":"Feature","geometry":{"type":"Point","coordinates":[130.355774,46.802872]},"properties":{"province":"黑龙江省","city":"佳木斯市","county":"向阳区","community":"鹤电小区3号楼","full_address":"黑龙江省佳木斯市向阳区鹤电小区3号楼","info":""}},{"type":"Feature","geometry":{"type":"Point","coordinates":[130.35123,46.816986]},"properties":{"province":"黑龙江省","city":"佳木斯市","county":"向阳区","community":"嘉园小区独栋楼","full_address":"黑龙江省佳木斯市向阳区嘉园小区独栋楼","info":""}},{"type":"Feature","geometry":{"type":"Point","coordinates":[130.365329,46.808076]},"properties":{"province":"黑龙江省","city":"佳木斯市","county":"向阳区","community":"牧工商小区国泰5号楼","full_address":"黑龙江省佳木斯市向阳区牧工商小区国泰5号楼","info":""}},{"type":"Feature","geometry":{"type":"Point","coordinates":[130.36803,46.804326]},"properties":{"province":"黑龙江省","city":"佳木斯市","county":"向阳区","community":"永房教育一小区40号楼","full_address":"黑龙江省佳木斯市向阳区永房教育一小区40号楼","info":""}},{"type":"Feature","geometry":{"type":"Point","coordinates":[130.368938,46.78633]},"properties":{"province":"黑龙江省","city":"佳木斯市","county":"向阳区","community":"新华名苑A2栋","full_address":"黑龙江省佳木斯市向阳区新华名苑A2栋","info":""}},{"type":"Feature","geometry":{"type":"Point","coordinates":[130.368953,46.790457]},"properties":{"province":"黑龙江省","city":"佳木斯市","county":"向阳区","community":"翰林名苑15号楼","full_address":"黑龙江省佳木斯市向阳区翰林名苑15号楼","info":""}},{"type":"Feature","geometry":{"type":"Point","coordinates":[130.364482,46.811992]},"properties":{"province":"黑龙江省","city":"佳木斯市","county":"向阳区","community":"爱心家园P栋","full_address":"黑龙江省佳木斯市向阳区爱心家园P栋","info":""}},{"type":"Feature","geometry":{"type":"Point","coordinates":[130.375861,46.793556]},"properties":{"province":"黑龙江省","city":"佳木斯市","county":"向阳区","community":"万达华府1期2号楼","full_address":"黑龙江省佳木斯市向阳区万达华府1期2号楼","info":""}},{"type":"Feature","geometry":{"type":"Point","coordinates":[130.375861,46.793556]},"properties":{"province":"黑龙江省","city":"佳木斯市","county":"向阳区","community":"万达华府1期3号楼","full_address":"黑龙江省佳木斯市向阳区万达华府1期3号楼","info":""}},{"type":"Feature","geometry":{"type":"Point","coordinates":[130.360668,46.811921]},"properties":{"province":"黑龙江省","city":"佳木斯市","county":"向阳区","community":"滨江小区二期25号楼","full_address":"黑龙江省佳木斯市向阳区滨江小区二期25号楼","info":""}},{"type":"Feature","geometry":{"type":"Point","coordinates":[130.362828,46.810359]},"properties":{"province":"黑龙江省","city":"佳木斯市","county":"向阳区","community":"世水花园C栋","full_address":"黑龙江省佳木斯市向阳区世水花园C栋","info":""}},{"type":"Feature","geometry":{"type":"Point","coordinates":[130.365028,46.811729]},"properties":{"province":"黑龙江省","city":"佳木斯市","county":"向阳区","community":"帝景豪庭3期13号楼","full_address":"黑龙江省佳木斯市向阳区帝景豪庭3期13号楼","info":""}},{"type":"Feature","geometry":{"type":"Point","coordinates":[130.3545,46.816665]},"properties":{"province":"黑龙江省","city":"佳木斯市","county":"向阳区","community":"帝景豪庭H区10号楼","full_address":"黑龙江省佳木斯市向阳区帝景豪庭H区10号楼","info":""}},{"type":"Feature","geometry":{"type":"Point","coordinates":[130.364284,46.784347]},"properties":{"province":"黑龙江省","city":"佳木斯市","county":"向阳区","community":"永房54号楼","full_address":"黑龙江省佳木斯市向阳区永房54号楼","info":""}},{"type":"Feature","geometry":{"type":"Point","coordinates":[130.362701,46.801549]},"properties":{"province":"黑龙江省","city":"佳木斯市","county":"向阳区","community":"杏湖壹品A栋","full_address":"黑龙江省佳木斯市向阳区杏湖壹品A栋","info":""}},{"type":"Feature","geometry":{"type":"Point","coordinates":[130.363071,46.801679]},"properties":{"province":"黑龙江省","city":"佳木斯市","county":"向阳区","community":"杏湖壹品4号楼","full_address":"黑龙江省佳木斯市向阳区杏湖壹品4号楼","info":""}},{"type":"Feature","geometry":{"type":"Point","coordinates":[130.361932,46.816277]},"properties":{"province":"黑龙江省","city":"佳木斯市","county":"向阳区","community":"西林金地C栋","full_address":"黑龙江省佳木斯市向阳区西林金地C栋","info":""}},{"type":"Feature","geometry":{"type":"Point","coordinates":[130.341668,46.790175]},"properties":{"province":"黑龙江省","city":"佳木斯市","county":"向阳区","community":"三江商贸城E栋1号楼","full_address":"黑龙江省佳木斯市向阳区三江商贸城E栋1号楼","info":""}},{"type":"Feature","geometry":{"type":"Point","coordinates":[130.348223,46.804335]},"properties":{"province":"黑龙江省","city":"佳木斯市","county":"向阳区","community":"长青街教育一小区3号楼","full_address":"黑龙江省佳木斯市向阳区长青街教育一小区3号楼","info":""}},{"type":"Feature","geometry":{"type":"Point","coordinates":[130.366833,46.81125]},"properties":{"province":"黑龙江省","city":"佳木斯市","county":"向阳区","community":"珍铭苑3号楼","full_address":"黑龙江省佳木斯市向阳区珍铭苑3号楼","info":""}},{"type":"Feature","geometry":{"type":"Point","coordinates":[130.332412,46.793061]},"properties":{"province":"黑龙江省","city":"佳木斯市","county":"向阳区","community":"万公馆22号楼","full_address":"黑龙江省佳木斯市向阳区万公馆22号楼","info":""}},{"type":"Feature","geometry":{"type":"Point","coordinates":[130.365759,46.786449]},"properties":{"province":"黑龙江省","city":"佳木斯市","county":"向阳区","community":"佳木斯大学一区B院50号楼","full_address":"黑龙江省佳木斯市向阳区佳木斯大学一区B院50号楼","info":""}},{"type":"Feature","geometry":{"type":"Point","coordinates":[130.35912,46.80531]},"properties":{"province":"黑龙江省","city":"佳木斯市","county":"向阳区","community":"光明社区佳大26号楼","full_address":"黑龙江省佳木斯市向阳区光明社区佳大26号楼","info":""}},{"type":"Feature","geometry":{"type":"Point","coordinates":[130.339302,46.789603]},"properties":{"province":"黑龙江省","city":"佳木斯市","county":"向阳区","community":"万象府4号楼","full_address":"黑龙江省佳木斯市向阳区万象府4号楼","info":""}},{"type":"Feature","geometry":{"type":"Point","coordinates":[130.348775,46.798434]},"properties":{"province":"黑龙江省","city":"佳木斯市","county":"向阳区","community":"金地家园7号楼","full_address":"黑龙江省佳木斯市向阳区金地家园7号楼","info":""}},{"type":"Feature","geometry":{"type":"Point","coordinates":[130.346649,46.819477]},"properties":{"province":"黑龙江省","city":"佳木斯市","county":"向阳区","community":"景江小区A栋1单元","full_address":"黑龙江省佳木斯市向阳区景江小区A栋1单元","info":""}},{"type":"Feature","geometry":{"type":"Point","coordinates":[130.33441,46.818623]},"properties":{"province":"黑龙江省","city":"佳木斯市","county":"向阳区","community":"罗曼庄园V栋2单元","full_address":"黑龙江省佳木斯市向阳区罗曼庄园V栋2单元","info":""}},{"type":"Feature","geometry":{"type":"Point","coordinates":[130.348574,46.787934]},"properties":{"province":"黑龙江省","city":"佳木斯市","county":"向阳区","community":"昌隆世家30号楼","full_address":"黑龙江省佳木斯市向阳区昌隆世家30号楼","info":""}},{"type":"Feature","geometry":{"type":"Point","coordinates":[130.365346,46.80779]},"properties":{"province":"黑龙江省","city":"佳木斯市","county":"向阳区","community":"璞院3号楼","full_address":"黑龙江省佳木斯市向阳区璞院3号楼","info":""}},{"type":"Feature","geometry":{"type":"Point","coordinates":[130.350198,46.809845]},"properties":{"province":"黑龙江省","city":"佳木斯市","county":"向阳区","community":"宏安小区10号楼","full_address":"黑龙江省佳木斯市向阳区宏安小区10号楼","info":""}},{"type":"Feature","geometry":{"type":"Point","coordinates":[130.355571,46.819232]},"properties":{"province":"黑龙江省","city":"佳木斯市","county":"向阳区","community":"德祥小区33号楼","full_address":"黑龙江省佳木斯市向阳区德祥小区33号楼","info":""}},{"type":"Feature","geometry":{"type":"Point","coordinates":[130.339624,46.826899]},"properties":{"province":"黑龙江省","city":"佳木斯市","county":"向阳区","community":"港龙东方城12号楼","full_address":"黑龙江省佳木斯市向阳区港龙东方城12号楼","info":""}},{"type":"Feature","geometry":{"type":"Point","coordinates":[130.369281,46.806078]},"properties":{"province":"黑龙江省","city":"佳木斯市","county":"向阳区","community":"佳里中心C座","full_address":"黑龙江省佳木斯市向阳区佳里中心C座","info":""}},{"type":"Feature","geometry":{"type":"Point","coordinates":[130.360748,46.800483]},"properties":{"province":"黑龙江省","city":"佳木斯市","county":"向阳区","community":"杏林南苑B栋","full_address":"黑龙江省佳木斯市向阳区杏林南苑B栋","info":""}},{"type":"Feature","geometry":{"type":"Point","coordinates":[130.362088,46.809364]},"properties":{"province":"黑龙江省","city":"佳木斯市","county":"向阳区","community":"志兴社区林业5号楼","full_address":"黑龙江省佳木斯市向阳区志兴社区林业5号楼","info":""}},{"type":"Feature","geometry":{"type":"Point","coordinates":[130.365346,46.80779]},"properties":{"province":"黑龙江省","city":"佳木斯市","county":"向阳区","community":"中央公园7号楼","full_address":"黑龙江省佳木斯市向阳区中央公园7号楼","info":""}},{"type":"Feature","geometry":{"type":"Point","coordinates":[130.36803,46.804326]},"properties":{"province":"黑龙江省","city":"佳木斯市","county":"向阳区","community":"体委小区2号楼","full_address":"黑龙江省佳木斯市向阳区体委小区2号楼","info":""}},{"type":"Feature","geometry":{"type":"Point","coordinates":[130.35786,46.81787]},"properties":{"province":"黑龙江省","city":"佳木斯市","county":"向阳区","community":"时代景城A区6号楼","full_address":"黑龙江省佳木斯市向阳区时代景城A区6号楼","info":""}},{"type":"Feature","geometry":{"type":"Point","coordinates":[130.360567,46.81225]},"properties":{"province":"黑龙江省","city":"佳木斯市","county":"向阳区","community":"滨江小区一期6号楼","full_address":"黑龙江省佳木斯市向阳区滨江小区一期6号楼","info":""}},{"type":"Feature","geometry":{"type":"Point","coordinates":[130.361121,46.813337]},"properties":{"province":"黑龙江省","city":"佳木斯市","county":"向阳区","community":"龙海大厦","full_address":"黑龙江省佳木斯市向阳区龙海大厦","info":""}},{"type":"Feature","geometry":{"type":"Point","coordinates":[130.35127,46.810925]},"properties":{"province":"黑龙江省","city":"佳木斯市","county":"向阳区","community":"宏光新天地A栋","full_address":"黑龙江省佳木斯市向阳区宏光新天地A栋","info":""}},{"type":"Feature","geometry":{"type":"Point","coordinates":[130.36145,46.816806]},"properties":{"province":"黑龙江省","city":"佳木斯市","county":"向阳区","community":"西林兴城小区A楼","full_address":"黑龙江省佳木斯市向阳区西林兴城小区A楼","info":""}},{"type":"Feature","geometry":{"type":"Point","coordinates":[130.344667,46.798282]},"properties":{"province":"黑龙江省","city":"佳木斯市","county":"向阳区","community":"枫和林里D栋","full_address":"黑龙江省佳木斯市向阳区枫和林里D栋","info":""}},{"type":"Feature","geometry":{"type":"Point","coordinates":[130.359982,46.800633]},"properties":{"province":"黑龙江省","city":"佳木斯市","county":"向阳区","community":"杏林南苑A栋","full_address":"黑龙江省佳木斯市向阳区杏林南苑A栋","info":""}},{"type":"Feature","geometry":{"type":"Point","coordinates":[130.367949,46.812382]},"properties":{"province":"黑龙江省","city":"佳木斯市","county":"向阳区","community":"金鑫综合楼","full_address":"黑龙江省佳木斯市向阳区金鑫综合楼","info":""}},{"type":"Feature","geometry":{"type":"Point","coordinates":[130.355625,46.783437]},"properties":{"province":"黑龙江省","city":"佳木斯市","county":"向阳区","community":"天福城6号楼","full_address":"黑龙江省佳木斯市向阳区天福城6号楼","info":""}},{"type":"Feature","geometry":{"type":"Point","coordinates":[130.352486,46.800895]},"properties":{"province":"黑龙江省","city":"佳木斯市","county":"向阳区","community":"世水花园15、21、22、25号楼","full_address":"黑龙江省佳木斯市向阳区世水花园15、21、22、25号楼","info":""}},{"type":"Feature","geometry":{"type":"Point","coordinates":[130.355583,46.811417]},"properties":{"province":"黑龙江省","city":"佳木斯市","county":"向阳区","community":"建业小区3、4号楼","full_address":"黑龙江省佳木斯市向阳区建业小区3、4号楼","info":""}},{"type":"Feature","geometry":{"type":"Point","coordinates":[130.368449,46.81226]},"properties":{"province":"黑龙江省","city":"佳木斯市","county":"向阳区","community":"常青花园F栋","full_address":"黑龙江省佳木斯市向阳区常青花园F栋","info":""}},{"type":"Feature","geometry":{"type":"Point","coordinates":[130.365346,46.80779]},"properties":{"province":"黑龙江省","city":"佳木斯市","county":"向阳区","community":"璞院11、12号楼","full_address":"黑龙江省佳木斯市向阳区璞院11、12号楼","info":""}},{"type":"Feature","geometry":{"type":"Point","coordinates":[130.365028,46.811729]},"properties":{"province":"黑龙江省","city":"佳木斯市","county":"向阳区","community":"帝景豪庭三期F区10号楼","full_address":"黑龙江省佳木斯市向阳区帝景豪庭三期F区10号楼","info":""}},{"type":"Feature","geometry":{"type":"Point","coordinates":[130.392246,46.812243]},"properties":{"province":"黑龙江省","city":"佳木斯市","county":"向阳区","community":"教育二小区15号楼","full_address":"黑龙江省佳木斯市向阳区教育二小区15号楼","info":""}},{"type":"Feature","geometry":{"type":"Point","coordinates":[130.3585,46.81795]},"properties":{"province":"黑龙江省","city":"佳木斯市","county":"向阳区","community":"临江花园8号楼","full_address":"黑龙江省佳木斯市向阳区临江花园8号楼","info":""}},{"type":"Feature","geometry":{"type":"Point","coordinates":[130.34808,46.81072]},"properties":{"province":"黑龙江省","city":"佳木斯市","county":"向阳区","community":"宏光新天地G栋","full_address":"黑龙江省佳木斯市向阳区宏光新天地G栋","info":""}},{"type":"Feature","geometry":{"type":"Point","coordinates":[130.351659,46.807111]},"properties":{"province":"黑龙江省","city":"佳木斯市","county":"向阳区","community":"志兴小区8号楼","full_address":"黑龙江省佳木斯市向阳区志兴小区8号楼","info":""}},{"type":"Feature","geometry":{"type":"Point","coordinates":[130.369246,46.806088]},"properties":{"province":"黑龙江省","city":"佳木斯市","county":"向阳区","community":"佳里中心B座","full_address":"黑龙江省佳木斯市向阳区佳里中心B座","info":""}},{"type":"Feature","geometry":{"type":"Point","coordinates":[130.350725,46.798299]},"properties":{"province":"黑龙江省","city":"佳木斯市","county":"向阳区","community":"金地家园15号楼","full_address":"黑龙江省佳木斯市向阳区金地家园15号楼","info":""}},{"type":"Feature","geometry":{"type":"Point","coordinates":[130.366558,46.809235]},"properties":{"province":"黑龙江省","city":"佳木斯市","county":"向阳区","community":"安民社区一建17号楼","full_address":"黑龙江省佳木斯市向阳区安民社区一建17号楼","info":""}},{"type":"Feature","geometry":{"type":"Point","coordinates":[130.348635,46.814176]},"properties":{"province":"黑龙江省","city":"佳木斯市","county":"向阳区","community":"帝景豪庭G3栋","full_address":"黑龙江省佳木斯市向阳区帝景豪庭G3栋","info":""}},{"type":"Feature","geometry":{"type":"Point","coordinates":[130.339076,46.789078]},"properties":{"province":"黑龙江省","city":"佳木斯市","county":"向阳区","community":"万象府6号楼","full_address":"黑龙江省佳木斯市向阳区万象府6号楼","info":""}},{"type":"Feature","geometry":{"type":"Point","coordinates":[130.366644,46.798778]},"properties":{"province":"黑龙江省","city":"佳木斯市","county":"向阳区","community":"迪尔小区A楼","full_address":"黑龙江省佳木斯市向阳区迪尔小区A楼","info":""}},{"type":"Feature","geometry":{"type":"Point","coordinates":[130.367452,46.798753]},"properties":{"province":"黑龙江省","city":"佳木斯市","county":"向阳区","community":"迪尔小区D楼","full_address":"黑龙江省佳木斯市向阳区迪尔小区D楼","info":""}},{"type":"Feature","geometry":{"type":"Point","coordinates":[130.364284,46.784347]},"properties":{"province":"黑龙江省","city":"佳木斯市","county":"向阳区","community":"永房26号楼","full_address":"黑龙江省佳木斯市向阳区永房26号楼","info":""}},{"type":"Feature","geometry":{"type":"Point","coordinates":[130.362313,46.8195]},"properties":{"province":"黑龙江省","city":"佳木斯市","county":"向阳区","community":"市委24号楼","full_address":"黑龙江省佳木斯市向阳区市委24号楼","info":""}},{"type":"Feature","geometry":{"type":"Point","coordinates":[130.365579,46.807417]},"properties":{"province":"黑龙江省","city":"佳木斯市","county":"向阳区","community":"政府34号楼","full_address":"黑龙江省佳木斯市向阳区政府34号楼","info":""}},{"type":"Feature","geometry":{"type":"Point","coordinates":[130.360397,46.812261]},"properties":{"province":"黑龙江省","city":"佳木斯市","county":"向阳区","community":"慧海家园C楼","full_address":"黑龙江省佳木斯市向阳区慧海家园C楼","info":""}},{"type":"Feature","geometry":{"type":"Point","coordinates":[130.368975,46.812]},"properties":{"province":"黑龙江省","city":"佳木斯市","county":"向阳区","community":"一中集资楼","full_address":"黑龙江省佳木斯市向阳区一中集资楼","info":""}},{"type":"Feature","geometry":{"type":"Point","coordinates":[130.353911,46.80461]},"properties":{"province":"黑龙江省","city":"佳木斯市","county":"向阳区","community":"群英巷科技楼","full_address":"黑龙江省佳木斯市向阳区群英巷科技楼","info":""}},{"type":"Feature","geometry":{"type":"Point","coordinates":[130.372022,46.815901]},"properties":{"province":"黑龙江省","city":"佳木斯市","county":"前进区","community":"太阳市场57号楼","full_address":"黑龙江省佳木斯市前进区太阳市场57号楼","info":""}},{"type":"Feature","geometry":{"type":"Point","coordinates":[130.390915,46.819903]},"properties":{"province":"黑龙江省","city":"佳木斯市","county":"前进区","community":"金港湾2期14号楼","full_address":"黑龙江省佳木斯市前进区金港湾2期14号楼","info":""}},{"type":"Feature","geometry":{"type":"Point","coordinates":[130.368464,46.809708]},"properties":{"province":"黑龙江省","city":"佳木斯市","county":"前进区","community":"都市人居A栋","full_address":"黑龙江省佳木斯市前进区都市人居A栋","info":""}},{"type":"Feature","geometry":{"type":"Point","coordinates":[130.403347,46.799846]},"properties":{"province":"黑龙江省","city":"佳木斯市","county":"前进区","community":"胜利小区E栋","full_address":"黑龙江省佳木斯市前进区胜利小区E栋","info":""}},{"type":"Feature","geometry":{"type":"Point","coordinates":[130.375063,46.814103]},"properties":{"province":"黑龙江省","city":"佳木斯市","county":"前进区","community":"国脉通小区2号楼","full_address":"黑龙江省佳木斯市前进区国脉通小区2号楼","info":""}},{"type":"Feature","geometry":{"type":"Point","coordinates":[130.375063,46.814103]},"properties":{"province":"黑龙江省","city":"佳木斯市","county":"前进区","community":"粮库7组啤酒厂家属楼2号楼","full_address":"黑龙江省佳木斯市前进区粮库7组啤酒厂家属楼2号楼","info":""}},{"type":"Feature","geometry":{"type":"Point","coordinates":[130.383609,46.798009]},"properties":{"province":"黑龙江省","city":"佳木斯市","county":"前进区","community":"枫桥河畔D栋","full_address":"黑龙江省佳木斯市前进区枫桥河畔D栋","info":""}},{"type":"Feature","geometry":{"type":"Point","coordinates":[130.38413,46.81915]},"properties":{"province":"黑龙江省","city":"佳木斯市","county":"前进区","community":"金港湾一期多层6号楼","full_address":"黑龙江省佳木斯市前进区金港湾一期多层6号楼","info":""}},{"type":"Feature","geometry":{"type":"Point","coordinates":[130.383937,46.792098]},"properties":{"province":"黑龙江省","city":"佳木斯市","county":"前进区","community":"山水家园18号楼","full_address":"黑龙江省佳木斯市前进区山水家园18号楼","info":""}},{"type":"Feature","geometry":{"type":"Point","coordinates":[130.37438,46.80728]},"properties":{"province":"黑龙江省","city":"佳木斯市","county":"前进区","community":"军苑一号独栋楼","full_address":"黑龙江省佳木斯市前进区军苑一号独栋楼","info":""}},{"type":"Feature","geometry":{"type":"Point","coordinates":[130.383768,46.790493]},"properties":{"province":"黑龙江省","city":"佳木斯市","county":"前进区","community":"吉祥福苑独栋楼","full_address":"黑龙江省佳木斯市前进区吉祥福苑独栋楼","info":""}},{"type":"Feature","geometry":{"type":"Point","coordinates":[130.373183,46.802788]},"properties":{"province":"黑龙江省","city":"佳木斯市","county":"前进区","community":"吉祥福苑","full_address":"黑龙江省佳木斯市前进区吉祥福苑","info":""}},{"type":"Feature","geometry":{"type":"Point","coordinates":[130.38934,46.810173]},"properties":{"province":"黑龙江省","city":"佳木斯市","county":"前进区","community":"鸿基嘉园F栋","full_address":"黑龙江省佳木斯市前进区鸿基嘉园F栋","info":""}},{"type":"Feature","geometry":{"type":"Point","coordinates":[130.388554,46.819976]},"properties":{"province":"黑龙江省","city":"佳木斯市","county":"前进区","community":"金港湾二期高层10号楼","full_address":"黑龙江省佳木斯市前进区金港湾二期高层10号楼","info":""}},{"type":"Feature","geometry":{"type":"Point","coordinates":[130.371936,46.818577]},"properties":{"province":"黑龙江省","city":"佳木斯市","county":"前进区","community":"航运小区8号楼（沿江巷西）","full_address":"黑龙江省佳木斯市前进区航运小区8号楼（沿江巷西）","info":""}},{"type":"Feature","geometry":{"type":"Point","coordinates":[130.378447,46.807674]},"properties":{"province":"黑龙江省","city":"佳木斯市","county":"前进区","community":"地质社区3号楼","full_address":"黑龙江省佳木斯市前进区地质社区3号楼","info":""}},{"type":"Feature","geometry":{"type":"Point","coordinates":[130.37537,46.810055]},"properties":{"province":"黑龙江省","city":"佳木斯市","county":"前进区","community":"园林社区天麒2号楼","full_address":"黑龙江省佳木斯市前进区园林社区天麒2号楼","info":""}},{"type":"Feature","geometry":{"type":"Point","coordinates":[130.375063,46.814103]},"properties":{"province":"黑龙江省","city":"佳木斯市","county":"前进区","community":"永和街大厦楼1-4单元","full_address":"黑龙江省佳木斯市前进区永和街大厦楼1-4单元","info":""}},{"type":"Feature","geometry":{"type":"Point","coordinates":[130.374708,46.816336]},"properties":{"province":"黑龙江省","city":"佳木斯市","county":"前进区","community":"港务小区28号楼","full_address":"黑龙江省佳木斯市前进区港务小区28号楼","info":""}},{"type":"Feature","geometry":{"type":"Point","coordinates":[130.402458,46.799977]},"properties":{"province":"黑龙江省","city":"佳木斯市","county":"前进区","community":"胜利小区A栋","full_address":"黑龙江省佳木斯市前进区胜利小区A栋","info":""}},{"type":"Feature","geometry":{"type":"Point","coordinates":[130.399507,46.816912]},"properties":{"province":"黑龙江省","city":"佳木斯市","county":"东风区","community":"阳光绿洲H栋","full_address":"黑龙江省佳木斯市东风区阳光绿洲H栋","info":""}},{"type":"Feature","geometry":{"type":"Point","coordinates":[130.403028,46.827823]},"properties":{"province":"黑龙江省","city":"佳木斯市","county":"东风区","community":"发电北区33号楼","full_address":"黑龙江省佳木斯市东风区发电北区33号楼","info":""}},{"type":"Feature","geometry":{"type":"Point","coordinates":[130.398417,46.821229]},"properties":{"province":"黑龙江省","city":"佳木斯市","county":"东风区","community":"东湾假日C栋","full_address":"黑龙江省佳木斯市东风区东湾假日C栋","info":""}},{"type":"Feature","geometry":{"type":"Point","coordinates":[130.403664,46.822572]},"properties":{"province":"黑龙江省","city":"佳木斯市","county":"东风区","community":"东兴城C区43号楼","full_address":"黑龙江省佳木斯市东风区东兴城C区43号楼","info":""}},{"type":"Feature","geometry":{"type":"Point","coordinates":[130.403096,46.827924]},"properties":{"province":"黑龙江省","city":"佳木斯市","county":"东风区","community":"兴电社区33号楼","full_address":"黑龙江省佳木斯市东风区兴电社区33号楼","info":""}},{"type":"Feature","geometry":{"type":"Point","coordinates":[130.397492,46.814555]},"properties":{"province":"黑龙江省","city":"佳木斯市","county":"东风区","community":"玫瑰园小区U栋","full_address":"黑龙江省佳木斯市东风区玫瑰园小区U栋","info":""}},{"type":"Feature","geometry":{"type":"Point","coordinates":[130.398843,46.816862]},"properties":{"province":"黑龙江省","city":"佳木斯市","county":"东风区","community":"阳光绿洲F栋","full_address":"黑龙江省佳木斯市东风区阳光绿洲F栋","info":""}},{"type":"Feature","geometry":{"type":"Point","coordinates":[130.399359,46.815538]},"properties":{"province":"黑龙江省","city":"佳木斯市","county":"东风区","community":"玫瑰园小区C2栋","full_address":"黑龙江省佳木斯市东风区玫瑰园小区C2栋","info":""}},{"type":"Feature","geometry":{"type":"Point","coordinates":[130.404958,46.816808]},"properties":{"province":"黑龙江省","city":"佳木斯市","county":"东风区","community":"东方花园1号楼","full_address":"黑龙江省佳木斯市东风区东方花园1号楼","info":""}},{"type":"Feature","geometry":{"type":"Point","coordinates":[130.304219,46.805887]},"properties":{"province":"黑龙江省","city":"佳木斯市","county":"郊区","community":"五一社区1组","full_address":"黑龙江省佳木斯市郊区五一社区1组","info":""}},{"type":"Feature","geometry":{"type":"Point","coordinates":[130.340542,46.799046]},"properties":{"province":"黑龙江省","city":"佳木斯市","county":"郊区","community":"长安社区P栋","full_address":"黑龙江省佳木斯市郊区长安社区P栋","info":""}},{"type":"Feature","geometry":{"type":"Point","coordinates":[130.368962,46.812015]},"properties":{"province":"黑龙江省","city":"佳木斯市","county":"郊区","community":"益海花园小区9号楼","full_address":"黑龙江省佳木斯市郊区益海花园小区9号楼","info":""}},{"type":"Feature","geometry":{"type":"Point","coordinates":[130.339667,46.79929]},"properties":{"province":"黑龙江省","city":"佳木斯市","county":"郊区","community":"良种场2号楼","full_address":"黑龙江省佳木斯市郊区良种场2号楼","info":""}},{"type":"Feature","geometry":{"type":"Point","coordinates":[130.36905,46.812]},"properties":{"province":"黑龙江省","city":"佳木斯市","county":"郊区","community":"盛世华都L栋","full_address":"黑龙江省佳木斯市郊区盛世华都L栋","info":""}},{"type":"Feature","geometry":{"type":"Point","coordinates":[130.33752,46.797395]},"properties":{"province":"黑龙江省","city":"佳木斯市","county":"郊区","community":"盛世华都W栋","full_address":"黑龙江省佳木斯市郊区盛世华都W栋","info":""}},{"type":"Feature","geometry":{"type":"Point","coordinates":[130.327195,46.810086]},"properties":{"province":"黑龙江省","city":"佳木斯市","county":"郊区","community":"运输公司家属楼独栋楼","full_address":"黑龙江省佳木斯市郊区运输公司家属楼独栋楼","info":""}},{"type":"Feature","geometry":{"type":"Point","coordinates":[130.3332,46.803482]},"properties":{"province":"黑龙江省","city":"佳木斯市","county":"郊区","community":"长安新城3号楼","full_address":"黑龙江省佳木斯市郊区长安新城3号楼","info":""}},{"type":"Feature","geometry":{"type":"Point","coordinates":[130.302986,46.809612]},"properties":{"province":"黑龙江省","city":"佳木斯市","county":"郊区","community":"五一社区三合A栋16号楼","full_address":"黑龙江省佳木斯市郊区五一社区三合A栋16号楼","info":""}},{"type":"Feature","geometry":{"type":"Point","coordinates":[130.365569,46.811682]},"properties":{"province":"黑龙江省","city":"佳木斯市","county":"郊区","community":"英伦尚城H区3号楼","full_address":"黑龙江省佳木斯市郊区英伦尚城H区3号楼","info":""}},{"type":"Feature","geometry":{"type":"Point","coordinates":[130.320609,46.803399]},"properties":{"province":"黑龙江省","city":"佳木斯市","county":"郊区","community":"荷兰城观湖16号楼","full_address":"黑龙江省佳木斯市郊区荷兰城观湖16号楼","info":""}},{"type":"Feature","geometry":{"type":"Point","coordinates":[130.329344,46.807797]},"properties":{"province":"黑龙江省","city":"佳木斯市","county":"郊区","community":"欧亚小镇F栋","full_address":"黑龙江省佳木斯市郊区欧亚小镇F栋","info":""}},{"type":"Feature","geometry":{"type":"Point","coordinates":[130.315531,46.815536]},"properties":{"province":"黑龙江省","city":"佳木斯市","county":"郊区","community":"江南雅居21号楼","full_address":"黑龙江省佳木斯市郊区江南雅居21号楼","info":""}},{"type":"Feature","geometry":{"type":"Point","coordinates":[130.366894,46.812233]},"properties":{"province":"黑龙江省","city":"佳木斯市","county":"郊区","community":"佳天国际9号楼","full_address":"黑龙江省佳木斯市郊区佳天国际9号楼","info":""}},{"type":"Feature","geometry":{"type":"Point","coordinates":[130.32692,46.78937]},"properties":{"province":"黑龙江省","city":"佳木斯市","county":"郊区","community":"万兴华城B2栋","full_address":"黑龙江省佳木斯市郊区万兴华城B2栋","info":""}},{"type":"Feature","geometry":{"type":"Point","coordinates":[130.333909,46.801163]},"properties":{"province":"黑龙江省","city":"佳木斯市","county":"郊区","community":"长安新城10号楼","full_address":"黑龙江省佳木斯市郊区长安新城10号楼","info":""}},{"type":"Feature","geometry":{"type":"Point","coordinates":[130.33052,46.80632]},"properties":{"province":"黑龙江省","city":"佳木斯市","county":"郊区","community":"英伦尚城D区3号楼","full_address":"黑龙江省佳木斯市郊区英伦尚城D区3号楼","info":""}},{"type":"Feature","geometry":{"type":"Point","coordinates":[130.341388,46.79845]},"properties":{"province":"黑龙江省","city":"佳木斯市","county":"郊区","community":"荣军社区良种场2号楼","full_address":"黑龙江省佳木斯市郊区荣军社区良种场2号楼","info":""}},{"type":"Feature","geometry":{"type":"Point","coordinates":[130.361966,46.810883]},"properties":{"province":"黑龙江省","city":"佳木斯市","county":"郊区","community":"金融小区A3栋","full_address":"黑龙江省佳木斯市郊区金融小区A3栋","info":""}},{"type":"Feature","geometry":{"type":"Point","coordinates":[130.37228,46.869492]},"properties":{"province":"黑龙江省","city":"佳木斯市","county":"郊区","community":"平安乡群英村2组","full_address":"黑龙江省佳木斯市郊区平安乡群英村2组","info":""}},{"type":"Feature","geometry":{"type":"Point","coordinates":[130.318945,46.857964]},"properties":{"province":"黑龙江省","city":"佳木斯市","county":"郊区","community":"莲江口镇鑫城小区厢楼","full_address":"黑龙江省佳木斯市郊区莲江口镇鑫城小区厢楼","info":""}},{"type":"Feature","geometry":{"type":"Point","coordinates":[130.361966,46.810883]},"properties":{"province":"黑龙江省","city":"佳木斯市","county":"郊区","community":"金融小区A11号楼","full_address":"黑龙江省佳木斯市郊区金融小区A11号楼","info":""}},{"type":"Feature","geometry":{"type":"Point","coordinates":[127.514731,50.23109]},"properties":{"province":"黑龙江省","city":"黑河市","county":"爱辉区","community":"花园街道博文社区弘发粮苑小区4号楼1单元及1单元附属门市","full_address":"黑龙江省黑河市爱辉区花园街道博文社区弘发粮苑小区4号楼1单元及1单元附属门市","info":""}},{"type":"Feature","geometry":{"type":"Point","coordinates":[127.502441,50.239295]},"properties":{"province":"黑龙江省","city":"黑河市","county":"爱辉区","community":"花园街道长海社区龙滨嘉苑小区2号楼1单元及1单元附属门市、4号楼1单元及1单元楼下车库","full_address":"黑龙江省黑河市爱辉区花园街道长海社区龙滨嘉苑小区2号楼1单元及1单元附属门市、4号楼1单元及1单元楼下车库","info":""}},{"type":"Feature","geometry":{"type":"Point","coordinates":[127.500209,50.2385]},"properties":{"province":"黑龙江省","city":"黑河市","county":"爱辉区","community":"花园街道长海社区黑龙大厦水利家属楼1单元","full_address":"黑龙江省黑河市爱辉区花园街道长海社区黑龙大厦水利家属楼1单元","info":""}},{"type":"Feature","geometry":{"type":"Point","coordinates":[127.490219,50.246223]},"properties":{"province":"黑龙江省","city":"黑河市","county":"爱辉区","community":"海兰街道温馨社区供销社家属楼3单元","full_address":"黑龙江省黑河市爱辉区海兰街道温馨社区供销社家属楼3单元","info":""}},{"type":"Feature","geometry":{"type":"Point","coordinates":[127.497957,50.252053]},"properties":{"province":"黑龙江省","city":"黑河市","county":"爱辉区","community":"海兰街道鹿源春社区中房怡园66号楼2单元及2单元附属门市","full_address":"黑龙江省黑河市爱辉区海兰街道鹿源春社区中房怡园66号楼2单元及2单元附属门市","info":""}},{"type":"Feature","geometry":{"type":"Point","coordinates":[127.47671,50.245983]},"properties":{"province":"黑龙江省","city":"黑河市","county":"爱辉区","community":"海兰街道温馨社区力波家园24号楼1单元","full_address":"黑龙江省黑河市爱辉区海兰街道温馨社区力波家园24号楼1单元","info":""}},{"type":"Feature","geometry":{"type":"Point","coordinates":[127.484908,50.255878]},"properties":{"province":"黑龙江省","city":"黑河市","county":"爱辉区","community":"西兴街道人保财险社区益民一区7号楼5单元及5单元附属门市","full_address":"黑龙江省黑河市爱辉区西兴街道人保财险社区益民一区7号楼5单元及5单元附属门市","info":""}},{"type":"Feature","geometry":{"type":"Point","coordinates":[127.530603,50.238833]},"properties":{"province":"黑龙江省","city":"黑河市","county":"爱辉区","community":"花园街道长海社区组织部集资楼及附属门市","full_address":"黑龙江省黑河市爱辉区花园街道长海社区组织部集资楼及附属门市","info":""}},{"type":"Feature","geometry":{"type":"Point","coordinates":[127.517584,50.245438]},"properties":{"province":"黑龙江省","city":"黑河市","county":"爱辉区","community":"花园街道金兰社区华林庭苑小区1号楼2单元及2单元附属门市","full_address":"黑龙江省黑河市爱辉区花园街道金兰社区华林庭苑小区1号楼2单元及2单元附属门市","info":""}},{"type":"Feature","geometry":{"type":"Point","coordinates":[127.530701,50.237656]},"properties":{"province":"黑龙江省","city":"黑河市","county":"爱辉区","community":"花园街道武庙屯社区之路佳苑小区10号楼3单元","full_address":"黑龙江省黑河市爱辉区花园街道武庙屯社区之路佳苑小区10号楼3单元","info":""}},{"type":"Feature","geometry":{"type":"Point","coordinates":[127.522418,50.234325]},"properties":{"province":"黑龙江省","city":"黑河市","county":"爱辉区","community":"花园街道博文社区安发小区7号楼4单元","full_address":"黑龙江省黑河市爱辉区花园街道博文社区安发小区7号楼4单元","info":""}},{"type":"Feature","geometry":{"type":"Point","coordinates":[127.53045,50.230125]},"properties":{"province":"黑龙江省","city":"黑河市","county":"爱辉区","community":"花园街道博文社区学府家园小区2号楼7单元及7单元附属门市","full_address":"黑龙江省黑河市爱辉区花园街道博文社区学府家园小区2号楼7单元及7单元附属门市","info":""}},{"type":"Feature","geometry":{"type":"Point","coordinates":[127.509752,50.231367]},"properties":{"province":"黑龙江省","city":"黑河市","county":"爱辉区","community":"花园街道博文社区中房尚城小区1号楼2单元及2单元附属门市、5号楼4单元及4单元附属门市","full_address":"黑龙江省黑河市爱辉区花园街道博文社区中房尚城小区1号楼2单元及2单元附属门市、5号楼4单元及4单元附属门市","info":""}},{"type":"Feature","geometry":{"type":"Point","coordinates":[127.508636,50.241645]},"properties":{"province":"黑龙江省","city":"黑河市","county":"爱辉区","community":"花园街道长海社区学苑小区1号楼3单元","full_address":"黑龙江省黑河市爱辉区花园街道长海社区学苑小区1号楼3单元","info":""}},{"type":"Feature","geometry":{"type":"Point","coordinates":[127.49554,50.243425]},"properties":{"province":"黑龙江省","city":"黑河市","county":"爱辉区","community":"兴安街道热电社区民政小区61号楼5单元、一建2号楼3单元","full_address":"黑龙江省黑河市爱辉区兴安街道热电社区民政小区61号楼5单元、一建2号楼3单元","info":""}},{"type":"Feature","geometry":{"type":"Point","coordinates":[127.478895,50.244896]},"properties":{"province":"黑龙江省","city":"黑河市","county":"爱辉区","community":"海兰街道温馨社区北国明珠小区7号楼1单元及1单元附属车库、18号楼2单元及2单元附属车库","full_address":"黑龙江省黑河市爱辉区海兰街道温馨社区北国明珠小区7号楼1单元及1单元附属车库、18号楼2单元及2单元附属车库","info":""}},{"type":"Feature","geometry":{"type":"Point","coordinates":[127.483609,50.249889]},"properties":{"province":"黑龙江省","city":"黑河市","county":"爱辉区","community":"西兴街道福龙社区益民二区8号楼5单元及5单元附属门市","full_address":"黑龙江省黑河市爱辉区西兴街道福龙社区益民二区8号楼5单元及5单元附属门市","info":""}},{"type":"Feature","geometry":{"type":"Point","coordinates":[127.512173,50.218138]},"properties":{"province":"黑龙江省","city":"黑河市","county":"爱辉区","community":"二公河工业园区中小企业创业中心办公楼","full_address":"黑龙江省黑河市爱辉区二公河工业园区中小企业创业中心办公楼","info":""}},{"type":"Feature","geometry":{"type":"Point","coordinates":[127.489122,50.246789]},"properties":{"province":"黑龙江省","city":"黑河市","county":"爱辉区","community":"海兰街道鹿源春社区金达之家小区民航家属楼6单元及6单元附属门市、国际公司改造楼2单元及2单元附属门市","full_address":"黑龙江省黑河市爱辉区海兰街道鹿源春社区金达之家小区民航家属楼6单元及6单元附属门市、国际公司改造楼2单元及2单元附属门市","info":""}},{"type":"Feature","geometry":{"type":"Point","coordinates":[127.521653,50.235038]},"properties":{"province":"黑龙江省","city":"黑河市","county":"爱辉区","community":"花园街道博文社区安发小区3号楼1单元","full_address":"黑龙江省黑河市爱辉区花园街道博文社区安发小区3号楼1单元","info":""}},{"type":"Feature","geometry":{"type":"Point","coordinates":[127.505825,50.233663]},"properties":{"province":"黑龙江省","city":"黑河市","county":"爱辉区","community":"花园街道长海社区国税小区1号楼4单元及4单元附属门市","full_address":"黑龙江省黑河市爱辉区花园街道长海社区国税小区1号楼4单元及4单元附属门市","info":""}},{"type":"Feature","geometry":{"type":"Point","coordinates":[127.507217,50.246904]},"properties":{"province":"黑龙江省","city":"黑河市","county":"爱辉区","community":"花园街道网通社区楼中楼小区地开发30号楼3单元及3单元附属门市","full_address":"黑龙江省黑河市爱辉区花园街道网通社区楼中楼小区地开发30号楼3单元及3单元附属门市","info":""}},{"type":"Feature","geometry":{"type":"Point","coordinates":[0,0]},"properties":{"province":"黑龙江省","city":"黑河市","county":"爱辉区","community":"花园街道金兰社区世纪花园小区14号楼1单元及1单元附属门市","full_address":"黑龙江省黑河市爱辉区花园街道金兰社区世纪花园小区14号楼1单元及1单元附属门市","info":""}},{"type":"Feature","geometry":{"type":"Point","coordinates":[127.520241,50.242368]},"properties":{"province":"黑龙江省","city":"黑河市","county":"爱辉区","community":"花园街道金兰社区建行家属楼小区2号楼4单元","full_address":"黑龙江省黑河市爱辉区花园街道金兰社区建行家属楼小区2号楼4单元","info":""}},{"type":"Feature","geometry":{"type":"Point","coordinates":[127.510381,50.247046]},"properties":{"province":"黑龙江省","city":"黑河市","county":"爱辉区","community":"花园街道金兰社区工行家属楼2号楼1单元及1单元附属门市","full_address":"黑龙江省黑河市爱辉区花园街道金兰社区工行家属楼2号楼1单元及1单元附属门市","info":""}},{"type":"Feature","geometry":{"type":"Point","coordinates":[127.533424,50.238059]},"properties":{"province":"黑龙江省","city":"黑河市","county":"爱辉区","community":"花园街道武庙屯社区华泰颐和国际小区3号楼2单元","full_address":"黑龙江省黑河市爱辉区花园街道武庙屯社区华泰颐和国际小区3号楼2单元","info":""}},{"type":"Feature","geometry":{"type":"Point","coordinates":[127.482755,50.251722]},"properties":{"province":"黑龙江省","city":"黑河市","county":"爱辉区","community":"西兴街道人保财险社区林业小区11区3号楼3单元","full_address":"黑龙江省黑河市爱辉区西兴街道人保财险社区林业小区11区3号楼3单元","info":""}},{"type":"Feature","geometry":{"type":"Point","coordinates":[127.487701,50.253547]},"properties":{"province":"黑龙江省","city":"黑河市","county":"爱辉区","community":"西兴街道人保财险社区节能小区7号楼3单元及3单元附属门市","full_address":"黑龙江省黑河市爱辉区西兴街道人保财险社区节能小区7号楼3单元及3单元附属门市","info":""}},{"type":"Feature","geometry":{"type":"Point","coordinates":[127.4195,50.1432]},"properties":{"province":"黑龙江省","city":"黑河市","county":"爱辉区","community":"锦河农场金河小区10号楼1单元","full_address":"黑龙江省黑河市爱辉区锦河农场金河小区10号楼1单元","info":""}},{"type":"Feature","geometry":{"type":"Point","coordinates":[126.72052,48.683955]},"properties":{"province":"黑龙江省","city":"黑河市","county":"爱辉区","community":"花园街道喇嘛台社区鸿城名苑小区 3 号楼 4 单元及 4 单元附属车库","full_address":"黑龙江省黑河市爱辉区花园街道喇嘛台社区鸿城名苑小区 3 号楼 4 单元及 4 单元附属车库","info":""}},{"type":"Feature","geometry":{"type":"Point","coordinates":[127.493629,50.2458]},"properties":{"province":"黑龙江省","city":"黑河市","county":"爱辉区","community":"兴安街道金融社区国信楼小区","full_address":"黑龙江省黑河市爱辉区兴安街道金融社区国信楼小区","info":""}},{"type":"Feature","geometry":{"type":"Point","coordinates":[127.494526,50.253789]},"properties":{"province":"黑龙江省","city":"黑河市","county":"爱辉区","community":"海兰街道鹿源春社区恒基高层 3 单元及附属门市","full_address":"黑龙江省黑河市爱辉区海兰街道鹿源春社区恒基高层 3 单元及附属门市","info":""}},{"type":"Feature","geometry":{"type":"Point","coordinates":[127.493629,50.2458]},"properties":{"province":"黑龙江省","city":"黑河市","county":"爱辉区","community":"兴安街道金融社区祥和景园小区8单元","full_address":"黑龙江省黑河市爱辉区兴安街道金融社区祥和景园小区8单元","info":""}},{"type":"Feature","geometry":{"type":"Point","coordinates":[127.521516,50.237484]},"properties":{"province":"黑龙江省","city":"黑河市","county":"爱辉区","community":"花园街道博文社区昌辉雅典城小区 3 号楼 1 单元及 1 单元附属门市","full_address":"黑龙江省黑河市爱辉区花园街道博文社区昌辉雅典城小区 3 号楼 1 单元及 1 单元附属门市","info":""}},{"type":"Feature","geometry":{"type":"Point","coordinates":[127.512145,50.241397]},"properties":{"province":"黑龙江省","city":"黑河市","county":"爱辉区","community":"花园街道联通社区建行小区农业小楼（独立单元楼）、 荣升久食杂店","full_address":"黑龙江省黑河市爱辉区花园街道联通社区建行小区农业小楼（独立单元楼）、 荣升久食杂店","info":""}},{"type":"Feature","geometry":{"type":"Point","coordinates":[127.506147,50.2332]},"properties":{"province":"黑龙江省","city":"黑河市","county":"爱辉区","community":"花园街道长海社区国税小区 2 号楼 1 单元","full_address":"黑龙江省黑河市爱辉区花园街道长海社区国税小区 2 号楼 1 单元","info":""}},{"type":"Feature","geometry":{"type":"Point","coordinates":[127.527376,50.232746]},"properties":{"province":"黑龙江省","city":"黑河市","county":"爱辉区","community":"花园街道喇嘛台社区荣耀世纪小区 11 号楼 5 单元及 5 单元附属车库","full_address":"黑龙江省黑河市爱辉区花园街道喇嘛台社区荣耀世纪小区 11 号楼 5 单元及 5 单元附属车库","info":""}},{"type":"Feature","geometry":{"type":"Point","coordinates":[127.509261,50.240156]},"properties":{"province":"黑龙江省","city":"黑河市","county":"爱辉区","community":"兴安街道金融社区锦江佳苑小区保险公司家属楼 2 单元及 2 单元附属门市","full_address":"黑龙江省黑河市爱辉区兴安街道金融社区锦江佳苑小区保险公司家属楼 2 单元及 2 单元附属门市","info":""}},{"type":"Feature","geometry":{"type":"Point","coordinates":[127.477342,50.247036]},"properties":{"province":"黑龙江省","city":"黑河市","county":"爱辉区","community":"西兴街道福龙社区立波家园小区 14 号楼 6 单元及 6 单元附属门市","full_address":"黑龙江省黑河市爱辉区西兴街道福龙社区立波家园小区 14 号楼 6 单元及 6 单元附属门市","info":""}},{"type":"Feature","geometry":{"type":"Point","coordinates":[127.474117,50.255179]},"properties":{"province":"黑龙江省","city":"黑河市","county":"爱辉区","community":"西兴街道向阳社区在水一方小区 4 号楼 2 单元及 2 单元附属门市、3 单元及 3 单元附属门市","full_address":"黑龙江省黑河市爱辉区西兴街道向阳社区在水一方小区 4 号楼 2 单元及 2 单元附属门市、3 单元及 3 单元附属门市","info":""}},{"type":"Feature","geometry":{"type":"Point","coordinates":[126.72052,48.683955]},"properties":{"province":"黑龙江省","city":"黑河市","county":"爱辉区","community":"花园街道喇嘛台社区鸿城名苑小区 3 号楼 4 单元及 4 单元附属车","full_address":"黑龙江省黑河市爱辉区花园街道喇嘛台社区鸿城名苑小区 3 号楼 4 单元及 4 单元附属车","info":""}},{"type":"Feature","geometry":{"type":"Point","coordinates":[127.523979,50.239513]},"properties":{"province":"黑龙江省","city":"黑河市","county":"爱辉区","community":"兴安街道邮政社区松辽委小区中房94号楼4单元及4单元附属门市","full_address":"黑龙江省黑河市爱辉区兴安街道邮政社区松辽委小区中房94号楼4单元及4单元附属门市","info":""}},{"type":"Feature","geometry":{"type":"Point","coordinates":[127.496451,50.242701]},"properties":{"province":"黑龙江省","city":"黑河市","county":"爱辉区","community":"兴安街道热电社区爱家佳苑小区2号楼2单元及2单元附属门市","full_address":"黑龙江省黑河市爱辉区兴安街道热电社区爱家佳苑小区2号楼2单元及2单元附属门市","info":""}},{"type":"Feature","geometry":{"type":"Point","coordinates":[127.488387,50.241911]},"properties":{"province":"黑龙江省","city":"黑河市","county":"爱辉区","community":"兴安街道热电社区南湖雅苑小区17号楼2单元及2单元附属门市","full_address":"黑龙江省黑河市爱辉区兴安街道热电社区南湖雅苑小区17号楼2单元及2单元附属门市","info":""}},{"type":"Feature","geometry":{"type":"Point","coordinates":[127.490963,50.2368]},"properties":{"province":"黑龙江省","city":"黑河市","county":"爱辉区","community":"兴安街道热电社区惠民小区9号地9号楼3单元","full_address":"黑龙江省黑河市爱辉区兴安街道热电社区惠民小区9号地9号楼3单元","info":""}},{"type":"Feature","geometry":{"type":"Point","coordinates":[127.498771,50.237077]},"properties":{"province":"黑龙江省","city":"黑河市","county":"爱辉区","community":"兴安街道热电社区新生活家园小区（铁路街）3号楼2单元","full_address":"黑龙江省黑河市爱辉区兴安街道热电社区新生活家园小区（铁路街）3号楼2单元","info":""}},{"type":"Feature","geometry":{"type":"Point","coordinates":[127.483444,50.246046]},"properties":{"province":"黑龙江省","city":"黑河市","county":"爱辉区","community":"海兰街道温馨社区金地花园小区13号楼4单元及4单元附属门市","full_address":"黑龙江省黑河市爱辉区海兰街道温馨社区金地花园小区13号楼4单元及4单元附属门市","info":""}},{"type":"Feature","geometry":{"type":"Point","coordinates":[127.489956,50.249542]},"properties":{"province":"黑龙江省","city":"黑河市","county":"爱辉区","community":"西兴街道福龙社区益民二区17区11号楼6单元及6单元附属车库","full_address":"黑龙江省黑河市爱辉区西兴街道福龙社区益民二区17区11号楼6单元及6单元附属车库","info":""}},{"type":"Feature","geometry":{"type":"Point","coordinates":[127.489956,50.249542]},"properties":{"province":"黑龙江省","city":"黑河市","county":"爱辉区","community":"西兴街道福龙社区益民二区18区18号楼9单元及9单元附属门市","full_address":"黑龙江省黑河市爱辉区西兴街道福龙社区益民二区18区18号楼9单元及9单元附属门市","info":""}},{"type":"Feature","geometry":{"type":"Point","coordinates":[127.52282,50.238765]},"properties":{"province":"黑龙江省","city":"黑河市","county":"爱辉区","community":"花园街道网通社区卧牛湖小区中房2开楼4单元及4单元附属门市","full_address":"黑龙江省黑河市爱辉区花园街道网通社区卧牛湖小区中房2开楼4单元及4单元附属门市","info":""}},{"type":"Feature","geometry":{"type":"Point","coordinates":[127.517233,50.242845]},"properties":{"province":"黑龙江省","city":"黑河市","county":"爱辉区","community":"花园街道金兰社区园丁小区1号楼3单元及3单元附属门市","full_address":"黑龙江省黑河市爱辉区花园街道金兰社区园丁小区1号楼3单元及3单元附属门市","info":""}},{"type":"Feature","geometry":{"type":"Point","coordinates":[0,0]},"properties":{"province":"黑龙江省","city":"黑河市","county":"爱辉区","community":"花园街道长海社区龙滨嘉苑小区6号楼2单元及2单元附属车","full_address":"黑龙江省黑河市爱辉区花园街道长海社区龙滨嘉苑小区6号楼2单元及2单元附属车","info":""}},{"type":"Feature","geometry":{"type":"Point","coordinates":[127.515297,50.236049]},"properties":{"province":"黑龙江省","city":"黑河市","county":"爱辉区","community":"花园街道博文社区黑供小区2号楼3单元","full_address":"黑龙江省黑河市爱辉区花园街道博文社区黑供小区2号楼3单元","info":""}},{"type":"Feature","geometry":{"type":"Point","coordinates":[127.344707,49.425638]},"properties":{"province":"黑龙江省","city":"黑河市","county":"爱辉区","community":"花园街道喇嘛台社区尚品世纪经典小区7号楼3单元","full_address":"黑龙江省黑河市爱辉区花园街道喇嘛台社区尚品世纪经典小区7号楼3单元","info":""}},{"type":"Feature","geometry":{"type":"Point","coordinates":[127.491189,50.250171]},"properties":{"province":"黑龙江省","city":"黑河市","county":"爱辉区","community":"兴安街道邮政社区富绅小区区房产4号楼2单元及2单元附属门市","full_address":"黑龙江省黑河市爱辉区兴安街道邮政社区富绅小区区房产4号楼2单元及2单元附属门市","info":""}},{"type":"Feature","geometry":{"type":"Point","coordinates":[127.492289,50.24577]},"properties":{"province":"黑龙江省","city":"黑河市","county":"爱辉区","community":"海兰街道温馨社区盛世华庭小区1号楼1单元","full_address":"黑龙江省黑河市爱辉区海兰街道温馨社区盛世华庭小区1号楼1单元","info":""}},{"type":"Feature","geometry":{"type":"Point","coordinates":[127.521283,50.234314]},"properties":{"province":"黑龙江省","city":"黑河市","county":"爱辉区","community":"花园街道博文社区安发家园小区8号楼5单元","full_address":"黑龙江省黑河市爱辉区花园街道博文社区安发家园小区8号楼5单元","info":""}},{"type":"Feature","geometry":{"type":"Point","coordinates":[0,0]},"properties":{"province":"黑龙江省","city":"黑河市","county":"爱辉区","community":"西兴街道福龙社区翰林雅居小区 5 号楼及附属门市、6 号楼及附属门市","full_address":"黑龙江省黑河市爱辉区西兴街道福龙社区翰林雅居小区 5 号楼及附属门市、6 号楼及附属门市","info":""}},{"type":"Feature","geometry":{"type":"Point","coordinates":[127.478302,50.252668]},"properties":{"province":"黑龙江省","city":"黑河市","county":"爱辉区","community":"西兴街道福龙社区御景湾小区 5 号楼 2 单元、6 号楼 1 单元","full_address":"黑龙江省黑河市爱辉区西兴街道福龙社区御景湾小区 5 号楼 2 单元、6 号楼 1 单元","info":""}},{"type":"Feature","geometry":{"type":"Point","coordinates":[0,0]},"properties":{"province":"黑龙江省","city":"黑河市","county":"爱辉区","community":"幸福乡长发村西 6 道街 230 号","full_address":"黑龙江省黑河市爱辉区幸福乡长发村西 6 道街 230 号","info":""}},{"type":"Feature","geometry":{"type":"Point","coordinates":[127.50025,50.249333]},"properties":{"province":"黑龙江省","city":"黑河市","county":"爱辉区","community":"兴安街道金融社区华富小区地开发 6 号楼及附属门市","full_address":"黑龙江省黑河市爱辉区兴安街道金融社区华富小区地开发 6 号楼及附属门市","info":""}},{"type":"Feature","geometry":{"type":"Point","coordinates":[127.510382,50.230265]},"properties":{"province":"黑龙江省","city":"黑河市","county":"爱辉区","community":"花园街道博文社区尚品观景国际小区 8 号楼及附属车库","full_address":"黑龙江省黑河市爱辉区花园街道博文社区尚品观景国际小区 8 号楼及附属车库","info":""}},{"type":"Feature","geometry":{"type":"Point","coordinates":[127.52001,50.242435]},"properties":{"province":"黑龙江省","city":"黑河市","county":"爱辉区","community":"花园街道金兰社区海兰行小区 1 号楼及附属门市","full_address":"黑龙江省黑河市爱辉区花园街道金兰社区海兰行小区 1 号楼及附属门市","info":""}},{"type":"Feature","geometry":{"type":"Point","coordinates":[127.511584,50.239075]},"properties":{"province":"黑龙江省","city":"黑河市","county":"爱辉区","community":"花园街道长海社区地税家属楼小区（龙滨路）地税家属楼","full_address":"黑龙江省黑河市爱辉区花园街道长海社区地税家属楼小区（龙滨路）地税家属楼","info":""}},{"type":"Feature","geometry":{"type":"Point","coordinates":[127.500209,50.2385]},"properties":{"province":"黑龙江省","city":"黑河市","county":"爱辉区","community":"花园街道长海社区黑龙大厦水利家属楼小区水利家属楼","full_address":"黑龙江省黑河市爱辉区花园街道长海社区黑龙大厦水利家属楼小区水利家属楼","info":""}},{"type":"Feature","geometry":{"type":"Point","coordinates":[127.488731,50.241997]},"properties":{"province":"黑龙江省","city":"黑河市","county":"爱辉区","community":"兴安街道热电社区南湖雅苑小区新 8 号楼 1 单元及 1 单元附属车库、新 6 号楼 3 单元及 3 单元附属车","full_address":"黑龙江省黑河市爱辉区兴安街道热电社区南湖雅苑小区新 8 号楼 1 单元及 1 单元附属车库、新 6 号楼 3 单元及 3 单元附属车","info":""}},{"type":"Feature","geometry":{"type":"Point","coordinates":[0,0]},"properties":{"province":"黑龙江省","city":"黑河市","county":"爱辉区","community":"花园街道网通社区楼中楼小区房产 34 号楼及附属 门市","full_address":"黑龙江省黑河市爱辉区花园街道网通社区楼中楼小区房产 34 号楼及附属 门市","info":""}},{"type":"Feature","geometry":{"type":"Point","coordinates":[127.501442,50.245003]},"properties":{"province":"黑龙江省","city":"黑河市","county":"爱辉区","community":"兴安街道邮政社区西沟圣欣小区东兴路 96 号楼及附属门市","full_address":"黑龙江省黑河市爱辉区兴安街道邮政社区西沟圣欣小区东兴路 96 号楼及附属门市","info":""}},{"type":"Feature","geometry":{"type":"Point","coordinates":[127.499882,50.236724]},"properties":{"province":"黑龙江省","city":"黑河市","county":"爱辉区","community":"兴安街道热电社区惠民 11 号地小区 6 号楼 1 单元及 1 单元附属门市车库","full_address":"黑龙江省黑河市爱辉区兴安街道热电社区惠民 11 号地小区 6 号楼 1 单元及 1 单元附属门市车库","info":""}},{"type":"Feature","geometry":{"type":"Point","coordinates":[127.52787,50.238199]},"properties":{"province":"黑龙江省","city":"黑河市","county":"爱辉区","community":"花园街道博文社区中超一期小区 2 号楼 2 单元及 2 单元附属门市、3 单元及 3 单元附属门市、4 单元及 4 单元附属门市","full_address":"黑龙江省黑河市爱辉区花园街道博文社区中超一期小区 2 号楼 2 单元及 2 单元附属门市、3 单元及 3 单元附属门市、4 单元及 4 单元附属门市","info":""}},{"type":"Feature","geometry":{"type":"Point","coordinates":[127.497101,50.24162]},"properties":{"province":"黑龙江省","city":"黑河市","county":"爱辉区","community":"兴安街道热电社区艺苑小区 1 号楼 1 单元及 1 单元 附属门市、1 号楼二楼半及附属门市","full_address":"黑龙江省黑河市爱辉区兴安街道热电社区艺苑小区 1 号楼 1 单元及 1 单元 附属门市、1 号楼二楼半及附属门市","info":""}},{"type":"Feature","geometry":{"type":"Point","coordinates":[127.517396,50.237886]},"properties":{"province":"黑龙江省","city":"黑河市","county":"爱辉区","community":"西兴街道福龙社区粮保小区保险家属楼 1 单元及 1 单元附属车库门市","full_address":"黑龙江省黑河市爱辉区西兴街道福龙社区粮保小区保险家属楼 1 单元及 1 单元附属车库门市","info":""}},{"type":"Feature","geometry":{"type":"Point","coordinates":[127.545117,49.785786]},"properties":{"province":"黑龙江省","city":"黑河市","county":"爱辉区","community":"红色边疆农场福苑小区 3 号楼","full_address":"黑龙江省黑河市爱辉区红色边疆农场福苑小区 3 号楼","info":""}},{"type":"Feature","geometry":{"type":"Point","coordinates":[0,0]},"properties":{"province":"黑龙江省","city":"黑河市","county":"爱辉区","community":"红色边疆农场福苑小区 1 号楼、2 号楼及附属车库","full_address":"黑龙江省黑河市爱辉区红色边疆农场福苑小区 1 号楼、2 号楼及附属车库","info":""}},{"type":"Feature","geometry":{"type":"Point","coordinates":[127.432203,50.003468]},"properties":{"province":"黑龙江省","city":"黑河市","county":"爱辉区","community":"瑷珲镇北三家子村一组 92 号—99 号","full_address":"黑龙江省黑河市爱辉区瑷珲镇北三家子村一组 92 号—99 号","info":""}},{"type":"Feature","geometry":{"type":"Point","coordinates":[127.499882,50.236724]},"properties":{"province":"黑龙江省","city":"黑河市","county":"爱辉区","community":"兴安街道热电社区惠民 12 号地小区 10 号楼及附属车库","full_address":"黑龙江省黑河市爱辉区兴安街道热电社区惠民 12 号地小区 10 号楼及附属车库","info":""}},{"type":"Feature","geometry":{"type":"Point","coordinates":[127.478792,50.244845]},"properties":{"province":"黑龙江省","city":"黑河市","county":"爱辉区","community":"海兰街道温馨社区北国明珠小区 11 号楼 1 单元及 1 单元附属车库","full_address":"黑龙江省黑河市爱辉区海兰街道温馨社区北国明珠小区 11 号楼 1 单元及 1 单元附属车库","info":""}},{"type":"Feature","geometry":{"type":"Point","coordinates":[127.493618,50.253114]},"properties":{"province":"黑龙江省","city":"黑河市","county":"爱辉区","community":"海兰街道鹿源春社区北港嘉园小区 2 单元及 2 单元附属门市","full_address":"黑龙江省黑河市爱辉区海兰街道鹿源春社区北港嘉园小区 2 单元及 2 单元附属门市","info":""}},{"type":"Feature","geometry":{"type":"Point","coordinates":[127.475105,50.252831]},"properties":{"province":"黑龙江省","city":"黑河市","county":"爱辉区","community":"西兴街道向阳社区水岸阳光小区 18 号楼及附属车库","full_address":"黑龙江省黑河市爱辉区西兴街道向阳社区水岸阳光小区 18 号楼及附属车库","info":""}},{"type":"Feature","geometry":{"type":"Point","coordinates":[127.503329,50.236132]},"properties":{"province":"黑龙江省","city":"黑河市","county":"爱辉区","community":"花园街道长海社区华寓小区 5 号楼及附属车库、2 号楼 4 单元及 4 单元附属门市","full_address":"黑龙江省黑河市爱辉区花园街道长海社区华寓小区 5 号楼及附属车库、2 号楼 4 单元及 4 单元附属门市","info":""}},{"type":"Feature","geometry":{"type":"Point","coordinates":[127.493629,50.2458]},"properties":{"province":"黑龙江省","city":"黑河市","county":"爱辉区","community":"兴安街道金融社区兴林家园测绘楼小区测绘楼及附属门市","full_address":"黑龙江省黑河市爱辉区兴安街道金融社区兴林家园测绘楼小区测绘楼及附属门市","info":""}},{"type":"Feature","geometry":{"type":"Point","coordinates":[127.497179,50.249071]},"properties":{"province":"黑龙江省","city":"黑河市","county":"爱辉区","community":"花园街道长海社区宏远小区宏鹏 1 号楼及附属门市车库","full_address":"黑龙江省黑河市爱辉区花园街道长海社区宏远小区宏鹏 1 号楼及附属门市车库","info":""}},{"type":"Feature","geometry":{"type":"Point","coordinates":[127.533424,50.238059]},"properties":{"province":"黑龙江省","city":"黑河市","county":"爱辉区","community":"花园街道武庙屯社区华泰颐和国际小区 9 号楼 1 单元及 1 单元附属门市","full_address":"黑龙江省黑河市爱辉区花园街道武庙屯社区华泰颐和国际小区 9 号楼 1 单元及 1 单元附属门市","info":""}},{"type":"Feature","geometry":{"type":"Point","coordinates":[127.50132,50.250397]},"properties":{"province":"黑龙江省","city":"黑河市","county":"爱辉区","community":"花园街道喇嘛台社区学府佳苑小区 8 号楼及附属车库","full_address":"黑龙江省黑河市爱辉区花园街道喇嘛台社区学府佳苑小区 8 号楼及附属车库","info":""}},{"type":"Feature","geometry":{"type":"Point","coordinates":[127.489956,50.249542]},"properties":{"province":"黑龙江省","city":"黑河市","county":"爱辉区","community":"西兴街道福龙社区益民二区 18 区 21 号楼 6 单元及 6 单元附属门市","full_address":"黑龙江省黑河市爱辉区西兴街道福龙社区益民二区 18 区 21 号楼 6 单元及 6 单元附属门市","info":""}},{"type":"Feature","geometry":{"type":"Point","coordinates":[127.528206,50.2399]},"properties":{"province":"黑龙江省","city":"黑河市","county":"爱辉区","community":"花园街道武庙屯社区隆福家园小区 2 号楼","full_address":"黑龙江省黑河市爱辉区花园街道武庙屯社区隆福家园小区 2 号楼","info":""}},{"type":"Feature","geometry":{"type":"Point","coordinates":[127.49442,50.246545]},"properties":{"province":"黑龙江省","city":"黑河市","county":"爱辉区","community":"兴安街道金融社区建材小区地开发 8 号楼 2 单元及 2 单元附属门市、3 单元及 3 单元附属门市、4 单元及 4 单元附属门市，建材 2 号楼 9 单元及 9 单元附属门市","full_address":"黑龙江省黑河市爱辉区兴安街道金融社区建材小区地开发 8 号楼 2 单元及 2 单元附属门市、3 单元及 3 单元附属门市、4 单元及 4 单元附属门市，建材 2 号楼 9 单元及 9 单元附属门市","info":""}},{"type":"Feature","geometry":{"type":"Point","coordinates":[127.530011,50.239083]},"properties":{"province":"黑龙江省","city":"黑河市","county":"爱辉区","community":"花园街道武庙屯社区大公馆小区 11 号楼 1 单元","full_address":"黑龙江省黑河市爱辉区花园街道武庙屯社区大公馆小区 11 号楼 1 单元","info":""}},{"type":"Feature","geometry":{"type":"Point","coordinates":[127.530701,50.237656]},"properties":{"province":"黑龙江省","city":"黑河市","county":"爱辉区","community":"花园街道武庙屯社区之路佳苑小区 11 号楼 1 单元","full_address":"黑龙江省黑河市爱辉区花园街道武庙屯社区之路佳苑小区 11 号楼 1 单元","info":""}},{"type":"Feature","geometry":{"type":"Point","coordinates":[127.528114,50.245159]},"properties":{"province":"黑龙江省","city":"黑河市","county":"爱辉区","community":"花园街道金兰社区华泰滨江锦苑小区 3 号楼 1 单元及 1 单元附属车库、2 单元及 2 单元附属车库","full_address":"黑龙江省黑河市爱辉区花园街道金兰社区华泰滨江锦苑小区 3 号楼 1 单元及 1 单元附属车库、2 单元及 2 单元附属车库","info":""}},{"type":"Feature","geometry":{"type":"Point","coordinates":[127.486772,50.251868]},"properties":{"province":"黑龙江省","city":"黑河市","county":"爱辉区","community":"西兴街道人保财险社区林业 11 区 2 号楼 2 单元及 2 单元附属门市","full_address":"黑龙江省黑河市爱辉区西兴街道人保财险社区林业 11 区 2 号楼 2 单元及 2 单元附属门市","info":""}},{"type":"Feature","geometry":{"type":"Point","coordinates":[127.518173,50.240237]},"properties":{"province":"黑龙江省","city":"黑河市","county":"爱辉区","community":"花园街道长海社区社保集资楼小区 3 号楼及附属门市","full_address":"黑龙江省黑河市爱辉区花园街道长海社区社保集资楼小区 3 号楼及附属门市","info":""}},{"type":"Feature","geometry":{"type":"Point","coordinates":[127.481946,50.240165]},"properties":{"province":"黑龙江省","city":"黑河市","county":"爱辉区","community":"海兰街道温馨社区阳光嘉园小区 3 号楼及附属车库","full_address":"黑龙江省黑河市爱辉区海兰街道温馨社区阳光嘉园小区 3 号楼及附属车库","info":""}},{"type":"Feature","geometry":{"type":"Point","coordinates":[127.477974,50.244343]},"properties":{"province":"黑龙江省","city":"黑河市","county":"爱辉区","community":"海兰街道温馨社区北国明珠二期小区 3 号楼 3 单元及 3 单元附属车库","full_address":"黑龙江省黑河市爱辉区海兰街道温馨社区北国明珠二期小区 3 号楼 3 单元及 3 单元附属车库","info":""}},{"type":"Feature","geometry":{"type":"Point","coordinates":[127.491933,50.245233]},"properties":{"province":"黑龙江省","city":"黑河市","county":"爱辉区","community":"海兰街道温馨社区建行小区建行 15 号楼及附属门市","full_address":"黑龙江省黑河市爱辉区海兰街道温馨社区建行小区建行 15 号楼及附属门市","info":""}},{"type":"Feature","geometry":{"type":"Point","coordinates":[126.660137,51.733517]},"properties":{"province":"黑龙江省","city":"大兴安岭地区","county":"呼玛县","community":"龙腾小区1号、2号、3号楼","full_address":"黑龙江省大兴安岭地区呼玛县龙腾小区1号、2号、3号楼","info":""}},{"type":"Feature","geometry":{"type":"Point","coordinates":[126.668238,51.725499]},"properties":{"province":"黑龙江省","city":"大兴安岭地区","county":"呼玛县","community":"三村林海二巷","full_address":"黑龙江省大兴安岭地区呼玛县三村林海二巷","info":""}},{"type":"Feature","geometry":{"type":"Point","coordinates":[121.227232,31.022778]},"properties":{"province":"上海市","city":"上海市","county":"松江区","community":"方松街道南期昌路459弄江虹小区","full_address":"上海市上海市松江区方松街道南期昌路459弄江虹小区","info":""}},{"type":"Feature","geometry":{"type":"Point","coordinates":[121.078068,30.989475]},"properties":{"province":"上海市","city":"上海市","county":"青浦区","community":"练塘镇蒸夏村西至西泾江、东至贞溪北路、南至小蒸港、北至小蒸后河的区域","full_address":"上海市上海市青浦区练塘镇蒸夏村西至西泾江、东至贞溪北路、南至小蒸港、北至小蒸后河的区域","info":""}},{"type":"Feature","geometry":{"type":"Point","coordinates":[115.985598,26.219995]},"properties":{"province":"江西省","city":"赣州市","county":"宁都县","community":"东平社区忆境江南酒店","full_address":"江西省赣州市宁都县东平社区忆境江南酒店","info":""}},{"type":"Feature","geometry":{"type":"Point","coordinates":[116.030875,26.48398]},"properties":{"province":"江西省","city":"赣州市","county":"宁都县","community":"龙溪社区鹏泰超市","full_address":"江西省赣州市宁都县龙溪社区鹏泰超市","info":""}},{"type":"Feature","geometry":{"type":"Point","coordinates":[115.985598,26.219995]},"properties":{"province":"江西省","city":"赣州市","county":"宁都县","community":"中山南路社区南东巷55号","full_address":"江西省赣州市宁都县中山南路社区南东巷55号","info":""}},{"type":"Feature","geometry":{"type":"Point","coordinates":[116.019457,26.464029]},"properties":{"province":"江西省","city":"赣州市","county":"宁都县","community":"城南社区城市便捷酒店","full_address":"江西省赣州市宁都县城南社区城市便捷酒店","info":""}},{"type":"Feature","geometry":{"type":"Point","coordinates":[116.006789,26.500742]},"properties":{"province":"江西省","city":"赣州市","county":"宁都县","community":"梅江镇迳口村胜利组","full_address":"江西省赣州市宁都县梅江镇迳口村胜利组","info":""}},{"type":"Feature","geometry":{"type":"Point","coordinates":[116.006179,26.443535]},"properties":{"province":"江西省","city":"赣州市","county":"宁都县","community":"梅江镇高坑村富当塘小组","full_address":"江西省赣州市宁都县梅江镇高坑村富当塘小组","info":""}},{"type":"Feature","geometry":{"type":"Point","coordinates":[115.997652,26.37968]},"properties":{"province":"江西省","city":"赣州市","county":"宁都县","community":"竹笮乡松湖村张屋组","full_address":"江西省赣州市宁都县竹笮乡松湖村张屋组","info":""}},{"type":"Feature","geometry":{"type":"Point","coordinates":[115.997652,26.37968]},"properties":{"province":"江西省","city":"赣州市","county":"宁都县","community":"竹笮乡松湖村西排小组","full_address":"江西省赣州市宁都县竹笮乡松湖村西排小组","info":""}},{"type":"Feature","geometry":{"type":"Point","coordinates":[115.997652,26.37968]},"properties":{"province":"江西省","city":"赣州市","county":"宁都县","community":"竹笮乡松湖村下坝小组","full_address":"江西省赣州市宁都县竹笮乡松湖村下坝小组","info":""}},{"type":"Feature","geometry":{"type":"Point","coordinates":[115.997652,26.37968]},"properties":{"province":"江西省","city":"赣州市","county":"宁都县","community":"竹笮乡松湖村上岸湖小组","full_address":"江西省赣州市宁都县竹笮乡松湖村上岸湖小组","info":""}},{"type":"Feature","geometry":{"type":"Point","coordinates":[116.003302,26.467213]},"properties":{"province":"江西省","city":"赣州市","county":"宁都县","community":"梅江镇土围村李面组","full_address":"江西省赣州市宁都县梅江镇土围村李面组","info":""}},{"type":"Feature","geometry":{"type":"Point","coordinates":[115.420041,27.284539]},"properties":{"province":"江西省","city":"吉安市","county":"永丰县","community":"恩江镇岭上村雷公山自然村","full_address":"江西省吉安市永丰县恩江镇岭上村雷公山自然村","info":""}},{"type":"Feature","geometry":{"type":"Point","coordinates":[115.509645,27.429588]},"properties":{"province":"江西省","city":"吉安市","county":"永丰县","community":"潭城乡富山村富山自然村","full_address":"江西省吉安市永丰县潭城乡富山村富山自然村","info":""}},{"type":"Feature","geometry":{"type":"Point","coordinates":[115.430904,27.328463]},"properties":{"province":"江西省","city":"吉安市","county":"永丰县","community":"恩江镇尹家坪社区商贸城","full_address":"江西省吉安市永丰县恩江镇尹家坪社区商贸城","info":""}},{"type":"Feature","geometry":{"type":"Point","coordinates":[115.4238,27.306222]},"properties":{"province":"江西省","city":"吉安市","county":"永丰县","community":"佐龙乡南塘村姚家自然村","full_address":"江西省吉安市永丰县佐龙乡南塘村姚家自然村","info":""}},{"type":"Feature","geometry":{"type":"Point","coordinates":[115.416302,27.325261]},"properties":{"province":"江西省","city":"吉安市","county":"永丰县","community":"恩江镇花园村岭背自然村","full_address":"江西省吉安市永丰县恩江镇花园村岭背自然村","info":""}},{"type":"Feature","geometry":{"type":"Point","coordinates":[115.059335,27.125549]},"properties":{"province":"江西省","city":"吉安市","county":"永丰县","community":"恩江镇东湖社区东湖自然村","full_address":"江西省吉安市永丰县恩江镇东湖社区东湖自然村","info":""}},{"type":"Feature","geometry":{"type":"Point","coordinates":[115.4117,27.308086]},"properties":{"province":"江西省","city":"吉安市","county":"永丰县","community":"佐龙乡和佳苑","full_address":"江西省吉安市永丰县佐龙乡和佳苑","info":""}},{"type":"Feature","geometry":{"type":"Point","coordinates":[115.433566,27.323948]},"properties":{"province":"江西省","city":"吉安市","county":"永丰县","community":"恩江镇肖家村（北至永丰大道，南至崇文大道，西至欧阳修大道，东至跃进西路)","full_address":"江西省吉安市永丰县恩江镇肖家村（北至永丰大道，南至崇文大道，西至欧阳修大道，东至跃进西路)","info":""}},{"type":"Feature","geometry":{"type":"Point","coordinates":[115.439045,27.316796]},"properties":{"province":"江西省","city":"吉安市","county":"永丰县","community":"恩江镇民主社区（北至崇文东大道、西至恩江南路、南至状元华府、东至永叔路）","full_address":"江西省吉安市永丰县恩江镇民主社区（北至崇文东大道、西至恩江南路、南至状元华府、东至永叔路）","info":""}},{"type":"Feature","geometry":{"type":"Point","coordinates":[115.436504,27.324843]},"properties":{"province":"江西省","city":"吉安市","county":"永丰县","community":"恩江镇开吉社区开吉村","full_address":"江西省吉安市永丰县恩江镇开吉社区开吉村","info":""}},{"type":"Feature","geometry":{"type":"Point","coordinates":[115.430788,27.319419]},"properties":{"province":"江西省","city":"吉安市","county":"永丰县","community":"恩江镇大园村（北至崇文大道、西至欧阳修南大道、南至祥和大道、东至恩江南大道)","full_address":"江西省吉安市永丰县恩江镇大园村（北至崇文大道、西至欧阳修南大道、南至祥和大道、东至恩江南大道)","info":""}},{"type":"Feature","geometry":{"type":"Point","coordinates":[115.437873,27.320481]},"properties":{"province":"江西省","city":"吉安市","county":"永丰县","community":"恩江镇八一社区（北至跃进东路，西至恩江北路、南至崇文东大道、东至永叔路)","full_address":"江西省吉安市永丰县恩江镇八一社区（北至跃进东路，西至恩江北路、南至崇文东大道、东至永叔路)","info":""}},{"type":"Feature","geometry":{"type":"Point","coordinates":[115.430904,27.328463]},"properties":{"province":"江西省","city":"吉安市","county":"永丰县","community":"恩江镇城南社区（北至平云大道，西至迎宾中大道，南至雁背岭自然村，东至雁背岭水库）","full_address":"江西省吉安市永丰县恩江镇城南社区（北至平云大道，西至迎宾中大道，南至雁背岭自然村，东至雁背岭水库）","info":""}},{"type":"Feature","geometry":{"type":"Point","coordinates":[115.424719,27.327904]},"properties":{"province":"江西省","city":"吉安市","county":"永丰县","community":"恩江镇傅家坝自然村（北至永丰大道，西和南至跃进西路，东至恩江北路）","full_address":"江西省吉安市永丰县恩江镇傅家坝自然村（北至永丰大道，西和南至跃进西路，东至恩江北路）","info":""}},{"type":"Feature","geometry":{"type":"Point","coordinates":[114.928688,27.007857]},"properties":{"province":"江西省","city":"吉安市","county":"经开区","community":"幸福家园小区","full_address":"江西省吉安市经开区幸福家园小区","info":""}},{"type":"Feature","geometry":{"type":"Point","coordinates":[114.93002,27.016249]},"properties":{"province":"江西省","city":"吉安市","county":"经开区","community":"富临华府","full_address":"江西省吉安市经开区富临华府","info":""}},{"type":"Feature","geometry":{"type":"Point","coordinates":[114.929432,27.004568]},"properties":{"province":"江西省","city":"吉安市","county":"经开区","community":"龙腾府邸小区","full_address":"江西省吉安市经开区龙腾府邸小区","info":""}},{"type":"Feature","geometry":{"type":"Point","coordinates":[120.340161,36.381407]},"properties":{"province":"山东省","city":"青岛市","county":"即墨区","community":"大信街道聚信社区官路村","full_address":"山东省青岛市即墨区大信街道聚信社区官路村","info":""}},{"type":"Feature","geometry":{"type":"Point","coordinates":[115.067152,33.408357]},"properties":{"province":"河南省","city":"周口市","county":"沈丘县","community":"沈丘县北城办事处小辛营行政村","full_address":"河南省周口市沈丘县沈丘县北城办事处小辛营行政村","info":""}},{"type":"Feature","geometry":{"type":"Point","coordinates":[115.077206,33.392635]},"properties":{"province":"河南省","city":"周口市","county":"沈丘县","community":"沈丘县槐店回族镇金田市场","full_address":"河南省周口市沈丘县沈丘县槐店回族镇金田市场","info":""}},{"type":"Feature","geometry":{"type":"Point","coordinates":[109.296209,29.520986]},"properties":{"province":"湖北省","city":"恩施土家族苗族自治州","county":"来凤县","community":"翔凤镇凉亭桥117号","full_address":"湖北省恩施土家族苗族自治州来凤县翔凤镇凉亭桥117号","info":""}},{"type":"Feature","geometry":{"type":"Point","coordinates":[109.389718,29.466184]},"properties":{"province":"湖北省","city":"恩施土家族苗族自治州","county":"来凤县","community":"翔凤镇来凤县第一中学","full_address":"湖北省恩施土家族苗族自治州来凤县翔凤镇来凤县第一中学","info":""}},{"type":"Feature","geometry":{"type":"Point","coordinates":[109.40731,29.503685]},"properties":{"province":"湖北省","city":"恩施土家族苗族自治州","county":"来凤县","community":"翔凤镇板桥路三巷5号楼栋","full_address":"湖北省恩施土家族苗族自治州来凤县翔凤镇板桥路三巷5号楼栋","info":""}},{"type":"Feature","geometry":{"type":"Point","coordinates":[109.39962,29.501206]},"properties":{"province":"湖北省","city":"恩施土家族苗族自治州","county":"来凤县","community":"翔凤镇星都汇小区2栋3单元","full_address":"湖北省恩施土家族苗族自治州来凤县翔凤镇星都汇小区2栋3单元","info":""}},{"type":"Feature","geometry":{"type":"Point","coordinates":[109.407428,29.505993]},"properties":{"province":"湖北省","city":"恩施土家族苗族自治州","county":"来凤县","community":"翔凤镇武陵山骨科医院","full_address":"湖北省恩施土家族苗族自治州来凤县翔凤镇武陵山骨科医院","info":""}},{"type":"Feature","geometry":{"type":"Point","coordinates":[109.411779,29.49538]},"properties":{"province":"湖北省","city":"恩施土家族苗族自治州","county":"来凤县","community":"翔凤镇夏威夷小区4栋1单元","full_address":"湖北省恩施土家族苗族自治州来凤县翔凤镇夏威夷小区4栋1单元","info":""}},{"type":"Feature","geometry":{"type":"Point","coordinates":[0,0]},"properties":{"province":"湖北省","city":"恩施土家族苗族自治州","county":"来凤县","community":"翔凤镇来凤县电信公司","full_address":"湖北省恩施土家族苗族自治州来凤县翔凤镇来凤县电信公司","info":""}},{"type":"Feature","geometry":{"type":"Point","coordinates":[109.405275,29.509348]},"properties":{"province":"湖北省","city":"恩施土家族苗族自治州","county":"来凤县","community":"翔凤镇精神堡老北门二巷","full_address":"湖北省恩施土家族苗族自治州来凤县翔凤镇精神堡老北门二巷","info":""}},{"type":"Feature","geometry":{"type":"Point","coordinates":[109.398376,29.487319]},"properties":{"province":"湖北省","city":"恩施土家族苗族自治州","county":"来凤县","community":"翔凤镇接龙桥路240号","full_address":"湖北省恩施土家族苗族自治州来凤县翔凤镇接龙桥路240号","info":""}},{"type":"Feature","geometry":{"type":"Point","coordinates":[109.407307,29.495846]},"properties":{"province":"湖北省","city":"恩施土家族苗族自治州","county":"来凤县","community":"翔凤镇凤翔大道122-2号","full_address":"湖北省恩施土家族苗族自治州来凤县翔凤镇凤翔大道122-2号","info":""}},{"type":"Feature","geometry":{"type":"Point","coordinates":[109.415528,29.510044]},"properties":{"province":"湖北省","city":"恩施土家族苗族自治州","county":"来凤县","community":"翔凤镇观城坡路41-2号私房一楼（租住）","full_address":"湖北省恩施土家族苗族自治州来凤县翔凤镇观城坡路41-2号私房一楼（租住）","info":""}},{"type":"Feature","geometry":{"type":"Point","coordinates":[109.40996,29.49649]},"properties":{"province":"湖北省","city":"恩施土家族苗族自治州","county":"来凤县","community":"翔凤镇黄金水岸C栋B单元","full_address":"湖北省恩施土家族苗族自治州来凤县翔凤镇黄金水岸C栋B单元","info":""}},{"type":"Feature","geometry":{"type":"Point","coordinates":[109.409697,29.515583]},"properties":{"province":"湖北省","city":"恩施土家族苗族自治州","county":"来凤县","community":"翔凤镇育红桥社区木叶沟小区45号","full_address":"湖北省恩施土家族苗族自治州来凤县翔凤镇育红桥社区木叶沟小区45号","info":""}},{"type":"Feature","geometry":{"type":"Point","coordinates":[109.426289,29.509767]},"properties":{"province":"湖北省","city":"恩施土家族苗族自治州","county":"来凤县","community":"翔凤镇大垭口村（1组、4组）","full_address":"湖北省恩施土家族苗族自治州来凤县翔凤镇大垭口村（1组、4组）","info":""}},{"type":"Feature","geometry":{"type":"Point","coordinates":[109.4084,29.50178]},"properties":{"province":"湖北省","city":"恩施土家族苗族自治州","county":"来凤县","community":"翔凤镇凤南路27-21号","full_address":"湖北省恩施土家族苗族自治州来凤县翔凤镇凤南路27-21号","info":""}},{"type":"Feature","geometry":{"type":"Point","coordinates":[109.402141,29.507473]},"properties":{"province":"湖北省","city":"恩施土家族苗族自治州","county":"来凤县","community":"翔凤镇花园堡社区小河沟15-1","full_address":"湖北省恩施土家族苗族自治州来凤县翔凤镇花园堡社区小河沟15-1","info":""}},{"type":"Feature","geometry":{"type":"Point","coordinates":[109.391724,29.461789]},"properties":{"province":"湖北省","city":"恩施土家族苗族自治州","county":"来凤县","community":"翔凤镇望水村5组","full_address":"湖北省恩施土家族苗族自治州来凤县翔凤镇望水村5组","info":""}},{"type":"Feature","geometry":{"type":"Point","coordinates":[109.416797,29.50752]},"properties":{"province":"湖北省","city":"恩施土家族苗族自治州","county":"来凤县","community":"翔凤镇凉亭桥园艺路3号整栋","full_address":"湖北省恩施土家族苗族自治州来凤县翔凤镇凉亭桥园艺路3号整栋","info":""}},{"type":"Feature","geometry":{"type":"Point","coordinates":[109.404402,29.511531]},"properties":{"province":"湖北省","city":"恩施土家族苗族自治州","county":"来凤县","community":"翔凤镇锦华苑A栋1单元","full_address":"湖北省恩施土家族苗族自治州来凤县翔凤镇锦华苑A栋1单元","info":""}},{"type":"Feature","geometry":{"type":"Point","coordinates":[109.39962,29.501206]},"properties":{"province":"湖北省","city":"恩施土家族苗族自治州","county":"来凤县","community":"翔凤镇来凤家和物业公司","full_address":"湖北省恩施土家族苗族自治州来凤县翔凤镇来凤家和物业公司","info":""}},{"type":"Feature","geometry":{"type":"Point","coordinates":[109.400608,29.478409]},"properties":{"province":"湖北省","city":"恩施土家族苗族自治州","county":"来凤县","community":"翔凤镇黄茅坪村20组","full_address":"湖北省恩施土家族苗族自治州来凤县翔凤镇黄茅坪村20组","info":""}},{"type":"Feature","geometry":{"type":"Point","coordinates":[109.40656,29.496641]},"properties":{"province":"湖北省","city":"恩施土家族苗族自治州","county":"来凤县","community":"翔凤镇凤翔大道镇中宿舍","full_address":"湖北省恩施土家族苗族自治州来凤县翔凤镇凤翔大道镇中宿舍","info":""}},{"type":"Feature","geometry":{"type":"Point","coordinates":[109.40929,29.506]},"properties":{"province":"湖北省","city":"恩施土家族苗族自治州","county":"来凤县","community":"翔凤镇步行街工会帝之苑酒楼","full_address":"湖北省恩施土家族苗族自治州来凤县翔凤镇步行街工会帝之苑酒楼","info":""}},{"type":"Feature","geometry":{"type":"Point","coordinates":[109.184789,29.426214]},"properties":{"province":"湖北省","city":"恩施土家族苗族自治州","county":"来凤县","community":"大河镇黑家坝村3组","full_address":"湖北省恩施土家族苗族自治州来凤县大河镇黑家坝村3组","info":""}},{"type":"Feature","geometry":{"type":"Point","coordinates":[109.196601,29.418542]},"properties":{"province":"湖北省","city":"恩施土家族苗族自治州","county":"来凤县","community":"大河镇桐子园村2组","full_address":"湖北省恩施土家族苗族自治州来凤县大河镇桐子园村2组","info":""}},{"type":"Feature","geometry":{"type":"Point","coordinates":[109.225576,29.203638]},"properties":{"province":"湖北省","city":"恩施土家族苗族自治州","county":"来凤县","community":"百福司镇镇集贸市场1号门面","full_address":"湖北省恩施土家族苗族自治州来凤县百福司镇镇集贸市场1号门面","info":""}},{"type":"Feature","geometry":{"type":"Point","coordinates":[109.203529,29.191568]},"properties":{"province":"湖北省","city":"恩施土家族苗族自治州","county":"来凤县","community":"百福司镇堡上村2组","full_address":"湖北省恩施土家族苗族自治州来凤县百福司镇堡上村2组","info":""}},{"type":"Feature","geometry":{"type":"Point","coordinates":[109.335117,29.574437]},"properties":{"province":"湖北省","city":"恩施土家族苗族自治州","county":"来凤县","community":"三胡乡胡家沟社区平安路40号","full_address":"湖北省恩施土家族苗族自治州来凤县三胡乡胡家沟社区平安路40号","info":""}},{"type":"Feature","geometry":{"type":"Point","coordinates":[109.288471,29.326082]},"properties":{"province":"湖北省","city":"恩施土家族苗族自治州","county":"来凤县","community":"漫水乡兴隆坳村15组","full_address":"湖北省恩施土家族苗族自治州来凤县漫水乡兴隆坳村15组","info":""}},{"type":"Feature","geometry":{"type":"Point","coordinates":[109.343991,29.401061]},"properties":{"province":"湖北省","city":"恩施土家族苗族自治州","county":"来凤县","community":"绿水镇香沟村6组","full_address":"湖北省恩施土家族苗族自治州来凤县绿水镇香沟村6组","info":""}},{"type":"Feature","geometry":{"type":"Point","coordinates":[109.225286,29.569265]},"properties":{"province":"湖北省","city":"恩施土家族苗族自治州","county":"来凤县","community":"革勒车镇桐麻村","full_address":"湖北省恩施土家族苗族自治州来凤县革勒车镇桐麻村","info":""}},{"type":"Feature","geometry":{"type":"Point","coordinates":[114.192432,22.590078]},"properties":{"province":"广东省","city":"深圳市","county":"罗湖区","community":"东湖街道梧桐山社区茂仔村124号","full_address":"广东省深圳市罗湖区东湖街道梧桐山社区茂仔村124号","info":""}},{"type":"Feature","geometry":{"type":"Point","coordinates":[114.076108,22.543455]},"properties":{"province":"广东省","city":"深圳市","county":"福田区","community":"华富街道田面新村第19栋-第21栋、第25栋-第27栋、第32栋-第34栋","full_address":"广东省深圳市福田区华富街道田面新村第19栋-第21栋、第25栋-第27栋、第32栋-第34栋","info":""}},{"type":"Feature","geometry":{"type":"Point","coordinates":[114.08583,22.54274]},"properties":{"province":"广东省","city":"深圳市","county":"福田区","community":"华强北街道航苑大厦东座和西座（第4层-第30层）、都会100、华强广场C座和D座","full_address":"广东省深圳市福田区华强北街道航苑大厦东座和西座（第4层-第30层）、都会100、华强广场C座和D座","info":""}},{"type":"Feature","geometry":{"type":"Point","coordinates":[107.980066,21.541653]},"properties":{"province":"广西壮族自治区","city":"防城港市","county":"东兴市","community":"东兴镇花溪社区第8网格景秀路一巷（除景秀路一巷29号-39号（单号）外），景秀路33号、35号，黄花岗路91号、96号","full_address":"广西壮族自治区防城港市东兴市东兴镇花溪社区第8网格景秀路一巷（除景秀路一巷29号-39号（单号）外），景秀路33号、35号，黄花岗路91号、96号","info":""}},{"type":"Feature","geometry":{"type":"Point","coordinates":[109.518379,18.290796]},"properties":{"province":"海南省","city":"三亚市","county":"吉阳区","community":"南新居荣兴万利城小区","full_address":"海南省三亚市吉阳区南新居荣兴万利城小区","info":""}},{"type":"Feature","geometry":{"type":"Point","coordinates":[109.528674,18.222447]},"properties":{"province":"海南省","city":"三亚市","county":"吉阳区","community":"大东海社区1号港湾城广百家超市","full_address":"海南省三亚市吉阳区大东海社区1号港湾城广百家超市","info":""}},{"type":"Feature","geometry":{"type":"Point","coordinates":[110.405802,18.805637]},"properties":{"province":"海南省","city":"省直辖县级行政单位","county":"万宁市","community":"万城镇裕光社区","full_address":"海南省省直辖县级行政单位万宁市万城镇裕光社区","info":""}},{"type":"Feature","geometry":{"type":"Point","coordinates":[110.400671,18.79163]},"properties":{"province":"海南省","city":"省直辖县级行政单位","county":"万宁市","community":"万城镇西门社区","full_address":"海南省省直辖县级行政单位万宁市万城镇西门社区","info":""}},{"type":"Feature","geometry":{"type":"Point","coordinates":[110.39959,18.796179]},"properties":{"province":"海南省","city":"省直辖县级行政单位","county":"万宁市","community":"万城镇镇南社区","full_address":"海南省省直辖县级行政单位万宁市万城镇镇南社区","info":""}},{"type":"Feature","geometry":{"type":"Point","coordinates":[110.375995,18.794501]},"properties":{"province":"海南省","city":"省直辖县级行政单位","county":"万宁市","community":"万城镇中央坡道班（东至水渠，南至红专西路，西至丰南南路，北至人民西路）","full_address":"海南省省直辖县级行政单位万宁市万城镇中央坡道班（东至水渠，南至红专西路，西至丰南南路，北至人民西路）","info":""}},{"type":"Feature","geometry":{"type":"Point","coordinates":[110.384755,18.797036]},"properties":{"province":"海南省","city":"省直辖县级行政单位","county":"万宁市","community":"万城镇万隆社区（东至文明中路，南至万隆街止，西至光明南路，北至人民中路）","full_address":"海南省省直辖县级行政单位万宁市万城镇万隆社区（东至文明中路，南至万隆街止，西至光明南路，北至人民中路）","info":""}},{"type":"Feature","geometry":{"type":"Point","coordinates":[110.3916,18.803471]},"properties":{"province":"海南省","city":"省直辖县级行政单位","county":"万宁市","community":"万城镇新海社区（东至环市一东路大转盘，南至人民东路，西至万海路，北至环市一东路）","full_address":"海南省省直辖县级行政单位万宁市万城镇新海社区（东至环市一东路大转盘，南至人民东路，西至万海路，北至环市一东路）","info":""}},{"type":"Feature","geometry":{"type":"Point","coordinates":[110.408527,18.800516]},"properties":{"province":"海南省","city":"省直辖县级行政单位","county":"万宁市","community":"万城镇东方社区高田村，义德小区（东至水渠，南至小区围墙，西至东光批发市场西侧围墙，北以水渠为起点往西210米）","full_address":"海南省省直辖县级行政单位万宁市万城镇东方社区高田村，义德小区（东至水渠，南至小区围墙，西至东光批发市场西侧围墙，北以水渠为起点往西210米）","info":""}},{"type":"Feature","geometry":{"type":"Point","coordinates":[110.385842,18.790719]},"properties":{"province":"海南省","city":"省直辖县级行政单位","county":"万宁市","community":"万城镇番村社区（东至文明南路，南至万明街，西至万德街，北至红专中路）","full_address":"海南省省直辖县级行政单位万宁市万城镇番村社区（东至文明南路，南至万明街，西至万德街，北至红专中路）","info":""}},{"type":"Feature","geometry":{"type":"Point","coordinates":[105.8333,30.178771]},"properties":{"province":"重庆市","city":"重庆市","county":"潼南区","community":"梓潼街道外滩国际城一期第6栋","full_address":"重庆市重庆市潼南区梓潼街道外滩国际城一期第6栋","info":""}},{"type":"Feature","geometry":{"type":"Point","coordinates":[104.063161,30.687514]},"properties":{"province":"四川省","city":"成都市","county":"金牛区","community":"荷花池街道一环路北二段7号、西北桥北街100号","full_address":"四川省成都市金牛区荷花池街道一环路北二段7号、西北桥北街100号","info":""}},{"type":"Feature","geometry":{"type":"Point","coordinates":[104.06514,30.689103]},"properties":{"province":"四川省","city":"成都市","county":"金牛区","community":"西北桥东街1、3、5、7号","full_address":"四川省成都市金牛区西北桥东街1、3、5、7号","info":""}},{"type":"Feature","geometry":{"type":"Point","coordinates":[104.066363,30.687453]},"properties":{"province":"四川省","city":"成都市","county":"金牛区","community":"北站西二路4（32栋）、6、20号","full_address":"四川省成都市金牛区北站西二路4（32栋）、6、20号","info":""}},{"type":"Feature","geometry":{"type":"Point","coordinates":[105.398266,28.843581]},"properties":{"province":"四川省","city":"泸州市","county":"江阳区","community":"邻玉街道天堂村","full_address":"四川省泸州市江阳区邻玉街道天堂村","info":""}},{"type":"Feature","geometry":{"type":"Point","coordinates":[105.580155,30.507113]},"properties":{"province":"四川省","city":"遂宁市","county":"船山区","community":"凯旋中路101号小区","full_address":"四川省遂宁市船山区凯旋中路101号小区","info":""}},{"type":"Feature","geometry":{"type":"Point","coordinates":[105.592381,30.463196]},"properties":{"province":"四川省","city":"遂宁市","county":"船山区","community":"南翔一路3号机场小区B区","full_address":"四川省遂宁市船山区南翔一路3号机场小区B区","info":""}},{"type":"Feature","geometry":{"type":"Point","coordinates":[105.559914,30.519073]},"properties":{"province":"四川省","city":"遂宁市","county":"船山区","community":"西山北路230号附5号","full_address":"四川省遂宁市船山区西山北路230号附5号","info":""}},{"type":"Feature","geometry":{"type":"Point","coordinates":[105.559938,30.519146]},"properties":{"province":"四川省","city":"遂宁市","county":"船山区","community":"西山北路218号","full_address":"四川省遂宁市船山区西山北路218号","info":""}},{"type":"Feature","geometry":{"type":"Point","coordinates":[105.559124,30.519829]},"properties":{"province":"四川省","city":"遂宁市","county":"船山区","community":"西山北路597号附1号","full_address":"四川省遂宁市船山区西山北路597号附1号","info":""}},{"type":"Feature","geometry":{"type":"Point","coordinates":[105.597119,30.531014]},"properties":{"province":"四川省","city":"遂宁市","county":"船山区","community":"东城绿洲A区","full_address":"四川省遂宁市船山区东城绿洲A区","info":""}},{"type":"Feature","geometry":{"type":"Point","coordinates":[105.602737,30.522102]},"properties":{"province":"四川省","city":"遂宁市","county":"船山区","community":"中央美邸","full_address":"四川省遂宁市船山区中央美邸","info":""}},{"type":"Feature","geometry":{"type":"Point","coordinates":[105.56891,30.440602]},"properties":{"province":"四川省","city":"遂宁市","county":"船山区","community":"保升镇保升村","full_address":"四川省遂宁市船山区保升镇保升村","info":""}},{"type":"Feature","geometry":{"type":"Point","coordinates":[105.580053,30.507226]},"properties":{"province":"四川省","city":"遂宁市","county":"船山区","community":"遂宁市船山区凯旋中路83号","full_address":"四川省遂宁市船山区遂宁市船山区凯旋中路83号","info":""}},{"type":"Feature","geometry":{"type":"Point","coordinates":[105.56346,30.528078]},"properties":{"province":"四川省","city":"遂宁市","county":"船山区","community":"秀水街3号金海国际小区","full_address":"四川省遂宁市船山区秀水街3号金海国际小区","info":""}},{"type":"Feature","geometry":{"type":"Point","coordinates":[105.560852,30.54437]},"properties":{"province":"四川省","city":"遂宁市","county":"船山区","community":"新星路1号惠民小区","full_address":"四川省遂宁市船山区新星路1号惠民小区","info":""}},{"type":"Feature","geometry":{"type":"Point","coordinates":[105.607347,30.519353]},"properties":{"province":"四川省","city":"遂宁市","county":"船山区","community":"福熙美邸","full_address":"四川省遂宁市船山区福熙美邸","info":""}},{"type":"Feature","geometry":{"type":"Point","coordinates":[105.551769,30.470523]},"properties":{"province":"四川省","city":"遂宁市","county":"船山区","community":"华翔城5期","full_address":"四川省遂宁市船山区华翔城5期","info":""}},{"type":"Feature","geometry":{"type":"Point","coordinates":[105.561176,30.508373]},"properties":{"province":"四川省","city":"遂宁市","county":"船山区","community":"融创九樾府小区","full_address":"四川省遂宁市船山区融创九樾府小区","info":""}},{"type":"Feature","geometry":{"type":"Point","coordinates":[105.581003,30.478157]},"properties":{"province":"四川省","city":"遂宁市","county":"船山区","community":"远成中心小区23栋","full_address":"四川省遂宁市船山区远成中心小区23栋","info":""}},{"type":"Feature","geometry":{"type":"Point","coordinates":[105.568848,30.519044]},"properties":{"province":"四川省","city":"遂宁市","county":"船山区","community":"遂州中路799号中国银行宿舍1、2栋","full_address":"四川省遂宁市船山区遂州中路799号中国银行宿舍1、2栋","info":""}},{"type":"Feature","geometry":{"type":"Point","coordinates":[105.579903,30.502161]},"properties":{"province":"四川省","city":"遂宁市","county":"船山区","community":"米市街瑞泽城市之心小区","full_address":"四川省遂宁市船山区米市街瑞泽城市之心小区","info":""}},{"type":"Feature","geometry":{"type":"Point","coordinates":[105.583994,30.50122]},"properties":{"province":"四川省","city":"遂宁市","county":"船山区","community":"梭子街8栋海琪安置房、12栋及速8酒店所在楼层","full_address":"四川省遂宁市船山区梭子街8栋海琪安置房、12栋及速8酒店所在楼层","info":""}},{"type":"Feature","geometry":{"type":"Point","coordinates":[105.576301,30.511478]},"properties":{"province":"四川省","city":"遂宁市","county":"船山区","community":"凯旋上路156号德源鲜兔汤锅城（田园店）所在楼栋","full_address":"四川省遂宁市船山区凯旋上路156号德源鲜兔汤锅城（田园店）所在楼栋","info":""}},{"type":"Feature","geometry":{"type":"Point","coordinates":[105.576641,30.510853]},"properties":{"province":"四川省","city":"遂宁市","county":"船山区","community":"凯旋上路128号水利局宿舍3单元所在楼栋","full_address":"四川省遂宁市船山区凯旋上路128号水利局宿舍3单元所在楼栋","info":""}},{"type":"Feature","geometry":{"type":"Point","coordinates":[105.578955,30.506427]},"properties":{"province":"四川省","city":"遂宁市","county":"船山区","community":"三清街金碧文化小区全部区域","full_address":"四川省遂宁市船山区三清街金碧文化小区全部区域","info":""}},{"type":"Feature","geometry":{"type":"Point","coordinates":[105.582431,30.505959]},"properties":{"province":"四川省","city":"遂宁市","county":"船山区","community":"正兴北街20号（德东大厦）","full_address":"四川省遂宁市船山区正兴北街20号（德东大厦）","info":""}},{"type":"Feature","geometry":{"type":"Point","coordinates":[105.590324,30.499462]},"properties":{"province":"四川省","city":"遂宁市","county":"船山区","community":"凯东路247号楼；凯东路249号附1、2、3、4号楼；凯东路255号附1、3、5号楼；万兴大厦1栋、2栋","full_address":"四川省遂宁市船山区凯东路247号楼；凯东路249号附1、2、3、4号楼；凯东路255号附1、3、5号楼；万兴大厦1栋、2栋","info":""}},{"type":"Feature","geometry":{"type":"Point","coordinates":[105.590896,30.501708]},"properties":{"province":"四川省","city":"遂宁市","county":"船山区","community":"永乐街湖畔阳光里小区及楼下门面","full_address":"四川省遂宁市船山区永乐街湖畔阳光里小区及楼下门面","info":""}},{"type":"Feature","geometry":{"type":"Point","coordinates":[105.572072,30.519053]},"properties":{"province":"四川省","city":"遂宁市","county":"船山区","community":"金港名都北区14、15、16栋全部区域","full_address":"四川省遂宁市船山区金港名都北区14、15、16栋全部区域","info":""}},{"type":"Feature","geometry":{"type":"Point","coordinates":[105.565238,30.526857]},"properties":{"province":"四川省","city":"遂宁市","county":"船山区","community":"秀水街山力苑小区、秀水街计生委宿舍以及再生资源宿舍全部区域","full_address":"四川省遂宁市船山区秀水街山力苑小区、秀水街计生委宿舍以及再生资源宿舍全部区域","info":""}},{"type":"Feature","geometry":{"type":"Point","coordinates":[105.606896,30.525765]},"properties":{"province":"四川省","city":"遂宁市","county":"船山区","community":"紫竹美庭","full_address":"四川省遂宁市船山区紫竹美庭","info":""}},{"type":"Feature","geometry":{"type":"Point","coordinates":[105.568297,30.525475]},"properties":{"province":"四川省","city":"遂宁市","county":"船山区","community":"涪畔美庭","full_address":"四川省遂宁市船山区涪畔美庭","info":""}},{"type":"Feature","geometry":{"type":"Point","coordinates":[105.564925,30.534622]},"properties":{"province":"四川省","city":"遂宁市","county":"船山区","community":"遂州北路327号小区及楼下门面","full_address":"四川省遂宁市船山区遂州北路327号小区及楼下门面","info":""}},{"type":"Feature","geometry":{"type":"Point","coordinates":[105.607917,30.520336]},"properties":{"province":"四川省","city":"遂宁市","county":"船山区","community":"学府馨城","full_address":"四川省遂宁市船山区学府馨城","info":""}},{"type":"Feature","geometry":{"type":"Point","coordinates":[105.554041,30.531203]},"properties":{"province":"四川省","city":"遂宁市","county":"船山区","community":"明月路343号","full_address":"四川省遂宁市船山区明月路343号","info":""}},{"type":"Feature","geometry":{"type":"Point","coordinates":[105.569981,30.532447]},"properties":{"province":"四川省","city":"遂宁市","county":"船山区","community":"兴和东街139号永明丽景","full_address":"四川省遂宁市船山区兴和东街139号永明丽景","info":""}},{"type":"Feature","geometry":{"type":"Point","coordinates":[105.56716,30.531478]},"properties":{"province":"四川省","city":"遂宁市","county":"船山区","community":"飞虹街6号","full_address":"四川省遂宁市船山区飞虹街6号","info":""}},{"type":"Feature","geometry":{"type":"Point","coordinates":[105.564588,30.509785]},"properties":{"province":"四川省","city":"遂宁市","county":"船山区","community":"西山北路249号","full_address":"四川省遂宁市船山区西山北路249号","info":""}},{"type":"Feature","geometry":{"type":"Point","coordinates":[105.568469,30.535128]},"properties":{"province":"四川省","city":"遂宁市","county":"船山区","community":"蜀秀东街水都豪庭","full_address":"四川省遂宁市船山区蜀秀东街水都豪庭","info":""}},{"type":"Feature","geometry":{"type":"Point","coordinates":[105.609163,30.494511]},"properties":{"province":"四川省","city":"遂宁市","county":"船山区","community":"江南美邸","full_address":"四川省遂宁市船山区江南美邸","info":""}},{"type":"Feature","geometry":{"type":"Point","coordinates":[105.563952,30.539347]},"properties":{"province":"四川省","city":"遂宁市","county":"船山区","community":"北固西街北小区","full_address":"四川省遂宁市船山区北固西街北小区","info":""}},{"type":"Feature","geometry":{"type":"Point","coordinates":[105.567344,30.534671]},"properties":{"province":"四川省","city":"遂宁市","county":"船山区","community":"北兴社区轴瓦厂宿舍","full_address":"四川省遂宁市船山区北兴社区轴瓦厂宿舍","info":""}},{"type":"Feature","geometry":{"type":"Point","coordinates":[105.561601,30.519089]},"properties":{"province":"四川省","city":"遂宁市","county":"船山区","community":"西山路嘉禾苑","full_address":"四川省遂宁市船山区西山路嘉禾苑","info":""}},{"type":"Feature","geometry":{"type":"Point","coordinates":[105.565538,30.535225]},"properties":{"province":"四川省","city":"遂宁市","county":"船山区","community":"遂州北路380号飞虹街鑫安大楼","full_address":"四川省遂宁市船山区遂州北路380号飞虹街鑫安大楼","info":""}},{"type":"Feature","geometry":{"type":"Point","coordinates":[105.580194,30.500428]},"properties":{"province":"四川省","city":"遂宁市","county":"船山区","community":"西山路人民银行宿舍","full_address":"四川省遂宁市船山区西山路人民银行宿舍","info":""}},{"type":"Feature","geometry":{"type":"Point","coordinates":[105.568686,30.540142]},"properties":{"province":"四川省","city":"遂宁市","county":"船山区","community":"未来城小区","full_address":"四川省遂宁市船山区未来城小区","info":""}},{"type":"Feature","geometry":{"type":"Point","coordinates":[105.565749,30.551061]},"properties":{"province":"四川省","city":"遂宁市","county":"船山区","community":"滨江北路1365号北滨郡府","full_address":"四川省遂宁市船山区滨江北路1365号北滨郡府","info":""}},{"type":"Feature","geometry":{"type":"Point","coordinates":[105.569389,30.529512]},"properties":{"province":"四川省","city":"遂宁市","county":"船山区","community":"上江城","full_address":"四川省遂宁市船山区上江城","info":""}},{"type":"Feature","geometry":{"type":"Point","coordinates":[105.587854,30.538649]},"properties":{"province":"四川省","city":"遂宁市","county":"船山区","community":"保利江语城二期","full_address":"四川省遂宁市船山区保利江语城二期","info":""}},{"type":"Feature","geometry":{"type":"Point","coordinates":[105.568121,30.459761]},"properties":{"province":"四川省","city":"遂宁市","county":"船山区","community":"克拉中心","full_address":"四川省遂宁市船山区克拉中心","info":""}},{"type":"Feature","geometry":{"type":"Point","coordinates":[0,0]},"properties":{"province":"四川省","city":"遂宁市","county":"安居区","community":"安居区常理镇铜钱村1社","full_address":"四川省遂宁市安居区安居区常理镇铜钱村1社","info":""}},{"type":"Feature","geometry":{"type":"Point","coordinates":[105.399982,30.51141]},"properties":{"province":"四川省","city":"遂宁市","county":"安居区","community":"安居区常理镇铜钱村3社","full_address":"四川省遂宁市安居区安居区常理镇铜钱村3社","info":""}},{"type":"Feature","geometry":{"type":"Point","coordinates":[105.448713,30.355815]},"properties":{"province":"四川省","city":"遂宁市","county":"安居区","community":"凤凰街道绿逸凤凰小区","full_address":"四川省遂宁市安居区凤凰街道绿逸凤凰小区","info":""}},{"type":"Feature","geometry":{"type":"Point","coordinates":[105.060019,29.578751]},"properties":{"province":"四川省","city":"内江市","county":"市中区","community":"玉溪街道新华路337号","full_address":"四川省内江市市中区玉溪街道新华路337号","info":""}},{"type":"Feature","geometry":{"type":"Point","coordinates":[105.043595,29.573044]},"properties":{"province":"四川省","city":"内江市","county":"市中区","community":"乐贤街道金德花园","full_address":"四川省内江市市中区乐贤街道金德花园","info":""}},{"type":"Feature","geometry":{"type":"Point","coordinates":[105.043291,29.576171]},"properties":{"province":"四川省","city":"内江市","county":"市中区","community":"金科时代中心","full_address":"四川省内江市市中区金科时代中心","info":""}},{"type":"Feature","geometry":{"type":"Point","coordinates":[105.065409,29.58059]},"properties":{"province":"四川省","city":"内江市","county":"市中区","community":"广场路左右两侧居民区及底层商铺","full_address":"四川省内江市市中区广场路左右两侧居民区及底层商铺","info":""}},{"type":"Feature","geometry":{"type":"Point","coordinates":[105.030152,29.556607]},"properties":{"province":"四川省","city":"内江市","county":"市中区","community":"乐贤街道太子路全域居民区（含商铺）","full_address":"四川省内江市市中区乐贤街道太子路全域居民区（含商铺）","info":""}},{"type":"Feature","geometry":{"type":"Point","coordinates":[105.056372,29.578944]},"properties":{"province":"四川省","city":"内江市","county":"市中区","community":"翔龙路一巷","full_address":"四川省内江市市中区翔龙路一巷","info":""}},{"type":"Feature","geometry":{"type":"Point","coordinates":[105.061246,29.575341]},"properties":{"province":"四川省","city":"内江市","county":"市中区","community":"新华路揽景苑","full_address":"四川省内江市市中区新华路揽景苑","info":""}},{"type":"Feature","geometry":{"type":"Point","coordinates":[105.068599,29.573104]},"properties":{"province":"四川省","city":"内江市","county":"市中区","community":"交通路大盛现代城","full_address":"四川省内江市市中区交通路大盛现代城","info":""}},{"type":"Feature","geometry":{"type":"Point","coordinates":[105.035086,29.5638]},"properties":{"province":"四川省","city":"内江市","county":"市中区","community":"乐贤街道新光社区1组，前进社区7、8组","full_address":"四川省内江市市中区乐贤街道新光社区1组，前进社区7、8组","info":""}},{"type":"Feature","geometry":{"type":"Point","coordinates":[105.051777,29.576688]},"properties":{"province":"四川省","city":"内江市","county":"市中区","community":"玉溪街道晏安路和乐雅居","full_address":"四川省内江市市中区玉溪街道晏安路和乐雅居","info":""}},{"type":"Feature","geometry":{"type":"Point","coordinates":[105.063388,29.57385]},"properties":{"province":"四川省","city":"内江市","county":"市中区","community":"马鞍山加油站及环城路458号（含底层商铺）","full_address":"四川省内江市市中区马鞍山加油站及环城路458号（含底层商铺）","info":""}},{"type":"Feature","geometry":{"type":"Point","coordinates":[105.061769,29.580837]},"properties":{"province":"四川省","city":"内江市","county":"市中区","community":"甘泉寺社区（含甘泉寺花鸟市场）","full_address":"四川省内江市市中区甘泉寺社区（含甘泉寺花鸟市场）","info":""}},{"type":"Feature","geometry":{"type":"Point","coordinates":[105.05645,29.571285]},"properties":{"province":"四川省","city":"内江市","county":"市中区","community":"牌楼街道环鞍路临江5队","full_address":"四川省内江市市中区牌楼街道环鞍路临江5队","info":""}},{"type":"Feature","geometry":{"type":"Point","coordinates":[105.066453,29.577409]},"properties":{"province":"四川省","city":"内江市","county":"市中区","community":"和平街社区（含和平街左右两侧居民区及底层商铺、南山佳苑）","full_address":"四川省内江市市中区和平街社区（含和平街左右两侧居民区及底层商铺、南山佳苑）","info":""}},{"type":"Feature","geometry":{"type":"Point","coordinates":[105.061448,29.57369]},"properties":{"province":"四川省","city":"内江市","county":"市中区","community":"马鞍山社区（环城路以北区域）","full_address":"四川省内江市市中区马鞍山社区（环城路以北区域）","info":""}},{"type":"Feature","geometry":{"type":"Point","coordinates":[105.062507,29.574846]},"properties":{"province":"四川省","city":"内江市","county":"市中区","community":"康盛路片区（环城路以南、康盛路以东、幸福小区以北合围区域，包括康盛路两侧居民区）","full_address":"四川省内江市市中区康盛路片区（环城路以南、康盛路以东、幸福小区以北合围区域，包括康盛路两侧居民区）","info":""}},{"type":"Feature","geometry":{"type":"Point","coordinates":[105.05783,29.569933]},