{"type":"FeatureCollection","features":[{"type":"Feature","geometry":{"type":"Point","coordinates":[117.255155,39.160686]},"properties":{"province":"天津市","city":"市辖区","county":"河北区","community":"月牙河街满江里","full_address":"天津市市辖区河北区月牙河街满江里","info":""}},{"type":"Feature","geometry":{"type":"Point","coordinates":[117.55245,37.587859]},"properties":{"province":"山东省","city":"滨州市","county":"阳信县","community":"翟王镇","full_address":"山东省滨州市阳信县翟王镇","info":""}},{"type":"Feature","geometry":{"type":"Point","coordinates":[117.73579,36.857045]},"properties":{"province":"山东省","city":"滨州市","county":"邹平市","community":"邹平市黄山街道办事处张山村","full_address":"山东省滨州市邹平市邹平市黄山街道办事处张山村","info":""}},{"type":"Feature","geometry":{"type":"Point","coordinates":[126.225734,43.979173]},"properties":{"province":"吉林省","city":"吉林市","county":"昌邑区","community":"桦皮厂镇桦皮厂社区","full_address":"吉林省吉林市昌邑区桦皮厂镇桦皮厂社区","info":""}},{"type":"Feature","geometry":{"type":"Point","coordinates":[126.58834,43.885219]},"properties":{"province":"吉林省","city":"吉林市","county":"昌邑区","community":"延江街道江山帝景小区","full_address":"吉林省吉林市昌邑区延江街道江山帝景小区","info":""}},{"type":"Feature","geometry":{"type":"Point","coordinates":[126.470289,43.957047]},"properties":{"province":"吉林省","city":"吉林市","county":"昌邑区","community":"经开区九站街道农校社区八委十组（九龙路以南&经开大街以东&翰林路以南）","full_address":"吉林省吉林市昌邑区经开区九站街道农校社区八委十组（九龙路以南&经开大街以东&翰林路以南）","info":""}},{"type":"Feature","geometry":{"type":"Point","coordinates":[125.824186,44.135729]},"properties":{"province":"吉林省","city":"长春市","county":"九台区","community":"九郊街道新州社区","full_address":"吉林省长春市九台区九郊街道新州社区","info":""}},{"type":"Feature","geometry":{"type":"Point","coordinates":[125.357136,43.93891]},"properties":{"province":"吉林省","city":"长春市","county":"宽城区","community":"团山街道小南街社区","full_address":"吉林省长春市宽城区团山街道小南街社区","info":""}},{"type":"Feature","geometry":{"type":"Point","coordinates":[125.289978,43.923749]},"properties":{"province":"吉林省","city":"长春市","county":"绿园区","community":"青年路街道宇航社区","full_address":"吉林省长春市绿园区青年路街道宇航社区","info":""}},{"type":"Feature","geometry":{"type":"Point","coordinates":[116.832831,39.251299]},"properties":{"province":"河北省","city":"廊坊市","county":"安次区","community":"葛渔城镇全域","full_address":"河北省廊坊市安次区葛渔城镇全域","info":""}},{"type":"Feature","geometry":{"type":"Point","coordinates":[116.716034,39.069894]},"properties":{"province":"河北省","city":"廊坊市","county":"霸州市","community":"胜芳镇欧韵城小区","full_address":"河北省廊坊市霸州市胜芳镇欧韵城小区","info":""}},{"type":"Feature","geometry":{"type":"Point","coordinates":[118.175673,39.686437]},"properties":{"province":"河北省","city":"唐山市","county":"路北区","community":"高新技术开发区盛华世家仓储购物市场","full_address":"河北省唐山市路北区高新技术开发区盛华世家仓储购物市场","info":""}},{"type":"Feature","geometry":{"type":"Point","coordinates":[118.609626,24.887957]},"properties":{"province":"福建省","city":"泉州市","county":"丰泽区","community":"滨海酒店","full_address":"福建省泉州市丰泽区滨海酒店","info":""}},{"type":"Feature","geometry":{"type":"Point","coordinates":[118.602828,24.892029]},"properties":{"province":"福建省","city":"泉州市","county":"丰泽区","community":"丰泽街道霞淮社区","full_address":"福建省泉州市丰泽区丰泽街道霞淮社区","info":""}},{"type":"Feature","geometry":{"type":"Point","coordinates":[118.652909,24.918272]},"properties":{"province":"福建省","city":"泉州市","county":"丰泽区","community":"城东街道浔美社区","full_address":"福建省泉州市丰泽区城东街道浔美社区","info":""}},{"type":"Feature","geometry":{"type":"Point","coordinates":[118.625627,24.883803]},"properties":{"province":"福建省","city":"泉州市","county":"丰泽区","community":"东海街道云山社区","full_address":"福建省泉州市丰泽区东海街道云山社区","info":""}},{"type":"Feature","geometry":{"type":"Point","coordinates":[118.629945,24.876174]},"properties":{"province":"福建省","city":"泉州市","county":"丰泽区","community":"东海街道法石社区","full_address":"福建省泉州市丰泽区东海街道法石社区","info":""}},{"type":"Feature","geometry":{"type":"Point","coordinates":[118.603199,24.869441]},"properties":{"province":"福建省","city":"泉州市","county":"晋江市","community":"陈埭镇、池店镇的部分区域（陈埭江滨南路&鞋都路&九十九溪围合的三角区域）","full_address":"福建省泉州市晋江市陈埭镇、池店镇的部分区域（陈埭江滨南路&鞋都路&九十九溪围合的三角区域）","info":""}},{"type":"Feature","geometry":{"type":"Point","coordinates":[118.612029,24.851378]},"properties":{"province":"福建省","city":"泉州市","county":"晋江市","community":"陈埭镇庵上村","full_address":"福建省泉州市晋江市陈埭镇庵上村","info":""}},{"type":"Feature","geometry":{"type":"Point","coordinates":[118.580486,24.872053]},"properties":{"province":"福建省","city":"泉州市","county":"晋江市","community":"池店镇东山村","full_address":"福建省泉州市晋江市池店镇东山村","info":""}},{"type":"Feature","geometry":{"type":"Point","coordinates":[118.617049,24.863396]},"properties":{"province":"福建省","city":"泉州市","county":"晋江市","community":"陈埭镇海尾村","full_address":"福建省泉州市晋江市陈埭镇海尾村","info":""}},{"type":"Feature","geometry":{"type":"Point","coordinates":[118.587862,24.894573]},"properties":{"province":"福建省","city":"泉州市","county":"鲤城区","community":"临江街道伍堡社区伍堡旧街北至四堡街、南至义全街、西至伍堡新街、东至中山南路区域","full_address":"福建省泉州市鲤城区临江街道伍堡社区伍堡旧街北至四堡街、南至义全街、西至伍堡新街、东至中山南路区域","info":""}},{"type":"Feature","geometry":{"type":"Point","coordinates":[118.667733,24.943143]},"properties":{"province":"福建省","city":"泉州市","county":"洛江区","community":"万安街道吉源小区20号楼","full_address":"福建省泉州市洛江区万安街道吉源小区20号楼","info":""}},{"type":"Feature","geometry":{"type":"Point","coordinates":[122.196708,40.252323]},"properties":{"province":"辽宁省","city":"营口市","county":"鲅鱼圈区","community":"北大荒物流股份有限公司","full_address":"辽宁省营口市鲅鱼圈区北大荒物流股份有限公司","info":""}},{"type":"Feature","geometry":{"type":"Point","coordinates":[122.887155,41.507424]},"properties":{"province":"辽宁省","city":"沈阳市","county":"辽中区","community":"茨榆坨街道","full_address":"辽宁省沈阳市辽中区茨榆坨街道","info":""}},{"type":"Feature","geometry":{"type":"Point","coordinates":[129.910094,46.735736]},"properties":{"province":"黑龙江省","city":"佳木斯市","county":"汤原县","community":"东湖城小区","full_address":"黑龙江省佳木斯市汤原县东湖城小区","info":""}},{"type":"Feature","geometry":{"type":"Point","coordinates":[129.916364,46.732932]},"properties":{"province":"黑龙江省","city":"佳木斯市","county":"汤原县","community":"阳光河畔小区","full_address":"黑龙江省佳木斯市汤原县阳光河畔小区","info":""}},{"type":"Feature","geometry":{"type":"Point","coordinates":[116.474288,40.003561]},"properties":{"province":"北京市","city":"市辖区","county":"朝阳区","community":"朝阳区酒仙桥街道二街坊","full_address":"北京市市辖区朝阳区朝阳区酒仙桥街道二街坊","info":""}}]}