{"type":"FeatureCollection","features":[{"type":"Feature","geometry":{"type":"Point","coordinates":[117.256492,39.138911]},"properties":{"full_address":"天津市天津市河东区向阳楼街道昕旺南苑1号楼、2号楼"}},{"type":"Feature","geometry":{"type":"Point","coordinates":[117.266604,39.117589]},"properties":{"full_address":"天津市天津市河东区上杭路街道第六大道区域（俊东公寓）"}},{"type":"Feature","geometry":{"type":"Point","coordinates":[117.285715,39.094507]},"properties":{"full_address":"天津市天津市河东区二号桥街道金地紫云庭12号楼"}},{"type":"Feature","geometry":{"type":"Point","coordinates":[117.257377,39.060187]},"properties":{"full_address":"天津市天津市河西区东海街道九江里10门、12门、14门、24门、26门、28门、30门、32门及外围底商"}},{"type":"Feature","geometry":{"type":"Point","coordinates":[117.270317,39.075814]},"properties":{"full_address":"天津市天津市河西区柳林街金海湾花园21号楼"}},{"type":"Feature","geometry":{"type":"Point","coordinates":[117.26326,39.070007]},"properties":{"full_address":"天津市天津市河西区柳林街恒山里12门、14门、16门、26门至32门、46门、48门"}},{"type":"Feature","geometry":{"type":"Point","coordinates":[117.231908,39.08687]},"properties":{"full_address":"天津市天津市河西区尖山街红升里41、43、45、47门"}},{"type":"Feature","geometry":{"type":"Point","coordinates":[117.256187,39.06168]},"properties":{"full_address":"天津市天津市河西区东海街九江里平房、枫林路北头公共厕所"}},{"type":"Feature","geometry":{"type":"Point","coordinates":[117.202062,39.103663]},"properties":{"full_address":"天津市天津市河西区桃园街湛江路新村21-28门"}},{"type":"Feature","geometry":{"type":"Point","coordinates":[117.207161,39.098526]},"properties":{"full_address":"天津市天津市河西区越秀路街黄埔里2、4、9、13、23、24、25、27、29、30门"}},{"type":"Feature","geometry":{"type":"Point","coordinates":[117.208233,39.100134]},"properties":{"full_address":"天津市天津市河西区越秀路街恩德西里48-63门"}},{"type":"Feature","geometry":{"type":"Point","coordinates":[117.206104,39.095043]},"properties":{"full_address":"天津市天津市河西区越秀路街育红楼11、12门"}},{"type":"Feature","geometry":{"type":"Point","coordinates":[117.257631,39.07241]},"properties":{"full_address":"天津市天津市河西区陈塘庄街幸福家园10号楼1-5门"}},{"type":"Feature","geometry":{"type":"Point","coordinates":[117.143802,39.085065]},"properties":{"full_address":"天津市天津市南开区王顶堤街林苑西里19号楼"}},{"type":"Feature","geometry":{"type":"Point","coordinates":[117.215418,39.182229]},"properties":{"full_address":"天津市天津市河北区铁东路街道爱贤里小区2号楼12、13门"}},{"type":"Feature","geometry":{"type":"Point","coordinates":[117.47676,39.190322]},"properties":{"full_address":"天津市天津市东丽区东丽湖街道华侨城汇涛苑4号楼"}},{"type":"Feature","geometry":{"type":"Point","coordinates":[117.305219,39.086369]},"properties":{"full_address":"天津市天津市东丽区张贵庄街詹滨西里小区南院19、27号楼"}},{"type":"Feature","geometry":{"type":"Point","coordinates":[117.114701,39.043537]},"properties":{"full_address":"天津市天津市西青区精武镇锦泽苑小区43号楼"}},{"type":"Feature","geometry":{"type":"Point","coordinates":[117.216739,38.993891]},"properties":{"full_address":"天津市天津市西青区大寺镇芦欣家园小区四区8号楼"}},{"type":"Feature","geometry":{"type":"Point","coordinates":[117.225976,38.99378]},"properties":{"full_address":"天津市天津市西青区大寺镇金友花园小区19号楼"}},{"type":"Feature","geometry":{"type":"Point","coordinates":[117.286415,39.054357]},"properties":{"full_address":"天津市天津市津南区双林街福松源庄一期15号楼"}},{"type":"Feature","geometry":{"type":"Point","coordinates":[117.350412,39.241425]},"properties":{"full_address":"天津市天津市北辰区西堤头镇刘快庄村百合家园公寓A座、B座、C座"}},{"type":"Feature","geometry":{"type":"Point","coordinates":[117.351837,39.24106]},"properties":{"full_address":"天津市天津市北辰区西堤头镇刘快庄村鼎力酒店（聚福嘉苑公寓西店）及沿街底商"}},{"type":"Feature","geometry":{"type":"Point","coordinates":[117.352473,39.249169]},"properties":{"full_address":"天津市天津市北辰区西堤头镇刘快庄村康派尔商铺115号-128号"}},{"type":"Feature","geometry":{"type":"Point","coordinates":[114.575242,38.027191]},"properties":{"full_address":"河北省石家庄市裕华区裕东街道阳光361小区"}},{"type":"Feature","geometry":{"type":"Point","coordinates":[114.52575,38.024125]},"properties":{"full_address":"河北省石家庄市裕华区槐底街道槐底二区"}},{"type":"Feature","geometry":{"type":"Point","coordinates":[114.544576,38.011241]},"properties":{"full_address":"河北省石家庄市裕华区裕兴街道天海誉天下B区2号楼"}},{"type":"Feature","geometry":{"type":"Point","coordinates":[115.214905,37.932313]},"properties":{"full_address":"河北省辛集市辛集市维也纳酒店（兴华路与方碑大街交口西北角）"}},{"type":"Feature","geometry":{"type":"Point","coordinates":[115.210636,37.93772]},"properties":{"full_address":"河北省辛集市辛集市亨盛小区南区东院2号楼"}},{"type":"Feature","geometry":{"type":"Point","coordinates":[107.467651,40.854113]},"properties":{"full_address":"内蒙古自治区巴彦淖尔市临河区曙光乡治丰二组"}},{"type":"Feature","geometry":{"type":"Point","coordinates":[126.761453,45.727293]},"properties":{"full_address":"黑龙江省哈尔滨市香坊区金源幸福小区"}},{"type":"Feature","geometry":{"type":"Point","coordinates":[126.685463,45.725451]},"properties":{"full_address":"黑龙江省哈尔滨市香坊区香坊大街45-3号院"}},{"type":"Feature","geometry":{"type":"Point","coordinates":[126.673367,45.675695]},"properties":{"full_address":"黑龙江省哈尔滨市香坊区黎明街道办事处穆家新区9号楼"}},{"type":"Feature","geometry":{"type":"Point","coordinates":[126.727454,45.731695]},"properties":{"full_address":"黑龙江省哈尔滨市香坊区城东新居C区5号楼"}},{"type":"Feature","geometry":{"type":"Point","coordinates":[126.677846,45.723892]},"properties":{"full_address":"黑龙江省哈尔滨市香坊区通站街106号院内多福公寓"}},{"type":"Feature","geometry":{"type":"Point","coordinates":[126.726039,45.729561]},"properties":{"full_address":"黑龙江省哈尔滨市香坊区城东新居D区8号楼"}},{"type":"Feature","geometry":{"type":"Point","coordinates":[126.677798,45.725027]},"properties":{"full_address":"黑龙江省哈尔滨市香坊区香木街副12-10号院1号楼"}},{"type":"Feature","geometry":{"type":"Point","coordinates":[126.679488,45.726504]},"properties":{"full_address":"黑龙江省哈尔滨市香坊区古香街44号楼"}},{"type":"Feature","geometry":{"type":"Point","coordinates":[126.75841,45.727079]},"properties":{"full_address":"黑龙江省哈尔滨市香坊区高丽风情小镇全域"}},{"type":"Feature","geometry":{"type":"Point","coordinates":[126.73983,45.721534]},"properties":{"full_address":"黑龙江省哈尔滨市香坊区幸福镇安居社区4号楼"}},{"type":"Feature","geometry":{"type":"Point","coordinates":[126.797418,45.700963]},"properties":{"full_address":"黑龙江省哈尔滨市香坊区哈纺社区210栋"}},{"type":"Feature","geometry":{"type":"Point","coordinates":[126.679885,45.722312]},"properties":{"full_address":"黑龙江省哈尔滨市香坊区香坊大街200号院"}},{"type":"Feature","geometry":{"type":"Point","coordinates":[126.684216,45.724776]},"properties":{"full_address":"黑龙江省哈尔滨市香坊区香武胡同4号"}},{"type":"Feature","geometry":{"type":"Point","coordinates":[126.6842,45.724847]},"properties":{"full_address":"黑龙江省哈尔滨市香坊区香武胡同6号"}},{"type":"Feature","geometry":{"type":"Point","coordinates":[126.684229,45.725]},"properties":{"full_address":"黑龙江省哈尔滨市香坊区香武胡同10号1单元、2单元、3单元"}},{"type":"Feature","geometry":{"type":"Point","coordinates":[130.360267,46.815368]},"properties":{"full_address":"黑龙江省佳木斯市向阳区龙海名苑D栋"}},{"type":"Feature","geometry":{"type":"Point","coordinates":[130.340134,46.79557]},"properties":{"full_address":"黑龙江省佳木斯市向阳区时代景城九号楼"}},{"type":"Feature","geometry":{"type":"Point","coordinates":[130.362288,46.819308]},"properties":{"full_address":"黑龙江省佳木斯市向阳区市委22号楼"}},{"type":"Feature","geometry":{"type":"Point","coordinates":[130.350915,46.801716]},"properties":{"full_address":"黑龙江省佳木斯市向阳区铭诗苑A座"}},{"type":"Feature","geometry":{"type":"Point","coordinates":[130.364488,46.803734]},"properties":{"full_address":"黑龙江省佳木斯市向阳区杏湖嘉苑"}},{"type":"Feature","geometry":{"type":"Point","coordinates":[130.368803,46.807333]},"properties":{"full_address":"黑龙江省佳木斯市向阳区金厦佳苑"}},{"type":"Feature","geometry":{"type":"Point","coordinates":[130.35825,46.80425]},"properties":{"full_address":"黑龙江省佳木斯市向阳区建业一号楼"}},{"type":"Feature","geometry":{"type":"Point","coordinates":[130.369409,46.805797]},"properties":{"full_address":"黑龙江省佳木斯市向阳区鸿业大厦"}},{"type":"Feature","geometry":{"type":"Point","coordinates":[130.344461,46.802529]},"properties":{"full_address":"黑龙江省佳木斯市向阳区南铁西社区39号楼"}},{"type":"Feature","geometry":{"type":"Point","coordinates":[130.368959,46.812058]},"properties":{"full_address":"黑龙江省佳木斯市向阳区世水花园三期8号楼"}},{"type":"Feature","geometry":{"type":"Point","coordinates":[130.367945,46.812322]},"properties":{"full_address":"黑龙江省佳木斯市向阳区世水花园二期12号楼"}},{"type":"Feature","geometry":{"type":"Point","coordinates":[130.35786,46.81787]},"properties":{"full_address":"黑龙江省佳木斯市向阳区时代景城三期A栋"}},{"type":"Feature","geometry":{"type":"Point","coordinates":[130.356626,46.776924]},"properties":{"full_address":"黑龙江省佳木斯市向阳区天福城新丰村安置楼J栋"}},{"type":"Feature","geometry":{"type":"Point","coordinates":[130.373844,46.796295]},"properties":{"full_address":"黑龙江省佳木斯市向阳区中山名苑7号楼"}},{"type":"Feature","geometry":{"type":"Point","coordinates":[130.347977,46.811784]},"properties":{"full_address":"黑龙江省佳木斯市向阳区长青街教育小区"}},{"type":"Feature","geometry":{"type":"Point","coordinates":[130.361901,46.805448]},"properties":{"full_address":"黑龙江省佳木斯市向阳区世水花园一期至三期"}},{"type":"Feature","geometry":{"type":"Point","coordinates":[130.367009,46.809711]},"properties":{"full_address":"黑龙江省佳木斯市向阳区中元宾馆"}},{"type":"Feature","geometry":{"type":"Point","coordinates":[130.339624,46.826899]},"properties":{"full_address":"黑龙江省佳木斯市向阳区港龙东方城11号楼"}},{"type":"Feature","geometry":{"type":"Point","coordinates":[130.357125,46.80825]},"properties":{"full_address":"黑龙江省佳木斯市向阳区御景华庭1期6号楼"}},{"type":"Feature","geometry":{"type":"Point","coordinates":[130.361178,46.810688]},"properties":{"full_address":"黑龙江省佳木斯市向阳区幸福家园独栋楼"}},{"type":"Feature","geometry":{"type":"Point","coordinates":[130.354916,46.802967]},"properties":{"full_address":"黑龙江省佳木斯市向阳区鹤电小区1号楼"}},{"type":"Feature","geometry":{"type":"Point","coordinates":[130.355774,46.802872]},"properties":{"full_address":"黑龙江省佳木斯市向阳区鹤电小区3号楼"}},{"type":"Feature","geometry":{"type":"Point","coordinates":[130.35123,46.816986]},"properties":{"full_address":"黑龙江省佳木斯市向阳区嘉园小区独栋楼"}},{"type":"Feature","geometry":{"type":"Point","coordinates":[130.365329,46.808076]},"properties":{"full_address":"黑龙江省佳木斯市向阳区牧工商小区国泰5号楼"}},{"type":"Feature","geometry":{"type":"Point","coordinates":[130.36803,46.804326]},"properties":{"full_address":"黑龙江省佳木斯市向阳区永房教育一小区40号楼"}},{"type":"Feature","geometry":{"type":"Point","coordinates":[130.368938,46.78633]},"properties":{"full_address":"黑龙江省佳木斯市向阳区新华名苑A2栋"}},{"type":"Feature","geometry":{"type":"Point","coordinates":[130.368953,46.790457]},"properties":{"full_address":"黑龙江省佳木斯市向阳区翰林名苑15号楼"}},{"type":"Feature","geometry":{"type":"Point","coordinates":[130.364482,46.811992]},"properties":{"full_address":"黑龙江省佳木斯市向阳区爱心家园P栋"}},{"type":"Feature","geometry":{"type":"Point","coordinates":[130.375861,46.793556]},"properties":{"full_address":"黑龙江省佳木斯市向阳区万达华府1期2号楼"}},{"type":"Feature","geometry":{"type":"Point","coordinates":[130.375861,46.793556]},"properties":{"full_address":"黑龙江省佳木斯市向阳区万达华府1期3号楼"}},{"type":"Feature","geometry":{"type":"Point","coordinates":[130.360668,46.811921]},"properties":{"full_address":"黑龙江省佳木斯市向阳区滨江小区二期25号楼"}},{"type":"Feature","geometry":{"type":"Point","coordinates":[130.362828,46.810359]},"properties":{"full_address":"黑龙江省佳木斯市向阳区世水花园C栋"}},{"type":"Feature","geometry":{"type":"Point","coordinates":[130.365028,46.811729]},"properties":{"full_address":"黑龙江省佳木斯市向阳区帝景豪庭3期13号楼"}},{"type":"Feature","geometry":{"type":"Point","coordinates":[130.3545,46.816665]},"properties":{"full_address":"黑龙江省佳木斯市向阳区帝景豪庭H区10号楼"}},{"type":"Feature","geometry":{"type":"Point","coordinates":[130.364284,46.784347]},"properties":{"full_address":"黑龙江省佳木斯市向阳区永房54号楼"}},{"type":"Feature","geometry":{"type":"Point","coordinates":[130.362701,46.801549]},"properties":{"full_address":"黑龙江省佳木斯市向阳区杏湖壹品A栋"}},{"type":"Feature","geometry":{"type":"Point","coordinates":[130.363071,46.801679]},"properties":{"full_address":"黑龙江省佳木斯市向阳区杏湖壹品4号楼"}},{"type":"Feature","geometry":{"type":"Point","coordinates":[130.361932,46.816277]},"properties":{"full_address":"黑龙江省佳木斯市向阳区西林金地C栋"}},{"type":"Feature","geometry":{"type":"Point","coordinates":[130.341668,46.790175]},"properties":{"full_address":"黑龙江省佳木斯市向阳区三江商贸城E栋1号楼"}},{"type":"Feature","geometry":{"type":"Point","coordinates":[130.348223,46.804335]},"properties":{"full_address":"黑龙江省佳木斯市向阳区长青街教育一小区3号楼"}},{"type":"Feature","geometry":{"type":"Point","coordinates":[130.366833,46.81125]},"properties":{"full_address":"黑龙江省佳木斯市向阳区珍铭苑3号楼"}},{"type":"Feature","geometry":{"type":"Point","coordinates":[130.332412,46.793061]},"properties":{"full_address":"黑龙江省佳木斯市向阳区万公馆22号楼"}},{"type":"Feature","geometry":{"type":"Point","coordinates":[130.365759,46.786449]},"properties":{"full_address":"黑龙江省佳木斯市向阳区佳木斯大学一区B院50号楼"}},{"type":"Feature","geometry":{"type":"Point","coordinates":[130.35912,46.80531]},"properties":{"full_address":"黑龙江省佳木斯市向阳区光明社区佳大26号楼"}},{"type":"Feature","geometry":{"type":"Point","coordinates":[130.339302,46.789603]},"properties":{"full_address":"黑龙江省佳木斯市向阳区万象府4号楼"}},{"type":"Feature","geometry":{"type":"Point","coordinates":[130.348775,46.798434]},"properties":{"full_address":"黑龙江省佳木斯市向阳区金地家园7号楼"}},{"type":"Feature","geometry":{"type":"Point","coordinates":[130.346649,46.819477]},"properties":{"full_address":"黑龙江省佳木斯市向阳区景江小区A栋1单元"}},{"type":"Feature","geometry":{"type":"Point","coordinates":[130.33441,46.818623]},"properties":{"full_address":"黑龙江省佳木斯市向阳区罗曼庄园V栋2单元"}},{"type":"Feature","geometry":{"type":"Point","coordinates":[130.348574,46.787934]},"properties":{"full_address":"黑龙江省佳木斯市向阳区昌隆世家30号楼"}},{"type":"Feature","geometry":{"type":"Point","coordinates":[130.365346,46.80779]},"properties":{"full_address":"黑龙江省佳木斯市向阳区璞院3号楼"}},{"type":"Feature","geometry":{"type":"Point","coordinates":[130.350198,46.809845]},"properties":{"full_address":"黑龙江省佳木斯市向阳区宏安小区10号楼"}},{"type":"Feature","geometry":{"type":"Point","coordinates":[130.355571,46.819232]},"properties":{"full_address":"黑龙江省佳木斯市向阳区德祥小区33号楼"}},{"type":"Feature","geometry":{"type":"Point","coordinates":[130.339624,46.826899]},"properties":{"full_address":"黑龙江省佳木斯市向阳区港龙东方城12号楼"}},{"type":"Feature","geometry":{"type":"Point","coordinates":[130.369281,46.806078]},"properties":{"full_address":"黑龙江省佳木斯市向阳区佳里中心C座"}},{"type":"Feature","geometry":{"type":"Point","coordinates":[130.360748,46.800483]},"properties":{"full_address":"黑龙江省佳木斯市向阳区杏林南苑B栋"}},{"type":"Feature","geometry":{"type":"Point","coordinates":[130.362088,46.809364]},"properties":{"full_address":"黑龙江省佳木斯市向阳区志兴社区林业5号楼"}},{"type":"Feature","geometry":{"type":"Point","coordinates":[130.365346,46.80779]},"properties":{"full_address":"黑龙江省佳木斯市向阳区中央公园7号楼"}},{"type":"Feature","geometry":{"type":"Point","coordinates":[130.36803,46.804326]},"properties":{"full_address":"黑龙江省佳木斯市向阳区体委小区2号楼"}},{"type":"Feature","geometry":{"type":"Point","coordinates":[130.35786,46.81787]},"properties":{"full_address":"黑龙江省佳木斯市向阳区时代景城A区6号楼"}},{"type":"Feature","geometry":{"type":"Point","coordinates":[130.360567,46.81225]},"properties":{"full_address":"黑龙江省佳木斯市向阳区滨江小区一期6号楼"}},{"type":"Feature","geometry":{"type":"Point","coordinates":[130.361121,46.813337]},"properties":{"full_address":"黑龙江省佳木斯市向阳区龙海大厦"}},{"type":"Feature","geometry":{"type":"Point","coordinates":[130.35127,46.810925]},"properties":{"full_address":"黑龙江省佳木斯市向阳区宏光新天地A栋"}},{"type":"Feature","geometry":{"type":"Point","coordinates":[130.36145,46.816806]},"properties":{"full_address":"黑龙江省佳木斯市向阳区西林兴城小区A楼"}},{"type":"Feature","geometry":{"type":"Point","coordinates":[130.344667,46.798282]},"properties":{"full_address":"黑龙江省佳木斯市向阳区枫和林里D栋"}},{"type":"Feature","geometry":{"type":"Point","coordinates":[130.359982,46.800633]},"properties":{"full_address":"黑龙江省佳木斯市向阳区杏林南苑A栋"}},{"type":"Feature","geometry":{"type":"Point","coordinates":[130.367949,46.812382]},"properties":{"full_address":"黑龙江省佳木斯市向阳区金鑫综合楼"}},{"type":"Feature","geometry":{"type":"Point","coordinates":[130.355625,46.783437]},"properties":{"full_address":"黑龙江省佳木斯市向阳区天福城6号楼"}},{"type":"Feature","geometry":{"type":"Point","coordinates":[130.352486,46.800895]},"properties":{"full_address":"黑龙江省佳木斯市向阳区世水花园15、21、22、25号楼"}},{"type":"Feature","geometry":{"type":"Point","coordinates":[130.355583,46.811417]},"properties":{"full_address":"黑龙江省佳木斯市向阳区建业小区3、4号楼"}},{"type":"Feature","geometry":{"type":"Point","coordinates":[130.368449,46.81226]},"properties":{"full_address":"黑龙江省佳木斯市向阳区常青花园F栋"}},{"type":"Feature","geometry":{"type":"Point","coordinates":[130.365346,46.80779]},"properties":{"full_address":"黑龙江省佳木斯市向阳区璞院11、12号楼"}},{"type":"Feature","geometry":{"type":"Point","coordinates":[130.365028,46.811729]},"properties":{"full_address":"黑龙江省佳木斯市向阳区帝景豪庭三期F区10号楼"}},{"type":"Feature","geometry":{"type":"Point","coordinates":[130.392246,46.812243]},"properties":{"full_address":"黑龙江省佳木斯市向阳区教育二小区15号楼"}},{"type":"Feature","geometry":{"type":"Point","coordinates":[130.3585,46.81795]},"properties":{"full_address":"黑龙江省佳木斯市向阳区临江花园8号楼"}},{"type":"Feature","geometry":{"type":"Point","coordinates":[130.34808,46.81072]},"properties":{"full_address":"黑龙江省佳木斯市向阳区宏光新天地G栋"}},{"type":"Feature","geometry":{"type":"Point","coordinates":[130.351659,46.807111]},"properties":{"full_address":"黑龙江省佳木斯市向阳区志兴小区8号楼"}},{"type":"Feature","geometry":{"type":"Point","coordinates":[130.369246,46.806088]},"properties":{"full_address":"黑龙江省佳木斯市向阳区佳里中心B座"}},{"type":"Feature","geometry":{"type":"Point","coordinates":[130.350725,46.798299]},"properties":{"full_address":"黑龙江省佳木斯市向阳区金地家园15号楼"}},{"type":"Feature","geometry":{"type":"Point","coordinates":[130.366558,46.809235]},"properties":{"full_address":"黑龙江省佳木斯市向阳区安民社区一建17号楼"}},{"type":"Feature","geometry":{"type":"Point","coordinates":[130.348635,46.814176]},"properties":{"full_address":"黑龙江省佳木斯市向阳区帝景豪庭G3栋"}},{"type":"Feature","geometry":{"type":"Point","coordinates":[130.339076,46.789078]},"properties":{"full_address":"黑龙江省佳木斯市向阳区万象府6号楼"}},{"type":"Feature","geometry":{"type":"Point","coordinates":[130.366644,46.798778]},"properties":{"full_address":"黑龙江省佳木斯市向阳区迪尔小区A楼"}},{"type":"Feature","geometry":{"type":"Point","coordinates":[130.367452,46.798753]},"properties":{"full_address":"黑龙江省佳木斯市向阳区迪尔小区D楼"}},{"type":"Feature","geometry":{"type":"Point","coordinates":[130.364284,46.784347]},"properties":{"full_address":"黑龙江省佳木斯市向阳区永房26号楼"}},{"type":"Feature","geometry":{"type":"Point","coordinates":[130.362313,46.8195]},"properties":{"full_address":"黑龙江省佳木斯市向阳区市委24号楼"}},{"type":"Feature","geometry":{"type":"Point","coordinates":[130.365579,46.807417]},"properties":{"full_address":"黑龙江省佳木斯市向阳区政府34号楼"}},{"type":"Feature","geometry":{"type":"Point","coordinates":[130.360397,46.812261]},"properties":{"full_address":"黑龙江省佳木斯市向阳区慧海家园C楼"}},{"type":"Feature","geometry":{"type":"Point","coordinates":[130.368975,46.812]},"properties":{"full_address":"黑龙江省佳木斯市向阳区一中集资楼"}},{"type":"Feature","geometry":{"type":"Point","coordinates":[130.353911,46.80461]},"properties":{"full_address":"黑龙江省佳木斯市向阳区群英巷科技楼"}},{"type":"Feature","geometry":{"type":"Point","coordinates":[130.355707,46.816699]},"properties":{"full_address":"黑龙江省佳木斯市向阳区中央公馆K区1号楼"}},{"type":"Feature","geometry":{"type":"Point","coordinates":[130.35786,46.81787]},"properties":{"full_address":"黑龙江省佳木斯市向阳区时代景城C区A1栋"}},{"type":"Feature","geometry":{"type":"Point","coordinates":[130.365346,46.80779]},"properties":{"full_address":"黑龙江省佳木斯市向阳区中央公园家榆园6号楼"}},{"type":"Feature","geometry":{"type":"Point","coordinates":[130.365027,46.817201]},"properties":{"full_address":"黑龙江省佳木斯市向阳区唐人中心B栋4单元"}},{"type":"Feature","geometry":{"type":"Point","coordinates":[130.355063,46.817896]},"properties":{"full_address":"黑龙江省佳木斯市向阳区三江商贸城E区6号楼"}},{"type":"Feature","geometry":{"type":"Point","coordinates":[130.351992,46.794281]},"properties":{"full_address":"黑龙江省佳木斯市向阳区红旗嘉苑F栋"}},{"type":"Feature","geometry":{"type":"Point","coordinates":[130.365759,46.786449]},"properties":{"full_address":"黑龙江省佳木斯市向阳区佳木斯大学一区B院42号楼"}},{"type":"Feature","geometry":{"type":"Point","coordinates":[130.35786,46.81787]},"properties":{"full_address":"黑龙江省佳木斯市向阳区时代景城一期A区6号楼"}},{"type":"Feature","geometry":{"type":"Point","coordinates":[130.356375,46.81025]},"properties":{"full_address":"黑龙江省佳木斯市向阳区玻璃厂家属楼4号楼"}},{"type":"Feature","geometry":{"type":"Point","coordinates":[130.365346,46.80779]},"properties":{"full_address":"黑龙江省佳木斯市向阳区中央公园家榆园20号楼"}},{"type":"Feature","geometry":{"type":"Point","coordinates":[130.355148,46.802606]},"properties":{"full_address":"黑龙江省佳木斯市向阳区鹤电小区2号楼"}},{"type":"Feature","geometry":{"type":"Point","coordinates":[130.361073,46.79145]},"properties":{"full_address":"黑龙江省佳木斯市向阳区学府嘉园B栋、F栋"}},{"type":"Feature","geometry":{"type":"Point","coordinates":[130.370926,46.802545]},"properties":{"full_address":"黑龙江省佳木斯市向阳区圣泰嘉苑A楼"}},{"type":"Feature","geometry":{"type":"Point","coordinates":[130.372022,46.815901]},"properties":{"full_address":"黑龙江省佳木斯市前进区太阳市场57号楼"}},{"type":"Feature","geometry":{"type":"Point","coordinates":[130.390915,46.819903]},"properties":{"full_address":"黑龙江省佳木斯市前进区金港湾2期14号楼"}},{"type":"Feature","geometry":{"type":"Point","coordinates":[130.368464,46.809708]},"properties":{"full_address":"黑龙江省佳木斯市前进区都市人居A栋"}},{"type":"Feature","geometry":{"type":"Point","coordinates":[130.403347,46.799846]},"properties":{"full_address":"黑龙江省佳木斯市前进区胜利小区E栋"}},{"type":"Feature","geometry":{"type":"Point","coordinates":[130.375063,46.814103]},"properties":{"full_address":"黑龙江省佳木斯市前进区国脉通小区2号楼"}},{"type":"Feature","geometry":{"type":"Point","coordinates":[130.375063,46.814103]},"properties":{"full_address":"黑龙江省佳木斯市前进区粮库7组啤酒厂家属楼2号楼"}},{"type":"Feature","geometry":{"type":"Point","coordinates":[130.383609,46.798009]},"properties":{"full_address":"黑龙江省佳木斯市前进区枫桥河畔D栋"}},{"type":"Feature","geometry":{"type":"Point","coordinates":[130.38413,46.81915]},"properties":{"full_address":"黑龙江省佳木斯市前进区金港湾一期多层6号楼"}},{"type":"Feature","geometry":{"type":"Point","coordinates":[130.383937,46.792098]},"properties":{"full_address":"黑龙江省佳木斯市前进区山水家园18号楼"}},{"type":"Feature","geometry":{"type":"Point","coordinates":[130.37438,46.80728]},"properties":{"full_address":"黑龙江省佳木斯市前进区军苑一号独栋楼"}},{"type":"Feature","geometry":{"type":"Point","coordinates":[130.383768,46.790493]},"properties":{"full_address":"黑龙江省佳木斯市前进区吉祥福苑独栋楼"}},{"type":"Feature","geometry":{"type":"Point","coordinates":[130.373183,46.802788]},"properties":{"full_address":"黑龙江省佳木斯市前进区吉祥福苑"}},{"type":"Feature","geometry":{"type":"Point","coordinates":[130.38934,46.810173]},"properties":{"full_address":"黑龙江省佳木斯市前进区鸿基嘉园F栋"}},{"type":"Feature","geometry":{"type":"Point","coordinates":[130.388554,46.819976]},"properties":{"full_address":"黑龙江省佳木斯市前进区金港湾二期高层10号楼"}},{"type":"Feature","geometry":{"type":"Point","coordinates":[130.371936,46.818577]},"properties":{"full_address":"黑龙江省佳木斯市前进区航运小区8号楼（沿江巷西）"}},{"type":"Feature","geometry":{"type":"Point","coordinates":[130.378447,46.807674]},"properties":{"full_address":"黑龙江省佳木斯市前进区地质社区3号楼"}},{"type":"Feature","geometry":{"type":"Point","coordinates":[130.37537,46.810055]},"properties":{"full_address":"黑龙江省佳木斯市前进区园林社区天麒2号楼"}},{"type":"Feature","geometry":{"type":"Point","coordinates":[130.375063,46.814103]},"properties":{"full_address":"黑龙江省佳木斯市前进区永和街大厦楼1-4单元"}},{"type":"Feature","geometry":{"type":"Point","coordinates":[130.374708,46.816336]},"properties":{"full_address":"黑龙江省佳木斯市前进区港务小区28号楼"}},{"type":"Feature","geometry":{"type":"Point","coordinates":[130.402458,46.799977]},"properties":{"full_address":"黑龙江省佳木斯市前进区胜利小区A栋"}},{"type":"Feature","geometry":{"type":"Point","coordinates":[130.381204,46.790389]},"properties":{"full_address":"黑龙江省佳木斯市前进区林业局家属楼B栋"}},{"type":"Feature","geometry":{"type":"Point","coordinates":[130.395715,46.815571]},"properties":{"full_address":"黑龙江省佳木斯市前进区和平街道解困楼"}},{"type":"Feature","geometry":{"type":"Point","coordinates":[130.374562,46.819216]},"properties":{"full_address":"黑龙江省佳木斯市前进区滨江东路125号"}},{"type":"Feature","geometry":{"type":"Point","coordinates":[130.387619,46.818512]},"properties":{"full_address":"黑龙江省佳木斯市前进区升平路13号"}},{"type":"Feature","geometry":{"type":"Point","coordinates":[130.389604,46.798088]},"properties":{"full_address":"黑龙江省佳木斯市前进区枫桥社区Z5栋"}},{"type":"Feature","geometry":{"type":"Point","coordinates":[130.399507,46.816912]},"properties":{"full_address":"黑龙江省佳木斯市东风区阳光绿洲H栋"}},{"type":"Feature","geometry":{"type":"Point","coordinates":[130.403028,46.827823]},"properties":{"full_address":"黑龙江省佳木斯市东风区发电北区33号楼"}},{"type":"Feature","geometry":{"type":"Point","coordinates":[130.398417,46.821229]},"properties":{"full_address":"黑龙江省佳木斯市东风区东湾假日C栋"}},{"type":"Feature","geometry":{"type":"Point","coordinates":[130.403664,46.822572]},"properties":{"full_address":"黑龙江省佳木斯市东风区东兴城C区43号楼"}},{"type":"Feature","geometry":{"type":"Point","coordinates":[130.403096,46.827924]},"properties":{"full_address":"黑龙江省佳木斯市东风区兴电社区33号楼"}},{"type":"Feature","geometry":{"type":"Point","coordinates":[130.397492,46.814555]},"properties":{"full_address":"黑龙江省佳木斯市东风区玫瑰园小区U栋"}},{"type":"Feature","geometry":{"type":"Point","coordinates":[130.398843,46.816862]},"properties":{"full_address":"黑龙江省佳木斯市东风区阳光绿洲F栋"}},{"type":"Feature","geometry":{"type":"Point","coordinates":[130.399359,46.815538]},"properties":{"full_address":"黑龙江省佳木斯市东风区玫瑰园小区C2栋"}},{"type":"Feature","geometry":{"type":"Point","coordinates":[130.404958,46.816808]},"properties":{"full_address":"黑龙江省佳木斯市东风区东方花园1号楼"}},{"type":"Feature","geometry":{"type":"Point","coordinates":[130.304219,46.805887]},"properties":{"full_address":"黑龙江省佳木斯市郊区五一社区1组"}},{"type":"Feature","geometry":{"type":"Point","coordinates":[130.340542,46.799046]},"properties":{"full_address":"黑龙江省佳木斯市郊区长安社区P栋"}},{"type":"Feature","geometry":{"type":"Point","coordinates":[130.368962,46.812015]},"properties":{"full_address":"黑龙江省佳木斯市郊区益海花园小区9号楼"}},{"type":"Feature","geometry":{"type":"Point","coordinates":[130.339667,46.79929]},"properties":{"full_address":"黑龙江省佳木斯市郊区良种场2号楼"}},{"type":"Feature","geometry":{"type":"Point","coordinates":[130.36905,46.812]},"properties":{"full_address":"黑龙江省佳木斯市郊区盛世华都L栋"}},{"type":"Feature","geometry":{"type":"Point","coordinates":[130.33752,46.797395]},"properties":{"full_address":"黑龙江省佳木斯市郊区盛世华都W栋"}},{"type":"Feature","geometry":{"type":"Point","coordinates":[130.327195,46.810086]},"properties":{"full_address":"黑龙江省佳木斯市郊区运输公司家属楼独栋楼"}},{"type":"Feature","geometry":{"type":"Point","coordinates":[130.3332,46.803482]},"properties":{"full_address":"黑龙江省佳木斯市郊区长安新城3号楼"}},{"type":"Feature","geometry":{"type":"Point","coordinates":[130.302986,46.809612]},"properties":{"full_address":"黑龙江省佳木斯市郊区五一社区三合A栋16号楼"}},{"type":"Feature","geometry":{"type":"Point","coordinates":[130.365569,46.811682]},"properties":{"full_address":"黑龙江省佳木斯市郊区英伦尚城H区3号楼"}},{"type":"Feature","geometry":{"type":"Point","coordinates":[130.320609,46.803399]},"properties":{"full_address":"黑龙江省佳木斯市郊区荷兰城观湖16号楼"}},{"type":"Feature","geometry":{"type":"Point","coordinates":[130.329344,46.807797]},"properties":{"full_address":"黑龙江省佳木斯市郊区欧亚小镇F栋"}},{"type":"Feature","geometry":{"type":"Point","coordinates":[130.315531,46.815536]},"properties":{"full_address":"黑龙江省佳木斯市郊区江南雅居21号楼"}},{"type":"Feature","geometry":{"type":"Point","coordinates":[130.366894,46.812233]},"properties":{"full_address":"黑龙江省佳木斯市郊区佳天国际9号楼"}},{"type":"Feature","geometry":{"type":"Point","coordinates":[130.32692,46.78937]},"properties":{"full_address":"黑龙江省佳木斯市郊区万兴华城B2栋"}},{"type":"Feature","geometry":{"type":"Point","coordinates":[130.333909,46.801163]},"properties":{"full_address":"黑龙江省佳木斯市郊区长安新城10号楼"}},{"type":"Feature","geometry":{"type":"Point","coordinates":[130.33052,46.80632]},"properties":{"full_address":"黑龙江省佳木斯市郊区英伦尚城D区3号楼"}},{"type":"Feature","geometry":{"type":"Point","coordinates":[130.341388,46.79845]},"properties":{"full_address":"黑龙江省佳木斯市郊区荣军社区良种场2号楼"}},{"type":"Feature","geometry":{"type":"Point","coordinates":[130.361966,46.810883]},"properties":{"full_address":"黑龙江省佳木斯市郊区金融小区A3栋"}},{"type":"Feature","geometry":{"type":"Point","coordinates":[130.37228,46.869492]},"properties":{"full_address":"黑龙江省佳木斯市郊区平安乡群英村2组"}},{"type":"Feature","geometry":{"type":"Point","coordinates":[130.318945,46.857964]},"properties":{"full_address":"黑龙江省佳木斯市郊区莲江口镇鑫城小区厢楼"}},{"type":"Feature","geometry":{"type":"Point","coordinates":[130.361966,46.810883]},"properties":{"full_address":"黑龙江省佳木斯市郊区金融小区A11号楼"}},{"type":"Feature","geometry":{"type":"Point","coordinates":[130.328536,46.804932]},"properties":{"full_address":"黑龙江省佳木斯市郊区英伦尚城D区12C栋"}},{"type":"Feature","geometry":{"type":"Point","coordinates":[130.321997,46.804018]},"properties":{"full_address":"黑龙江省佳木斯市郊区荷兰城风车4号楼"}},{"type":"Feature","geometry":{"type":"Point","coordinates":[127.514731,50.23109]},"properties":{"full_address":"黑龙江省黑河市爱辉区花园街道博文社区弘发粮苑小区4号楼1单元及1单元附属门市"}},{"type":"Feature","geometry":{"type":"Point","coordinates":[127.502441,50.239295]},"properties":{"full_address":"黑龙江省黑河市爱辉区花园街道长海社区龙滨嘉苑小区2号楼1单元及1单元附属门市、4号楼1单元及1单元楼下车库"}},{"type":"Feature","geometry":{"type":"Point","coordinates":[127.500209,50.2385]},"properties":{"full_address":"黑龙江省黑河市爱辉区花园街道长海社区黑龙大厦水利家属楼1单元"}},{"type":"Feature","geometry":{"type":"Point","coordinates":[127.490219,50.246223]},"properties":{"full_address":"黑龙江省黑河市爱辉区海兰街道温馨社区供销社家属楼3单元"}},{"type":"Feature","geometry":{"type":"Point","coordinates":[127.497957,50.252053]},"properties":{"full_address":"黑龙江省黑河市爱辉区海兰街道鹿源春社区中房怡园66号楼2单元及2单元附属门市"}},{"type":"Feature","geometry":{"type":"Point","coordinates":[127.47671,50.245983]},"properties":{"full_address":"黑龙江省黑河市爱辉区海兰街道温馨社区力波家园24号楼1单元"}},{"type":"Feature","geometry":{"type":"Point","coordinates":[127.484908,50.255878]},"properties":{"full_address":"黑龙江省黑河市爱辉区西兴街道人保财险社区益民一区7号楼5单元及5单元附属门市"}},{"type":"Feature","geometry":{"type":"Point","coordinates":[127.530603,50.238833]},"properties":{"full_address":"黑龙江省黑河市爱辉区花园街道长海社区组织部集资楼及附属门市"}},{"type":"Feature","geometry":{"type":"Point","coordinates":[127.517584,50.245438]},"properties":{"full_address":"黑龙江省黑河市爱辉区花园街道金兰社区华林庭苑小区1号楼2单元及2单元附属门市"}},{"type":"Feature","geometry":{"type":"Point","coordinates":[127.530701,50.237656]},"properties":{"full_address":"黑龙江省黑河市爱辉区花园街道武庙屯社区之路佳苑小区10号楼3单元"}},{"type":"Feature","geometry":{"type":"Point","coordinates":[127.522418,50.234325]},"properties":{"full_address":"黑龙江省黑河市爱辉区花园街道博文社区安发小区7号楼4单元"}},{"type":"Feature","geometry":{"type":"Point","coordinates":[127.53045,50.230125]},"properties":{"full_address":"黑龙江省黑河市爱辉区花园街道博文社区学府家园小区2号楼7单元及7单元附属门市"}},{"type":"Feature","geometry":{"type":"Point","coordinates":[127.509752,50.231367]},"properties":{"full_address":"黑龙江省黑河市爱辉区花园街道博文社区中房尚城小区1号楼2单元及2单元附属门市、5号楼4单元及4单元附属门市"}},{"type":"Feature","geometry":{"type":"Point","coordinates":[127.49554,50.243425]},"properties":{"full_address":"黑龙江省黑河市爱辉区兴安街道热电社区民政小区61号楼5单元、一建2号楼3单元"}},{"type":"Feature","geometry":{"type":"Point","coordinates":[127.478895,50.244896]},"properties":{"full_address":"黑龙江省黑河市爱辉区海兰街道温馨社区北国明珠小区7号楼1单元及1单元附属车库、18号楼2单元及2单元附属车库"}},{"type":"Feature","geometry":{"type":"Point","coordinates":[127.512173,50.218138]},"properties":{"full_address":"黑龙江省黑河市爱辉区二公河工业园区中小企业创业中心办公楼"}},{"type":"Feature","geometry":{"type":"Point","coordinates":[127.489122,50.246789]},"properties":{"full_address":"黑龙江省黑河市爱辉区海兰街道鹿源春社区金达之家小区民航家属楼6单元及6单元附属门市、国际公司改造楼2单元及2单元附属门市"}},{"type":"Feature","geometry":{"type":"Point","coordinates":[127.505825,50.233663]},"properties":{"full_address":"黑龙江省黑河市爱辉区花园街道长海社区国税小区1号楼4单元及4单元附属门市"}},{"type":"Feature","geometry":{"type":"Point","coordinates":[127.507217,50.246904]},"properties":{"full_address":"黑龙江省黑河市爱辉区花园街道网通社区楼中楼小区地开发30号楼3单元及3单元附属门市"}},{"type":"Feature","geometry":{"type":"Point","coordinates":[127.520241,50.242368]},"properties":{"full_address":"黑龙江省黑河市爱辉区花园街道金兰社区建行家属楼小区2号楼4单元"}},{"type":"Feature","geometry":{"type":"Point","coordinates":[127.533424,50.238059]},"properties":{"full_address":"黑龙江省黑河市爱辉区花园街道武庙屯社区华泰颐和国际小区3号楼2单元"}},{"type":"Feature","geometry":{"type":"Point","coordinates":[127.482755,50.251722]},"properties":{"full_address":"黑龙江省黑河市爱辉区西兴街道人保财险社区林业小区11区3号楼3单元"}},{"type":"Feature","geometry":{"type":"Point","coordinates":[127.487701,50.253547]},"properties":{"full_address":"黑龙江省黑河市爱辉区西兴街道人保财险社区节能小区7号楼3单元及3单元附属门市"}},{"type":"Feature","geometry":{"type":"Point","coordinates":[127.4195,50.1432]},"properties":{"full_address":"黑龙江省黑河市爱辉区锦河农场金河小区10号楼1单元"}},{"type":"Feature","geometry":{"type":"Point","coordinates":[126.72052,48.683955]},"properties":{"full_address":"黑龙江省黑河市爱辉区花园街道喇嘛台社区鸿城名苑小区 3 号楼 4 单元及 4 单元附属车库"}},{"type":"Feature","geometry":{"type":"Point","coordinates":[127.493629,50.2458]},"properties":{"full_address":"黑龙江省黑河市爱辉区兴安街道金融社区国信楼小区"}},{"type":"Feature","geometry":{"type":"Point","coordinates":[127.494526,50.253789]},"properties":{"full_address":"黑龙江省黑河市爱辉区海兰街道鹿源春社区恒基高层 3 单元及附属门市"}},{"type":"Feature","geometry":{"type":"Point","coordinates":[127.52282,50.238765]},"properties":{"full_address":"黑龙江省黑河市爱辉区花园街道网通社区交警队家属楼小区"}},{"type":"Feature","geometry":{"type":"Point","coordinates":[127.493629,50.2458]},"properties":{"full_address":"黑龙江省黑河市爱辉区兴安街道金融社区祥和景园小区8单元"}},{"type":"Feature","geometry":{"type":"Point","coordinates":[127.521516,50.237484]},"properties":{"full_address":"黑龙江省黑河市爱辉区花园街道博文社区昌辉雅典城小区 3 号楼 1 单元及 1 单元附属门市"}},{"type":"Feature","geometry":{"type":"Point","coordinates":[127.512145,50.241397]},"properties":{"full_address":"黑龙江省黑河市爱辉区花园街道联通社区建行小区农业小楼（独立单元楼）、 荣升久食杂店"}},{"type":"Feature","geometry":{"type":"Point","coordinates":[127.506147,50.2332]},"properties":{"full_address":"黑龙江省黑河市爱辉区花园街道长海社区国税小区 2 号楼 1 单元"}},{"type":"Feature","geometry":{"type":"Point","coordinates":[127.527376,50.232746]},"properties":{"full_address":"黑龙江省黑河市爱辉区花园街道喇嘛台社区荣耀世纪小区 11 号楼 5 单元及 5 单元附属车库"}},{"type":"Feature","geometry":{"type":"Point","coordinates":[127.509261,50.240156]},"properties":{"full_address":"黑龙江省黑河市爱辉区兴安街道金融社区锦江佳苑小区保险公司家属楼 2 单元及 2 单元附属门市"}},{"type":"Feature","geometry":{"type":"Point","coordinates":[127.474117,50.255179]},"properties":{"full_address":"黑龙江省黑河市爱辉区西兴街道向阳社区在水一方小区 4 号楼 2 单元及 2 单元附属门市、3 单元及 3 单元附属门市"}},{"type":"Feature","geometry":{"type":"Point","coordinates":[127.523979,50.239513]},"properties":{"full_address":"黑龙江省黑河市爱辉区兴安街道邮政社区松辽委小区中房94号楼4单元及4单元附属门市"}},{"type":"Feature","geometry":{"type":"Point","coordinates":[127.496451,50.242701]},"properties":{"full_address":"黑龙江省黑河市爱辉区兴安街道热电社区爱家佳苑小区2号楼2单元及2单元附属门市"}},{"type":"Feature","geometry":{"type":"Point","coordinates":[127.488387,50.241911]},"properties":{"full_address":"黑龙江省黑河市爱辉区兴安街道热电社区南湖雅苑小区17号楼2单元及2单元附属门市"}},{"type":"Feature","geometry":{"type":"Point","coordinates":[127.490963,50.2368]},"properties":{"full_address":"黑龙江省黑河市爱辉区兴安街道热电社区惠民小区9号地9号楼3单元"}},{"type":"Feature","geometry":{"type":"Point","coordinates":[127.498771,50.237077]},"properties":{"full_address":"黑龙江省黑河市爱辉区兴安街道热电社区新生活家园小区（铁路街）3号楼2单元"}},{"type":"Feature","geometry":{"type":"Point","coordinates":[127.483444,50.246046]},"properties":{"full_address":"黑龙江省黑河市爱辉区海兰街道温馨社区金地花园小区13号楼4单元及4单元附属门市"}},{"type":"Feature","geometry":{"type":"Point","coordinates":[127.489956,50.249542]},"properties":{"full_address":"黑龙江省黑河市爱辉区西兴街道福龙社区益民二区17区11号楼6单元及6单元附属车库"}},{"type":"Feature","geometry":{"type":"Point","coordinates":[127.489956,50.249542]},"properties":{"full_address":"黑龙江省黑河市爱辉区西兴街道福龙社区益民二区18区18号楼9单元及9单元附属门市"}},{"type":"Feature","geometry":{"type":"Point","coordinates":[127.52282,50.238765]},"properties":{"full_address":"黑龙江省黑河市爱辉区花园街道网通社区卧牛湖小区中房2开楼4单元及4单元附属门市"}},{"type":"Feature","geometry":{"type":"Point","coordinates":[127.517233,50.242845]},"properties":{"full_address":"黑龙江省黑河市爱辉区花园街道金兰社区园丁小区1号楼3单元及3单元附属门市"}},{"type":"Feature","geometry":{"type":"Point","coordinates":[127.515297,50.236049]},"properties":{"full_address":"黑龙江省黑河市爱辉区花园街道博文社区黑供小区2号楼3单元"}},{"type":"Feature","geometry":{"type":"Point","coordinates":[127.344707,49.425638]},"properties":{"full_address":"黑龙江省黑河市爱辉区花园街道喇嘛台社区尚品世纪经典小区7号楼3单元"}},{"type":"Feature","geometry":{"type":"Point","coordinates":[127.492289,50.24577]},"properties":{"full_address":"黑龙江省黑河市爱辉区海兰街道温馨社区盛世华庭小区1号楼1单元"}},{"type":"Feature","geometry":{"type":"Point","coordinates":[127.521283,50.234314]},"properties":{"full_address":"黑龙江省黑河市爱辉区花园街道博文社区安发家园小区8号楼5单元"}},{"type":"Feature","geometry":{"type":"Point","coordinates":[127.50025,50.249333]},"properties":{"full_address":"黑龙江省黑河市爱辉区兴安街道金融社区华富小区地开发 6 号楼及附属门市"}},{"type":"Feature","geometry":{"type":"Point","coordinates":[127.510382,50.230265]},"properties":{"full_address":"黑龙江省黑河市爱辉区花园街道博文社区尚品观景国际小区 8 号楼及附属车库"}},{"type":"Feature","geometry":{"type":"Point","coordinates":[127.52001,50.242435]},"properties":{"full_address":"黑龙江省黑河市爱辉区花园街道金兰社区海兰行小区 1 号楼及附属门市"}},{"type":"Feature","geometry":{"type":"Point","coordinates":[127.511584,50.239075]},"properties":{"full_address":"黑龙江省黑河市爱辉区花园街道长海社区地税家属楼小区（龙滨路）地税家属楼"}},{"type":"Feature","geometry":{"type":"Point","coordinates":[127.500209,50.2385]},"properties":{"full_address":"黑龙江省黑河市爱辉区花园街道长海社区黑龙大厦水利家属楼小区水利家属楼"}},{"type":"Feature","geometry":{"type":"Point","coordinates":[127.501442,50.245003]},"properties":{"full_address":"黑龙江省黑河市爱辉区兴安街道邮政社区西沟圣欣小区东兴路 96 号楼及附属门市"}},{"type":"Feature","geometry":{"type":"Point","coordinates":[127.52787,50.238199]},"properties":{"full_address":"黑龙江省黑河市爱辉区花园街道博文社区中超一期小区 2 号楼 2 单元及 2 单元附属门市、3 单元及 3 单元附属门市、4 单元及 4 单元附属门市"}},{"type":"Feature","geometry":{"type":"Point","coordinates":[127.497101,50.24162]},"properties":{"full_address":"黑龙江省黑河市爱辉区兴安街道热电社区艺苑小区 1 号楼 1 单元及 1 单元 附属门市、1 号楼二楼半及附属门市"}},{"type":"Feature","geometry":{"type":"Point","coordinates":[127.517396,50.237886]},"properties":{"full_address":"黑龙江省黑河市爱辉区西兴街道福龙社区粮保小区保险家属楼 1 单元及 1 单元附属车库门市"}},{"type":"Feature","geometry":{"type":"Point","coordinates":[127.545117,49.785786]},"properties":{"full_address":"黑龙江省黑河市爱辉区红色边疆农场福苑小区 3 号楼"}},{"type":"Feature","geometry":{"type":"Point","coordinates":[127.432203,50.003468]},"properties":{"full_address":"黑龙江省黑河市爱辉区瑷珲镇北三家子村一组 92 号—99 号"}},{"type":"Feature","geometry":{"type":"Point","coordinates":[127.499882,50.236724]},"properties":{"full_address":"黑龙江省黑河市爱辉区兴安街道热电社区惠民 12 号地小区 10 号楼及附属车库"}},{"type":"Feature","geometry":{"type":"Point","coordinates":[127.478792,50.244845]},"properties":{"full_address":"黑龙江省黑河市爱辉区海兰街道温馨社区北国明珠小区 11 号楼 1 单元及 1 单元附属车库"}},{"type":"Feature","geometry":{"type":"Point","coordinates":[127.493618,50.253114]},"properties":{"full_address":"黑龙江省黑河市爱辉区海兰街道鹿源春社区北港嘉园小区 2 单元及 2 单元附属门市"}},{"type":"Feature","geometry":{"type":"Point","coordinates":[127.475105,50.252831]},"properties":{"full_address":"黑龙江省黑河市爱辉区西兴街道向阳社区水岸阳光小区 18 号楼及附属车库"}},{"type":"Feature","geometry":{"type":"Point","coordinates":[127.493629,50.2458]},"properties":{"full_address":"黑龙江省黑河市爱辉区兴安街道金融社区兴林家园测绘楼小区测绘楼及附属门市"}},{"type":"Feature","geometry":{"type":"Point","coordinates":[127.497179,50.249071]},"properties":{"full_address":"黑龙江省黑河市爱辉区花园街道长海社区宏远小区宏鹏 1 号楼及附属门市车库"}},{"type":"Feature","geometry":{"type":"Point","coordinates":[127.533424,50.238059]},"properties":{"full_address":"黑龙江省黑河市爱辉区花园街道武庙屯社区华泰颐和国际小区 9 号楼 1 单元及 1 单元附属门市"}},{"type":"Feature","geometry":{"type":"Point","coordinates":[127.50132,50.250397]},"properties":{"full_address":"黑龙江省黑河市爱辉区花园街道喇嘛台社区学府佳苑小区 8 号楼及附属车库"}},{"type":"Feature","geometry":{"type":"Point","coordinates":[127.489956,50.249542]},"properties":{"full_address":"黑龙江省黑河市爱辉区西兴街道福龙社区益民二区 18 区 21 号楼 6 单元及 6 单元附属门市"}},{"type":"Feature","geometry":{"type":"Point","coordinates":[127.528206,50.2399]},"properties":{"full_address":"黑龙江省黑河市爱辉区花园街道武庙屯社区隆福家园小区 2 号楼"}},{"type":"Feature","geometry":{"type":"Point","coordinates":[127.530011,50.239083]},"properties":{"full_address":"黑龙江省黑河市爱辉区花园街道武庙屯社区大公馆小区 11 号楼 1 单元"}},{"type":"Feature","geometry":{"type":"Point","coordinates":[127.530701,50.237656]},"properties":{"full_address":"黑龙江省黑河市爱辉区花园街道武庙屯社区之路佳苑小区 11 号楼 1 单元"}},{"type":"Feature","geometry":{"type":"Point","coordinates":[127.528114,50.245159]},"properties":{"full_address":"黑龙江省黑河市爱辉区花园街道金兰社区华泰滨江锦苑小区 3 号楼 1 单元及 1 单元附属车库、2 单元及 2 单元附属车库"}},{"type":"Feature","geometry":{"type":"Point","coordinates":[127.486772,50.251868]},"properties":{"full_address":"黑龙江省黑河市爱辉区西兴街道人保财险社区林业 11 区 2 号楼 2 单元及 2 单元附属门市"}},{"type":"Feature","geometry":{"type":"Point","coordinates":[127.518173,50.240237]},"properties":{"full_address":"黑龙江省黑河市爱辉区花园街道长海社区社保集资楼小区 3 号楼及附属门市"}},{"type":"Feature","geometry":{"type":"Point","coordinates":[127.481946,50.240165]},"properties":{"full_address":"黑龙江省黑河市爱辉区海兰街道温馨社区阳光嘉园小区 3 号楼及附属车库"}},{"type":"Feature","geometry":{"type":"Point","coordinates":[127.477974,50.244343]},"properties":{"full_address":"黑龙江省黑河市爱辉区海兰街道温馨社区北国明珠二期小区 3 号楼 3 单元及 3 单元附属车库"}},{"type":"Feature","geometry":{"type":"Point","coordinates":[127.491933,50.245233]},"properties":{"full_address":"黑龙江省黑河市爱辉区海兰街道温馨社区建行小区建行 15 号楼及附属门市"}},{"type":"Feature","geometry":{"type":"Point","coordinates":[127.503329,50.236132]},"properties":{"full_address":"黑龙江省黑河市爱辉区花园街道长海社区华寓小区 5 号楼及附属车库、2 号楼 4 单元及 4 单元附属门市"}},{"type":"Feature","geometry":{"type":"Point","coordinates":[127.520241,50.242368]},"properties":{"full_address":"黑龙江省黑河市爱辉区花园街道金兰社区路桥小区路桥楼及附属车库"}},{"type":"Feature","geometry":{"type":"Point","coordinates":[127.512691,50.243996]},"properties":{"full_address":"黑龙江省黑河市爱辉区花园街道长海社区鹏瑞新起点小区 1 单元及 1 单元附属门市"}},{"type":"Feature","geometry":{"type":"Point","coordinates":[127.514015,50.239785]},"properties":{"full_address":"黑龙江省黑河市爱辉区花园街道长海社区龙滨花园小区 3 号楼及附属门市车库"}},{"type":"Feature","geometry":{"type":"Point","coordinates":[127.516246,50.240514]},"properties":{"full_address":"黑龙江省黑河市爱辉区花园街道长海社区金盾小区 1 号楼及附属门市"}},{"type":"Feature","geometry":{"type":"Point","coordinates":[127.505803,50.236145]},"properties":{"full_address":"黑龙江省黑河市爱辉区花园街道长海社区金通花园小区 2 号楼及附属门市"}},{"type":"Feature","geometry":{"type":"Point","coordinates":[127.527871,50.238199]},"properties":{"full_address":"黑龙江省黑河市爱辉区花园街道博文社区法院集资楼小区"}},{"type":"Feature","geometry":{"type":"Point","coordinates":[127.507401,50.241864]},"properties":{"full_address":"黑龙江省黑河市爱辉区花园街道联通社区教委集资楼 2 号楼及附属门市"}},{"type":"Feature","geometry":{"type":"Point","coordinates":[127.497957,50.252053]},"properties":{"full_address":"黑龙江省黑河市爱辉区海兰街道鹿源春社区保健佳苑小区妇幼保健院家属 楼及附属门市"}},{"type":"Feature","geometry":{"type":"Point","coordinates":[127.497957,50.252053]},"properties":{"full_address":"黑龙江省黑河市爱辉区海兰街道鹿源春社区中房家园小区中房 42 号楼及附属门市"}},{"type":"Feature","geometry":{"type":"Point","coordinates":[127.521516,50.237484]},"properties":{"full_address":"黑龙江省黑河市爱辉区花园街道博文社区昌辉雅典城小区 1 号楼及附属车库"}},{"type":"Feature","geometry":{"type":"Point","coordinates":[127.521391,50.234544]},"properties":{"full_address":"黑龙江省黑河市爱辉区花园街道博文社区安发小区 6 号楼及附属门市车库"}},{"type":"Feature","geometry":{"type":"Point","coordinates":[127.509689,50.241528]},"properties":{"full_address":"黑龙江省黑河市爱辉区花园街道长海社区学苑小区学苑 1 号楼及附属门市、学苑 2 号楼及附属门市车库"}},{"type":"Feature","geometry":{"type":"Point","coordinates":[127.493629,50.2458]},"properties":{"full_address":"黑龙江省黑河市爱辉区兴安街道金融社区华和小区节能 5 号楼及附属门市"}},{"type":"Feature","geometry":{"type":"Point","coordinates":[127.483444,50.246046]},"properties":{"full_address":"黑龙江省黑河市爱辉区海兰街道温馨社区金地花园小区 11 号楼及附属门市车库"}},{"type":"Feature","geometry":{"type":"Point","coordinates":[127.477974,50.244343]},"properties":{"full_address":"黑龙江省黑河市爱辉区海兰街道温馨社区北国明珠二期小区 1A 东楼及附 属门市"}},{"type":"Feature","geometry":{"type":"Point","coordinates":[127.41675,50.144056]},"properties":{"full_address":"黑龙江省黑河市爱辉区锦河农场 16 号楼"}},{"type":"Feature","geometry":{"type":"Point","coordinates":[127.519503,50.236365]},"properties":{"full_address":"黑龙江省黑河市爱辉区花园街道博文社区星辉小区 2 号楼及附属门市车库、6 号楼高层区及附属门市车库"}},{"type":"Feature","geometry":{"type":"Point","coordinates":[127.488992,50.240881]},"properties":{"full_address":"黑龙江省黑河市爱辉区兴安街道热电社区南湖雅苑小区 14 号楼及附属车库"}},{"type":"Feature","geometry":{"type":"Point","coordinates":[127.493629,50.2458]},"properties":{"full_address":"黑龙江省黑河市爱辉区兴安街道金融社区兴都家园小区广播局家属楼"}},{"type":"Feature","geometry":{"type":"Point","coordinates":[127.477342,50.247036]},"properties":{"full_address":"黑龙江省黑河市爱辉区西兴街道福龙社区立波家园小区 8 号楼、14 号楼"}},{"type":"Feature","geometry":{"type":"Point","coordinates":[127.489956,50.249542]},"properties":{"full_address":"黑龙江省黑河市爱辉区西兴街道福龙社区益民二区 16 区 8 号楼及附属门市车库"}},{"type":"Feature","geometry":{"type":"Point","coordinates":[127.477338,50.24906]},"properties":{"full_address":"黑龙江省黑河市爱辉区西兴街道福龙社区翰林雅居小区 7 号楼 3 单元"}},{"type":"Feature","geometry":{"type":"Point","coordinates":[127.470076,50.253777]},"properties":{"full_address":"黑龙江省黑河市爱辉区西兴街道向阳社区福临家园 3 号楼及附属门市"}},{"type":"Feature","geometry":{"type":"Point","coordinates":[127.520241,50.242368]},"properties":{"full_address":"黑龙江省黑河市爱辉区花园街道金兰社区工行家属楼小区 2 号楼及附属门市"}},{"type":"Feature","geometry":{"type":"Point","coordinates":[127.520125,50.233375]},"properties":{"full_address":"黑龙江省黑河市爱辉区花园街道博文社区中超三期小区 5 号楼及附属门市车库、8 号楼及附属门市车库"}},{"type":"Feature","geometry":{"type":"Point","coordinates":[127.493629,50.2458]},"properties":{"full_address":"黑龙江省黑河市爱辉区兴安街道金融社区华和小区闽龙 3 号楼及附属门市"}},{"type":"Feature","geometry":{"type":"Point","coordinates":[127.523979,50.239513]},"properties":{"full_address":"黑龙江省黑河市爱辉区兴安街道邮政社区松辽委小区松辽委商服楼"}},{"type":"Feature","geometry":{"type":"Point","coordinates":[127.475246,50.252667]},"properties":{"full_address":"黑龙江省黑河市爱辉区西兴街道向阳社区水岸阳光小区 21 号楼及附属车库"}},{"type":"Feature","geometry":{"type":"Point","coordinates":[127.477338,50.24906]},"properties":{"full_address":"黑龙江省黑河市爱辉区西兴街道福龙社区翰林雅居小区5号楼及附属门市、6号楼及附属门市"}},{"type":"Feature","geometry":{"type":"Point","coordinates":[127.583914,50.217807]},"properties":{"full_address":"黑龙江省黑河市爱辉区幸福乡长发村西6道街230号"}},{"type":"Feature","geometry":{"type":"Point","coordinates":[127.488731,50.241997]},"properties":{"full_address":"黑龙江省黑河市爱辉区兴安街道热电社区南湖雅苑小区新 8 号楼 1 单元及 1 单元附属车库、新 6 号楼 3 单元及 3 单元附属车库"}},{"type":"Feature","geometry":{"type":"Point","coordinates":[127.52282,50.238765]},"properties":{"full_address":"黑龙江省黑河市爱辉区花园街道网通社区楼中楼小区房产 34 号楼及附属门市"}},{"type":"Feature","geometry":{"type":"Point","coordinates":[127.49442,50.246545]},"properties":{"full_address":"黑龙江省黑河市爱辉区兴安街道金融社区建材小区地开发 8 号楼 2 单元及 2 单元附属门市、3 单元及 3 单元附属门市、4 单元及 4 单元附属门市、建材 2 号楼 9 单元及 9 单元附属门市"}},{"type":"Feature","geometry":{"type":"Point","coordinates":[127.520963,50.244837]},"properties":{"full_address":"黑龙江省黑河市爱辉区花园街道金兰社区世纪花园小区 12 号楼及附属车库"}},{"type":"Feature","geometry":{"type":"Point","coordinates":[127.518115,50.245177]},"properties":{"full_address":"黑龙江省黑河市爱辉区花园街道金兰社区世纪花园小区 14 号楼及附属车库"}},{"type":"Feature","geometry":{"type":"Point","coordinates":[127.52001028942799,50.2424333708876]},"properties":{"full_address":"黑龙江省黑河市爱辉区花园街道金兰社区公用局小区公用事业局 2 号楼及附属门市"}},{"type":"Feature","geometry":{"type":"Point","coordinates":[127.530701,50.237656]},"properties":{"full_address":"黑龙江省黑河市爱辉区花园街道武庙屯社区之路佳苑小区 5 号楼及附属车库"}},{"type":"Feature","geometry":{"type":"Point","coordinates":[127.509752,50.231367]},"properties":{"full_address":"黑龙江省黑河市爱辉区花园街道博文社区中房尚城小区 2 号楼 4 单元及 4 单元附属门市"}},{"type":"Feature","geometry":{"type":"Point","coordinates":[127.503331,50.23687]},"properties":{"full_address":"黑龙江省黑河市爱辉区花园街道长海社区华寓小区 2 号楼及附属门市"}},{"type":"Feature","geometry":{"type":"Point","coordinates":[127.499882,50.236724]},"properties":{"full_address":"黑龙江省黑河市爱辉区兴安街道热电社区惠民 11 号地小区 6 号楼及附属门市车库"}},{"type":"Feature","geometry":{"type":"Point","coordinates":[127.491881,50.252876]},"properties":{"full_address":"黑龙江省黑河市爱辉区海兰街道鹿源春社区宏运小区 2 号楼及附属门市"}},{"type":"Feature","geometry":{"type":"Point","coordinates":[127.497957,50.252053]},"properties":{"full_address":"黑龙江省黑河市爱辉区海兰街道鹿源春社区江滨楼及附属门市车库"}},{"type":"Feature","geometry":{"type":"Point","coordinates":[127.504605,50.238491]},"properties":{"full_address":"黑龙江省黑河市爱辉区花园街道长海社区龙滨嘉苑小区6号楼及附属车库、8号楼及附属车库"}},{"type":"Feature","geometry":{"type":"Point","coordinates":[127.497957,50.252053]},"properties":{"full_address":"黑龙江省黑河市爱辉区海兰街道鹿源春社区教委3号楼及附属门市"}},{"type":"Feature","geometry":{"type":"Point","coordinates":[127.497957,50.252053]},"properties":{"full_address":"黑龙江省黑河市爱辉区海兰街道鹿源春社区西城老居小区药厂楼1单元及1单元附属门市、2单元及2单元附属门市、3单元及3单元附属门市"}},{"type":"Feature","geometry":{"type":"Point","coordinates":[127.497957,50.252053]},"properties":{"full_address":"黑龙江省黑河市爱辉区海兰街道鹿源春社区热电商助小区热电商助2号楼及附属门市"}},{"type":"Feature","geometry":{"type":"Point","coordinates":[127.486965,50.255329]},"properties":{"full_address":"黑龙江省黑河市爱辉区西兴街道人保财险社区建信B区6号A栋"}},{"type":"Feature","geometry":{"type":"Point","coordinates":[127.482375,50.256592]},"properties":{"full_address":"黑龙江省黑河市爱辉区西兴街道人保财险社区水岸华府小区2号楼1单元及1单元附属门市"}},{"type":"Feature","geometry":{"type":"Point","coordinates":[127.488624,50.248131]},"properties":{"full_address":"黑龙江省黑河市爱辉区西兴街道向阳社区在水一方小区15号楼及附属门市车库"}},{"type":"Feature","geometry":{"type":"Point","coordinates":[127.4761,50.254385]},"properties":{"full_address":"黑龙江省黑河市爱辉区西兴街道向阳社区水岸阳光小区3号楼及附属门市"}},{"type":"Feature","geometry":{"type":"Point","coordinates":[127.478302,50.252668]},"properties":{"full_address":"黑龙江省黑河市爱辉区西兴街道福龙社区御景湾小区5号楼及附属门市车库、6号楼及附属门市车库"}},{"type":"Feature","geometry":{"type":"Point","coordinates":[127.479477,50.252221]},"properties":{"full_address":"黑龙江省黑河市爱辉区西兴街道福龙社区御景湾小区10号楼及附属车库"}},{"type":"Feature","geometry":{"type":"Point","coordinates":[127.499981,50.237648]},"properties":{"full_address":"黑龙江省黑河市爱辉区花园街道长海社区黑龙小区4号楼及附属门市"}},{"type":"Feature","geometry":{"type":"Point","coordinates":[127.499057,50.239274]},"properties":{"full_address":"黑龙江省黑河市爱辉区花园街道长海社区天丝小区D座8号楼及附属门市"}},{"type":"Feature","geometry":{"type":"Point","coordinates":[127.518173,50.240237]},"properties":{"full_address":"黑龙江省黑河市爱辉区花园街道长海社区土地水利小区土地局集资楼及附属门市"}},{"type":"Feature","geometry":{"type":"Point","coordinates":[127.515266,50.234344]},"properties":{"full_address":"黑龙江省黑河市爱辉区花园街道博文社区闽江佳苑小区4号楼及附属门市"}},{"type":"Feature","geometry":{"type":"Point","coordinates":[127.530011,50.239083]},"properties":{"full_address":"黑龙江省黑河市爱辉区花园街道武庙屯社区大公馆小区7号楼2单元及2单元附属门市"}},{"type":"Feature","geometry":{"type":"Point","coordinates":[127.52282,50.238765]},"properties":{"full_address":"黑龙江省黑河市爱辉区花园街道网通社区贝贝龙小区市房开59号楼及附属门市"}},{"type":"Feature","geometry":{"type":"Point","coordinates":[127.499882,50.236724]},"properties":{"full_address":"黑龙江省黑河市爱辉区兴安街道热电社区惠民11号地小区1号楼及附属门市"}},{"type":"Feature","geometry":{"type":"Point","coordinates":[127.491189,50.250171]},"properties":{"full_address":"黑龙江省黑河市爱辉区兴安街道邮政社区富绅小区区房产4号楼及附属门市、区房产21号楼及附属门市"}},{"type":"Feature","geometry":{"type":"Point","coordinates":[127.497957,50.252053]},"properties":{"full_address":"黑龙江省黑河市爱辉区海兰街道鹿源春社区兴成生活小区经贸委集资楼及附属门市"}},{"type":"Feature","geometry":{"type":"Point","coordinates":[127.515312,50.244316]},"properties":{"full_address":"黑龙江省黑河市爱辉区海兰街道鹿源春社区富原佳苑小区及附属门市"}},{"type":"Feature","geometry":{"type":"Point","coordinates":[127.475758,50.253601]},"properties":{"full_address":"黑龙江省黑河市爱辉区西兴街向阳社区水岸阳光小区10号楼3单元"}},{"type":"Feature","geometry":{"type":"Point","coordinates":[126.660137,51.733517]},"properties":{"full_address":"黑龙江省大兴安岭地区呼玛县龙腾小区1号、2号、3号楼"}},{"type":"Feature","geometry":{"type":"Point","coordinates":[126.668238,51.725499]},"properties":{"full_address":"黑龙江省大兴安岭地区呼玛县三村林海二巷"}},{"type":"Feature","geometry":{"type":"Point","coordinates":[121.227232,31.022778]},"properties":{"full_address":"上海市上海市松江区方松街道南期昌路459弄江虹小区"}},{"type":"Feature","geometry":{"type":"Point","coordinates":[121.078068,30.989475]},"properties":{"full_address":"上海市上海市青浦区练塘镇蒸夏村西至西泾江、东至贞溪北路、南至小蒸港、北至小蒸后河的区域"}},{"type":"Feature","geometry":{"type":"Point","coordinates":[115.985598,26.219995]},"properties":{"full_address":"江西省赣州市宁都县中山南路社区南东巷55号"}},{"type":"Feature","geometry":{"type":"Point","coordinates":[116.019457,26.464029]},"properties":{"full_address":"江西省赣州市宁都县城南社区城市便捷酒店"}},{"type":"Feature","geometry":{"type":"Point","coordinates":[116.006789,26.500742]},"properties":{"full_address":"江西省赣州市宁都县梅江镇迳口村胜利组"}},{"type":"Feature","geometry":{"type":"Point","coordinates":[116.006179,26.443535]},"properties":{"full_address":"江西省赣州市宁都县梅江镇高坑村富当塘小组"}},{"type":"Feature","geometry":{"type":"Point","coordinates":[116.003302,26.467213]},"properties":{"full_address":"江西省赣州市宁都县梅江镇土围村李面组"}},{"type":"Feature","geometry":{"type":"Point","coordinates":[115.433566,27.323948]},"properties":{"full_address":"江西省吉安市永丰县恩江镇肖家村（北至永丰大道，南至崇文大道，西至欧阳修大道，东至跃进西路)"}},{"type":"Feature","geometry":{"type":"Point","coordinates":[115.439045,27.316796]},"properties":{"full_address":"江西省吉安市永丰县恩江镇民主社区（北至崇文东大道、西至恩江南路、南至状元华府、东至永叔路）"}},{"type":"Feature","geometry":{"type":"Point","coordinates":[115.430788,27.319419]},"properties":{"full_address":"江西省吉安市永丰县恩江镇大园村（北至崇文大道、西至欧阳修南大道、南至祥和大道、东至恩江南大道)"}},{"type":"Feature","geometry":{"type":"Point","coordinates":[115.437873,27.320481]},"properties":{"full_address":"江西省吉安市永丰县恩江镇八一社区（北至跃进东路，西至恩江北路、南至崇文东大道、东至永叔路)"}},{"type":"Feature","geometry":{"type":"Point","coordinates":[115.424719,27.327904]},"properties":{"full_address":"江西省吉安市永丰县恩江镇傅家坝自然村（北至永丰大道，西和南至跃进西路，东至恩江北路）"}},{"type":"Feature","geometry":{"type":"Point","coordinates":[115.067152,33.408357]},"properties":{"full_address":"河南省周口市沈丘县沈丘县北城办事处小辛营行政村"}},{"type":"Feature","geometry":{"type":"Point","coordinates":[115.077206,33.392635]},"properties":{"full_address":"河南省周口市沈丘县沈丘县槐店回族镇金田市场"}},{"type":"Feature","geometry":{"type":"Point","coordinates":[109.389718,29.466184]},"properties":{"full_address":"湖北省恩施土家族苗族自治州来凤县翔凤镇来凤县第一中学"}},{"type":"Feature","geometry":{"type":"Point","coordinates":[109.39962,29.501206]},"properties":{"full_address":"湖北省恩施土家族苗族自治州来凤县翔凤镇星都汇小区2栋3单元"}},{"type":"Feature","geometry":{"type":"Point","coordinates":[109.411779,29.49538]},"properties":{"full_address":"湖北省恩施土家族苗族自治州来凤县翔凤镇夏威夷小区4栋1单元"}},{"type":"Feature","geometry":{"type":"Point","coordinates":[109.225286,29.569265]},"properties":{"full_address":"湖北省恩施土家族苗族自治州来凤县革勒车镇桐麻村"}},{"type":"Feature","geometry":{"type":"Point","coordinates":[109.426289,29.509767]},"properties":{"full_address":"湖北省恩施土家族苗族自治州来凤县翔凤镇大垭口村1组"}},{"type":"Feature","geometry":{"type":"Point","coordinates":[109.426289,29.509767]},"properties":{"full_address":"湖北省恩施土家族苗族自治州来凤县翔凤镇大垭口村4组"}},{"type":"Feature","geometry":{"type":"Point","coordinates":[114.192432,22.590078]},"properties":{"full_address":"广东省深圳市罗湖区东湖街道梧桐山社区茂仔村124号"}},{"type":"Feature","geometry":{"type":"Point","coordinates":[114.140912,22.548925]},"properties":{"full_address":"广东省深圳市罗湖区黄贝街道黄贝岭社区黄贝岭中村18、19、20、32、33、34、37、38、39栋"}},{"type":"Feature","geometry":{"type":"Point","coordinates":[114.145887,22.54816]},"properties":{"full_address":"广东省深圳市罗湖区黄贝街道新秀社区新秀村北区7栋"}},{"type":"Feature","geometry":{"type":"Point","coordinates":[114.120517,22.548521]},"properties":{"full_address":"广东省深圳市罗湖区东门街道立新社区立新花园10栋底层"}},{"type":"Feature","geometry":{"type":"Point","coordinates":[114.076108,22.543455]},"properties":{"full_address":"广东省深圳市福田区华富街道田面新村第19栋-第21栋、第25栋-第27栋、第32栋-第34栋"}},{"type":"Feature","geometry":{"type":"Point","coordinates":[114.08583,22.54274]},"properties":{"full_address":"广东省深圳市福田区华强北街道航苑大厦东座和西座（第4层-第30层）、都会100、华强广场C座和D座"}},{"type":"Feature","geometry":{"type":"Point","coordinates":[114.100966,22.538091]},"properties":{"full_address":"广东省深圳市福田区南园街道巴登村第17栋、第34栋-第35栋、第40栋-第41栋、第56栋-第58栋、第63栋"}},{"type":"Feature","geometry":{"type":"Point","coordinates":[114.046338,22.522263]},"properties":{"full_address":"广东省深圳市福田区沙头街道新洲祠堂村第60栋、第69栋"}},{"type":"Feature","geometry":{"type":"Point","coordinates":[114.082101,22.548233]},"properties":{"full_address":"广东省深圳市福田区华强北街道上步工业区402B栋"}},{"type":"Feature","geometry":{"type":"Point","coordinates":[114.092888,22.537251]},"properties":{"full_address":"广东省深圳市福田区南园街道沙埔头综合楼，沙埔头村东第2栋、东第4栋、东第6栋二单元、东第7栋、东第9栋-东第11栋、西第4栋、西第8栋一单元、西第10栋"}},{"type":"Feature","geometry":{"type":"Point","coordinates":[114.043523,22.519757]},"properties":{"full_address":"广东省深圳市福田区沙头街道沙尾西村第19-20栋、第38栋、第39栋、第40-41栋、第42栋、第43栋、第48栋-第52栋，沙尾东村第95-96栋、第103-104栋、第105-106栋、第112栋、第113栋，沙尾村沙尾综合楼A座"}},{"type":"Feature","geometry":{"type":"Point","coordinates":[114.859351,22.649146]},"properties":{"full_address":"广东省惠州市惠东县平海镇径口村元山村小组过径"}},{"type":"Feature","geometry":{"type":"Point","coordinates":[114.719489,22.967805]},"properties":{"full_address":"广东省惠州市惠东县平山街道丰居苑整栋"}},{"type":"Feature","geometry":{"type":"Point","coordinates":[114.4058,23.095478]},"properties":{"full_address":"广东省惠州市惠东县平山街道公园东1巷1号、3号及14号"}},{"type":"Feature","geometry":{"type":"Point","coordinates":[114.732818,22.978159]},"properties":{"full_address":"广东省惠州市惠东县平山街道龙湖苑3栋"}},{"type":"Feature","geometry":{"type":"Point","coordinates":[114.720293,22.969674]},"properties":{"full_address":"广东省惠州市惠东县平山街道升辉花园HB栋"}},{"type":"Feature","geometry":{"type":"Point","coordinates":[107.980066,21.541653]},"properties":{"full_address":"广西壮族自治区防城港市东兴市东兴镇花溪社区第8网格景秀路一巷（除景秀路一巷29号-39号（单号）外），景秀路33号、35号，黄花岗路91号、96号"}},{"type":"Feature","geometry":{"type":"Point","coordinates":[110.375995,18.794501]},"properties":{"full_address":"海南省省直辖县级行政单位万宁市万城镇中央坡道班（东至水渠，南至红专西路，西至丰南南路，北至人民西路）"}},{"type":"Feature","geometry":{"type":"Point","coordinates":[104.063161,30.687514]},"properties":{"full_address":"四川省成都市金牛区荷花池街道一环路北二段7号、西北桥北街100号"}},{"type":"Feature","geometry":{"type":"Point","coordinates":[104.06514,30.689103]},"properties":{"full_address":"四川省成都市金牛区西北桥东街1、3、5、7号"}},{"type":"Feature","geometry":{"type":"Point","coordinates":[104.066363,30.687453]},"properties":{"full_address":"四川省成都市金牛区北站西二路4（32栋）、6、20号"}},{"type":"Feature","geometry":{"type":"Point","coordinates":[105.592381,30.463196]},"properties":{"full_address":"四川省遂宁市船山区南翔一路3号机场小区B区"}},{"type":"Feature","geometry":{"type":"Point","coordinates":[105.559914,30.519073]},"properties":{"full_address":"四川省遂宁市船山区西山北路230号附5号"}},{"type":"Feature","geometry":{"type":"Point","coordinates":[105.559938,30.519146]},"properties":{"full_address":"四川省遂宁市船山区西山北路218号"}},{"type":"Feature","geometry":{"type":"Point","coordinates":[105.559124,30.519829]},"properties":{"full_address":"四川省遂宁市船山区西山北路597号附1号"}},{"type":"Feature","geometry":{"type":"Point","coordinates":[105.597119,30.531014]},"properties":{"full_address":"四川省遂宁市船山区东城绿洲A区"}},{"type":"Feature","geometry":{"type":"Point","coordinates":[105.602737,30.522102]},"properties":{"full_address":"四川省遂宁市船山区中央美邸"}},{"type":"Feature","geometry":{"type":"Point","coordinates":[105.56346,30.528078]},"properties":{"full_address":"四川省遂宁市船山区秀水街3号金海国际小区"}},{"type":"Feature","geometry":{"type":"Point","coordinates":[105.560852,30.54437]},"properties":{"full_address":"四川省遂宁市船山区新星路1号惠民小区"}},{"type":"Feature","geometry":{"type":"Point","coordinates":[105.607347,30.519353]},"properties":{"full_address":"四川省遂宁市船山区福熙美邸"}},{"type":"Feature","geometry":{"type":"Point","coordinates":[105.551769,30.470523]},"properties":{"full_address":"四川省遂宁市船山区华翔城5期"}},{"type":"Feature","geometry":{"type":"Point","coordinates":[105.561176,30.508373]},"properties":{"full_address":"四川省遂宁市船山区融创九樾府小区"}},{"type":"Feature","geometry":{"type":"Point","coordinates":[105.568848,30.519044]},"properties":{"full_address":"四川省遂宁市船山区遂州中路799号中国银行宿舍1、2栋"}},{"type":"Feature","geometry":{"type":"Point","coordinates":[105.579903,30.502161]},"properties":{"full_address":"四川省遂宁市船山区米市街瑞泽城市之心小区"}},{"type":"Feature","geometry":{"type":"Point","coordinates":[105.583994,30.50122]},"properties":{"full_address":"四川省遂宁市船山区梭子街8栋海琪安置房、12栋及速8酒店所在楼层"}},{"type":"Feature","geometry":{"type":"Point","coordinates":[105.576301,30.511478]},"properties":{"full_address":"四川省遂宁市船山区凯旋上路156号德源鲜兔汤锅城（田园店）所在楼栋"}},{"type":"Feature","geometry":{"type":"Point","coordinates":[105.576641,30.510853]},"properties":{"full_address":"四川省遂宁市船山区凯旋上路128号水利局宿舍3单元所在楼栋"}},{"type":"Feature","geometry":{"type":"Point","coordinates":[105.578955,30.506427]},"properties":{"full_address":"四川省遂宁市船山区三清街金碧文化小区全部区域"}},{"type":"Feature","geometry":{"type":"Point","coordinates":[105.582431,30.505959]},"properties":{"full_address":"四川省遂宁市船山区正兴北街20号（德东大厦）"}},{"type":"Feature","geometry":{"type":"Point","coordinates":[105.590324,30.499462]},"properties":{"full_address":"四川省遂宁市船山区凯东路247号楼；凯东路249号附1、2、3、4号楼；凯东路255号附1、3、5号楼；万兴大厦1栋、2栋"}},{"type":"Feature","geometry":{"type":"Point","coordinates":[105.590896,30.501708]},"properties":{"full_address":"四川省遂宁市船山区永乐街湖畔阳光里小区及楼下门面"}},{"type":"Feature","geometry":{"type":"Point","coordinates":[105.572072,30.519053]},"properties":{"full_address":"四川省遂宁市船山区金港名都北区14、15、16栋全部区域"}},{"type":"Feature","geometry":{"type":"Point","coordinates":[105.565238,30.526857]},"properties":{"full_address":"四川省遂宁市船山区秀水街山力苑小区、秀水街计生委宿舍以及再生资源宿舍全部区域"}},{"type":"Feature","geometry":{"type":"Point","coordinates":[105.606896,30.525765]},"properties":{"full_address":"四川省遂宁市船山区紫竹美庭"}},{"type":"Feature","geometry":{"type":"Point","coordinates":[105.568297,30.525475]},"properties":{"full_address":"四川省遂宁市船山区涪畔美庭"}},{"type":"Feature","geometry":{"type":"Point","coordinates":[105.564925,30.534622]},"properties":{"full_address":"四川省遂宁市船山区遂州北路327号小区及楼下门面"}},{"type":"Feature","geometry":{"type":"Point","coordinates":[105.607917,30.520336]},"properties":{"full_address":"四川省遂宁市船山区学府馨城"}},{"type":"Feature","geometry":{"type":"Point","coordinates":[105.581003,30.478157]},"properties":{"full_address":"四川省遂宁市船山区远成中心小区"}},{"type":"Feature","geometry":{"type":"Point","coordinates":[105.554041,30.531203]},"properties":{"full_address":"四川省遂宁市船山区明月路343号"}},{"type":"Feature","geometry":{"type":"Point","coordinates":[105.569981,30.532447]},"properties":{"full_address":"四川省遂宁市船山区兴和东街139号永明丽景"}},{"type":"Feature","geometry":{"type":"Point","coordinates":[105.56716,30.531478]},"properties":{"full_address":"四川省遂宁市船山区飞虹街6号"}},{"type":"Feature","geometry":{"type":"Point","coordinates":[105.564588,30.509785]},"properties":{"full_address":"四川省遂宁市船山区西山北路249号"}},{"type":"Feature","geometry":{"type":"Point","coordinates":[105.568469,30.535128]},"properties":{"full_address":"四川省遂宁市船山区蜀秀东街水都豪庭"}},{"type":"Feature","geometry":{"type":"Point","coordinates":[105.609163,30.494511]},"properties":{"full_address":"四川省遂宁市船山区江南美邸"}},{"type":"Feature","geometry":{"type":"Point","coordinates":[105.563952,30.539347]},"properties":{"full_address":"四川省遂宁市船山区北固西街北小区"}},{"type":"Feature","geometry":{"type":"Point","coordinates":[105.567344,30.534671]},"properties":{"full_address":"四川省遂宁市船山区北兴社区轴瓦厂宿舍"}},{"type":"Feature","geometry":{"type":"Point","coordinates":[105.561601,30.519089]},"properties":{"full_address":"四川省遂宁市船山区西山路嘉禾苑"}},{"type":"Feature","geometry":{"type":"Point","coordinates":[105.565538,30.535225]},"properties":{"full_address":"四川省遂宁市船山区遂州北路380号飞虹街鑫安大楼"}},{"type":"Feature","geometry":{"type":"Point","coordinates":[105.580194,30.500428]},"properties":{"full_address":"四川省遂宁市船山区西山路人民银行宿舍"}},{"type":"Feature","geometry":{"type":"Point","coordinates":[105.568686,30.540142]},"properties":{"full_address":"四川省遂宁市船山区未来城小区"}},{"type":"Feature","geometry":{"type":"Point","coordinates":[105.565749,30.551061]},"properties":{"full_address":"四川省遂宁市船山区滨江北路1365号北滨郡府"}},{"type":"Feature","geometry":{"type":"Point","coordinates":[105.569389,30.529512]},"properties":{"full_address":"四川省遂宁市船山区上江城"}},{"type":"Feature","geometry":{"type":"Point","coordinates":[105.587854,30.538649]},"properties":{"full_address":"四川省遂宁市船山区保利江语城二期"}},{"type":"Feature","geometry":{"type":"Point","coordinates":[105.568121,30.459761]},"properties":{"full_address":"四川省遂宁市船山区克拉中心"}},{"type":"Feature","geometry":{"type":"Point","coordinates":[105.580053,30.507226]},"properties":{"full_address":"四川省遂宁市船山区遂宁市船山区凯旋中路83号、凯旋中路101号小区"}},{"type":"Feature","geometry":{"type":"Point","coordinates":[105.56891,30.440602]},"properties":{"full_address":"四川省遂宁市船山区保升镇保升村2社"}},{"type":"Feature","geometry":{"type":"Point","coordinates":[105.609772,30.524014]},"properties":{"full_address":"四川省遂宁市船山区龙腾御景"}},{"type":"Feature","geometry":{"type":"Point","coordinates":[105.584977,30.50495]},"properties":{"full_address":"四川省遂宁市船山区老兴街中药材公司职工宿舍所在楼栋及楼下门面"}},{"type":"Feature","geometry":{"type":"Point","coordinates":[105.603698,30.485984]},"properties":{"full_address":"四川省遂宁市船山区遂州南路224号小区1、2、3、4栋（棉麻小区）和遂州南路228号所属楼栋（含226号、228号、230号、232号）"}},{"type":"Feature","geometry":{"type":"Point","coordinates":[105.566558,30.5209]},"properties":{"full_address":"四川省遂宁市船山区燕山街45号，燕山街45号附1、2号，燕山街49号附1、2、3、4、5、6、7、8、9、10、11、12、13号，燕山街51号以及燕山街53号所在楼栋及楼下门面"}},{"type":"Feature","geometry":{"type":"Point","coordinates":[105.563703,30.522277]},"properties":{"full_address":"四川省遂宁市船山区燕栖街100号、102号所在楼栋及楼下门面"}},{"type":"Feature","geometry":{"type":"Point","coordinates":[105.591733,30.502703]},"properties":{"full_address":"四川省遂宁市船山区永乐街莲花小区全部区域"}},{"type":"Feature","geometry":{"type":"Point","coordinates":[105.588139,30.501472]},"properties":{"full_address":"四川省遂宁市船山区天茂街8栋、10栋所在楼栋和楼下门面"}},{"type":"Feature","geometry":{"type":"Point","coordinates":[105.592812,30.495901]},"properties":{"full_address":"四川省遂宁市船山区天宫北路15号附1、2、3、4号楼所在楼栋"}},{"type":"Feature","geometry":{"type":"Point","coordinates":[105.562525,30.525901]},"properties":{"full_address":"四川省遂宁市船山区金色海岸康吉小苑全部17个单元"}},{"type":"Feature","geometry":{"type":"Point","coordinates":[105.592155,30.498115]},"properties":{"full_address":"四川省遂宁市船山区彩虹街189号所有单元楼及楼下门面，天宫路232号、196号、198号所有单元楼及楼下门面"}},{"type":"Feature","geometry":{"type":"Point","coordinates":[105.580639,30.488178]},"properties":{"full_address":"四川省遂宁市船山区西宁大道5号西墅庄园"}},{"type":"Feature","geometry":{"type":"Point","coordinates":[105.559441,30.523195]},"properties":{"full_address":"四川省遂宁市船山区西山北路288号近水楼台"}},{"type":"Feature","geometry":{"type":"Point","coordinates":[105.568366,30.542773]},"properties":{"full_address":"四川省遂宁市船山区九莲东街九莲小区"}},{"type":"Feature","geometry":{"type":"Point","coordinates":[105.563408,30.535387]},"properties":{"full_address":"四川省遂宁市船山区北兴街鸿雁花园小区"}},{"type":"Feature","geometry":{"type":"Point","coordinates":[105.553923,30.533213]},"properties":{"full_address":"四川省遂宁市船山区北兴御景山小区"}},{"type":"Feature","geometry":{"type":"Point","coordinates":[105.561544,30.531716]},"properties":{"full_address":"四川省遂宁市船山区天峰街56号"}},{"type":"Feature","geometry":{"type":"Point","coordinates":[105.568199,30.533183]},"properties":{"full_address":"四川省遂宁市船山区飞虹街55栋"}},{"type":"Feature","geometry":{"type":"Point","coordinates":[105.565193,30.534271]},"properties":{"full_address":"四川省遂宁市船山区遂州北路汉庭酒店"}},{"type":"Feature","geometry":{"type":"Point","coordinates":[105.565328,30.540197]},"properties":{"full_address":"四川省遂宁市船山区遂州北路558号益和苑小区"}},{"type":"Feature","geometry":{"type":"Point","coordinates":[105.574142,30.504718]},"properties":{"full_address":"四川省遂宁市船山区城河北街159号顺和公寓及楼下平房"}},{"type":"Feature","geometry":{"type":"Point","coordinates":[105.574164,30.510542]},"properties":{"full_address":"四川省遂宁市船山区凯旋上路227号所在楼栋全部5个单元"}},{"type":"Feature","geometry":{"type":"Point","coordinates":[105.585257,30.503291]},"properties":{"full_address":"四川省遂宁市船山区公园东路86号所在楼栋1、2、3单元和公园东路122号所在楼栋1、2、3单元全部区域及楼下门面"}},{"type":"Feature","geometry":{"type":"Point","coordinates":[105.565247,30.525099]},"properties":{"full_address":"四川省遂宁市船山区嘉禾西路北1巷、2巷、3巷、4巷、5巷、6巷全部区域及楼下门面"}},{"type":"Feature","geometry":{"type":"Point","coordinates":[105.56255,30.523179]},"properties":{"full_address":"四川省遂宁市船山区嘉禾西路“公交公司宿舍”整栋楼（含5个单元）及楼下门面"}},{"type":"Feature","geometry":{"type":"Point","coordinates":[105.588348,30.493601]},"properties":{"full_address":"四川省遂宁市船山区放马桥二巷1号、2号、3号、4号、5号、6号、7号、27号、34号所在楼栋及楼下门面和金城街34号、32号附1号、32号、30号、28号、26号、24号、22号、20号、18号、16号、14号、12号、10号、8号、6号、4号、2号所在楼栋及楼下门面"}},{"type":"Feature","geometry":{"type":"Point","coordinates":[105.587806,30.497116]},"properties":{"full_address":"四川省遂宁市船山区凯东路凯南一巷9栋、10栋、14栋和凯南二巷11号、12号、13号所在楼栋以及凯南二巷2栋"}},{"type":"Feature","geometry":{"type":"Point","coordinates":[105.576747,30.501623]},"properties":{"full_address":"四川省遂宁市船山区德胜西路112号新印刷厂宿舍全部5个单元及楼下门面和城河北街21号德轩大厦全部7个单元及楼下门面"}},{"type":"Feature","geometry":{"type":"Point","coordinates":[105.448713,30.355815]},"properties":{"full_address":"四川省遂宁市安居区凤凰街道绿逸凤凰小区"}},{"type":"Feature","geometry":{"type":"Point","coordinates":[105.399982,30.51141]},"properties":{"full_address":"四川省遂宁市安居区常理镇铜钱村全域"}},{"type":"Feature","geometry":{"type":"Point","coordinates":[106.708091,26.586534]},"properties":{"full_address":"贵州省贵阳市云岩区中华北路与延安中路、人民大道、黔灵西路的合围区域"}},{"type":"Feature","geometry":{"type":"Point","coordinates":[106.696924,26.587578]},"properties":{"full_address":"贵州省贵阳市云岩区北京西路与枣山路、英烈路、双峰路的合围区域"}},{"type":"Feature","geometry":{"type":"Point","coordinates":[106.729837,26.584915]},"properties":{"full_address":"贵州省贵阳市云岩区旭东路与巫峰路、扶风路、东山电视塔、龙砚东山外围、螺蛳山路的合围区域"}},{"type":"Feature","geometry":{"type":"Point","coordinates":[106.691978,26.582271]},"properties":{"full_address":"贵州省贵阳市云岩区英烈路与双峰路、省计量检测院、海马冲路的合围区域"}},{"type":"Feature","geometry":{"type":"Point","coordinates":[106.71824,26.607185]},"properties":{"full_address":"贵州省贵阳市云岩区沙河花园一期A1-A2、B-D栋、5-7栋区域"}},{"type":"Feature","geometry":{"type":"Point","coordinates":[106.702711,26.57863]},"properties":{"full_address":"贵州省贵阳市云岩区浣沙巷2号香狮华龙商住楼"}},{"type":"Feature","geometry":{"type":"Point","coordinates":[106.717198,26.593192]},"properties":{"full_address":"贵州省贵阳市云岩区黔灵镇小井组与平安小区的连片区域"}},{"type":"Feature","geometry":{"type":"Point","coordinates":[106.670348,26.472768]},"properties":{"full_address":"贵州省贵阳市花溪区花溪大道南段1166号1栋"}},{"type":"Feature","geometry":{"type":"Point","coordinates":[106.67675,26.438484]},"properties":{"full_address":"贵州省贵阳市花溪区中铁城社区亨特·翰林溪苑小区（商品房1栋-12栋）"}},{"type":"Feature","geometry":{"type":"Point","coordinates":[106.66767,26.476068]},"properties":{"full_address":"贵州省贵阳市花溪区竹林社区农贸市场"}},{"type":"Feature","geometry":{"type":"Point","coordinates":[106.670348,26.472768]},"properties":{"full_address":"贵州省贵阳市花溪区花溪大道南段1166号3栋"}},{"type":"Feature","geometry":{"type":"Point","coordinates":[106.674693,26.461041]},"properties":{"full_address":"贵州省贵阳市花溪区董家堰村二组214号-220号"}},{"type":"Feature","geometry":{"type":"Point","coordinates":[106.669123,26.474038]},"properties":{"full_address":"贵州省贵阳市花溪区大职路溪北安置房"}},{"type":"Feature","geometry":{"type":"Point","coordinates":[106.816665,26.640715]},"properties":{"full_address":"贵州省贵阳市乌当区东风镇新街路1号、42号"}},{"type":"Feature","geometry":{"type":"Point","coordinates":[105.290221,27.315245]},"properties":{"full_address":"贵州省毕节市七星关区市东街道香山郦居11栋"}},{"type":"Feature","geometry":{"type":"Point","coordinates":[105.289493,27.309772]},"properties":{"full_address":"贵州省毕节市七星关区毕节八中"}},{"type":"Feature","geometry":{"type":"Point","coordinates":[105.288636,27.29718]},"properties":{"full_address":"贵州省毕节市七星关区以六洞桥加油站为起点，沿倒天河左侧往南，顺倒天河下行到人民公园，沿拥军路北侧到电力公司，沿桂花路至威宁路转松山路至福音堂合围区域"}},{"type":"Feature","geometry":{"type":"Point","coordinates":[105.277665,27.309232]},"properties":{"full_address":"贵州省毕节市七星关区以福音堂为起点，沿松山路至环城北路，沿环城北路至草海大道至茶亭枢纽道毕节绕城高速，以绕城高速为界，至文笔路合围区域"}},{"type":"Feature","geometry":{"type":"Point","coordinates":[105.279437,27.299738]},"properties":{"full_address":"贵州省毕节市七星关区从环城北路沿松山路至威宁路，向老客车站方向，沿环城北路往六洞桥方向到松山路口合围区域"}},{"type":"Feature","geometry":{"type":"Point","coordinates":[105.281029,27.286116]},"properties":{"full_address":"贵州省毕节市七星关区洪山路往南到市电视台，跨碧阳大道沿洪南路南段（覆盖瑞丰新城所有区域）至深圳路交叉处，向西沿阳山隧道与草海大道交叉处，沿草海大道、翠屏路、威宁路、桂花路至洪山路合围区域"}},{"type":"Feature","geometry":{"type":"Point","coordinates":[105.506629,27.202786]},"properties":{"full_address":"贵州省毕节市七星关区双山镇高坪村"}},{"type":"Feature","geometry":{"type":"Point","coordinates":[106.251259,27.554169]},"properties":{"full_address":"贵州省毕节市七星关区青龙街道中屯社区利盈环保科技有限公司"}},{"type":"Feature","geometry":{"type":"Point","coordinates":[105.282085,27.314823]},"properties":{"full_address":"贵州省毕节市七星关区青龙街道金钟社区水井路9号"}},{"type":"Feature","geometry":{"type":"Point","coordinates":[105.28686,27.289254]},"properties":{"full_address":"贵州省毕节市七星关区从洪山路垭口开始，沿南环路至毕节市第三人民医院，向南沿百里杜鹃路至观邸小区，向西顺碧阳大道至毕节市生态环保局，向北沿洪山路至南环路口合围区域（不含其中的中国石化加油站、消防一中队南环东路中队、毕节市第三人民医院）"}},{"type":"Feature","geometry":{"type":"Point","coordinates":[106.103803,26.629643]},"properties":{"full_address":"贵州省毕节市织金县马场镇陈家寨村"}},{"type":"Feature","geometry":{"type":"Point","coordinates":[106.099528,26.612336]},"properties":{"full_address":"贵州省毕节市织金县马场镇过弓村"}},{"type":"Feature","geometry":{"type":"Point","coordinates":[106.085829,26.644492]},"properties":{"full_address":"贵州省毕节市织金县马场镇鸡场坝村"}},{"type":"Feature","geometry":{"type":"Point","coordinates":[106.115181,26.656631]},"properties":{"full_address":"贵州省毕节市织金县马场镇龙井村"}},{"type":"Feature","geometry":{"type":"Point","coordinates":[106.07476,26.638348]},"properties":{"full_address":"贵州省毕节市织金县马场镇马家屯村"}},{"type":"Feature","geometry":{"type":"Point","coordinates":[106.085575,26.628254]},"properties":{"full_address":"贵州省毕节市织金县马场镇马场村"}},{"type":"Feature","geometry":{"type":"Point","coordinates":[106.039034,26.541212]},"properties":{"full_address":"贵州省毕节市织金县猫场镇齐心村"}},{"type":"Feature","geometry":{"type":"Point","coordinates":[106.017339,26.534112]},"properties":{"full_address":"贵州省毕节市织金县猫场镇新寨村"}},{"type":"Feature","geometry":{"type":"Point","coordinates":[105.96679,26.526483]},"properties":{"full_address":"贵州省毕节市织金县猫场镇国江村"}},{"type":"Feature","geometry":{"type":"Point","coordinates":[106.04314,26.53954]},"properties":{"full_address":"贵州省毕节市织金县猫场镇和平村"}},{"type":"Feature","geometry":{"type":"Point","coordinates":[106.000776,26.529955]},"properties":{"full_address":"贵州省毕节市织金县猫场镇四甲村"}},{"type":"Feature","geometry":{"type":"Point","coordinates":[106.061251,26.552744]},"properties":{"full_address":"贵州省毕节市织金县猫场镇大水田村"}},{"type":"Feature","geometry":{"type":"Point","coordinates":[106.040025,26.533625]},"properties":{"full_address":"贵州省毕节市织金县猫场镇高克村"}},{"type":"Feature","geometry":{"type":"Point","coordinates":[106.046193,26.554009]},"properties":{"full_address":"贵州省毕节市织金县猫场镇大寨村"}},{"type":"Feature","geometry":{"type":"Point","coordinates":[106.056078,26.566574]},"properties":{"full_address":"贵州省毕节市织金县猫场镇龙潭村"}},{"type":"Feature","geometry":{"type":"Point","coordinates":[106.058853,26.52341]},"properties":{"full_address":"贵州省毕节市织金县猫场镇窑上村"}},{"type":"Feature","geometry":{"type":"Point","coordinates":[105.986785,26.509234]},"properties":{"full_address":"贵州省毕节市织金县猫场镇凤平村"}},{"type":"Feature","geometry":{"type":"Point","coordinates":[106.073249,26.495172]},"properties":{"full_address":"贵州省毕节市织金县上坪寨乡建明村"}},{"type":"Feature","geometry":{"type":"Point","coordinates":[105.992695,26.607853]},"properties":{"full_address":"贵州省毕节市织金县牛场镇大坝村"}},{"type":"Feature","geometry":{"type":"Point","coordinates":[105.718881,26.761935]},"properties":{"full_address":"贵州省毕节市织金县惠民街道涌潮社区沙批冲以南、厦蓉高速以北、麻窝冲以东、岩洞门口以西的合围区域"}},{"type":"Feature","geometry":{"type":"Point","coordinates":[105.766133,26.666463]},"properties":{"full_address":"贵州省毕节市织金县文腾街道宏洲路口入口往北、西湖路通城大道入口往东、174老职工宿舍后山往东北、水乡4号地块往西的合围区域"}},{"type":"Feature","geometry":{"type":"Point","coordinates":[105.762749,26.669161]},"properties":{"full_address":"贵州省毕节市织金县文腾街道花卉路至河滨路往西、县林业局路口往北、金河湾停车场路口往东、交警队停车场往西的合围区域"}},{"type":"Feature","geometry":{"type":"Point","coordinates":[104.718876,27.11909]},"properties":{"full_address":"贵州省毕节市纳雍县雍熙街道公园社区汇金国际小区家乐福超市门口起沿县府街接二中路，接汇金国际小区南门绕D栋、C栋及幼儿园房屋后面合围区域"}},{"type":"Feature","geometry":{"type":"Point","coordinates":[105.377177,26.595812]},"properties":{"full_address":"贵州省毕节市纳雍县居仁街道桃园社区大山林组"}},{"type":"Feature","geometry":{"type":"Point","coordinates":[105.377761,26.763971]},"properties":{"full_address":"贵州省毕节市纳雍县居仁街道桃园社区中寨组"}},{"type":"Feature","geometry":{"type":"Point","coordinates":[105.38142,26.767767]},"properties":{"full_address":"贵州省毕节市纳雍县文昌街道文昌社区茶林组沿环城路，从思梦床上用品店往下至文昌社区卫生室环城点旁，接便道路往下，接茶林组杜家湾通组路往下至纳雍彭荣酒厂对面，接便道路往上，接环城路思梦床上用品店合围区域"}},{"type":"Feature","geometry":{"type":"Point","coordinates":[105.417941,26.762909]},"properties":{"full_address":"贵州省毕节市纳雍县珙桐街道白水河社区纳雍一中、思源实验学校、香域蓝湾与瑞府财富天街合围区域"}},{"type":"Feature","geometry":{"type":"Point","coordinates":[102.590723,24.954821]},"properties":{"full_address":"云南省昆明市安宁市云南朗明印务有限公司"}},{"type":"Feature","geometry":{"type":"Point","coordinates":[102.584563,24.952422]},"properties":{"full_address":"云南省昆明市安宁市太平新城街道太平老村"}},{"type":"Feature","geometry":{"type":"Point","coordinates":[102.587167,24.952202]},"properties":{"full_address":"云南省昆明市安宁市太平新村"}},{"type":"Feature","geometry":{"type":"Point","coordinates":[98.830305,23.759758]},"properties":{"full_address":"云南省临沧市镇康县南伞镇学子路2号"}},{"type":"Feature","geometry":{"type":"Point","coordinates":[103.163702,22.602969]},"properties":{"full_address":"云南省红河哈尼族彝族自治州金平苗族瑶族傣族自治县金水河镇那发街"}},{"type":"Feature","geometry":{"type":"Point","coordinates":[103.084785,22.662339]},"properties":{"full_address":"云南省红河哈尼族彝族自治州金平苗族瑶族傣族自治县勐拉镇供销社农贸市场"}},{"type":"Feature","geometry":{"type":"Point","coordinates":[103.163702,22.602969]},"properties":{"full_address":"云南省红河哈尼族彝族自治州金平苗族瑶族傣族自治县金水河镇曼棚村"}},{"type":"Feature","geometry":{"type":"Point","coordinates":[103.085268,22.6618]},"properties":{"full_address":"云南省红河哈尼族彝族自治州金平苗族瑶族傣族自治县勐拉镇阿刀烧烤店"}},{"type":"Feature","geometry":{"type":"Point","coordinates":[98.077316,24.080533]},"properties":{"full_address":"云南省德宏傣族景颇族自治州瑞丽市畹町镇国防街社区小菜园及周边片区"}},{"type":"Feature","geometry":{"type":"Point","coordinates":[98.06534,24.077361]},"properties":{"full_address":"云南省德宏傣族景颇族自治州瑞丽市畹町镇民主街社区民主街片区"}},{"type":"Feature","geometry":{"type":"Point","coordinates":[97.85855,23.989484]},"properties":{"full_address":"云南省德宏傣族景颇族自治州瑞丽市勐卯镇团结村委会广拉一社31-33号、178号、288号"}},{"type":"Feature","geometry":{"type":"Point","coordinates":[97.852712,23.990545]},"properties":{"full_address":"云南省德宏傣族景颇族自治州瑞丽市勐卯街道团结村委会滇弄一村民小组南片区网格F区、G区第A51号、A55-1号、A59号、A60号、A61号"}},{"type":"Feature","geometry":{"type":"Point","coordinates":[91.155745,29.666153]},"properties":{"full_address":"西藏自治区拉萨市城关区加荣社区"}},{"type":"Feature","geometry":{"type":"Point","coordinates":[91.134504,29.651852]},"properties":{"full_address":"西藏自治区拉萨市城关区冲赛康社区"}},{"type":"Feature","geometry":{"type":"Point","coordinates":[91.100535,29.668551]},"properties":{"full_address":"西藏自治区拉萨市城关区功德林街道拉鲁社区"}},{"type":"Feature","geometry":{"type":"Point","coordinates":[91.13529,29.64676]},"properties":{"full_address":"西藏自治区拉萨市城关区绕赛社区（江苏路以北）"}},{"type":"Feature","geometry":{"type":"Point","coordinates":[91.132813,29.652227]},"properties":{"full_address":"西藏自治区拉萨市城关区夏萨苏社区"}},{"type":"Feature","geometry":{"type":"Point","coordinates":[91.119249,29.694817]},"properties":{"full_address":"西藏自治区拉萨市城关区娘热街道仁钦蔡村"}},{"type":"Feature","geometry":{"type":"Point","coordinates":[91.078353,29.644964]},"properties":{"full_address":"西藏自治区拉萨市城关区金珠西路街道八一社区（除一、二、三、六网格）"}},{"type":"Feature","geometry":{"type":"Point","coordinates":[108.68406821869107,34.3426421212787]},"properties":{"full_address":"陕西省咸阳市秦都区西城国际小区4号楼2单元"}},{"type":"Feature","geometry":{"type":"Point","coordinates":[108.670333,34.327206]},"properties":{"full_address":"陕西省咸阳市秦都区渭阳西路街道彩虹二区社区阳光帝都小区"}},{"type":"Feature","geometry":{"type":"Point","coordinates":[104.466164,37.053815]},"properties":{"full_address":"甘肃省白银市靖远县双龙镇永和村"}},{"type":"Feature","geometry":{"type":"Point","coordinates":[104.992558,37.01016]},"properties":{"full_address":"甘肃省白银市靖远县东升镇唐庄村"}},{"type":"Feature","geometry":{"type":"Point","coordinates":[104.979752,37.017239]},"properties":{"full_address":"甘肃省白银市靖远县东升镇东兴村"}},{"type":"Feature","geometry":{"type":"Point","coordinates":[105.035182,36.986949]},"properties":{"full_address":"甘肃省白银市靖远县东升镇柴辛村全域"}},{"type":"Feature","geometry":{"type":"Point","coordinates":[105.25567,36.815874]},"properties":{"full_address":"甘肃省白银市靖远县靖安乡陆合新村全域"}},{"type":"Feature","geometry":{"type":"Point","coordinates":[105.227061,36.874071]},"properties":{"full_address":"甘肃省白银市靖远县靖安乡新合村全域"}},{"type":"Feature","geometry":{"type":"Point","coordinates":[102.801092,35.876142]},"properties":{"full_address":"青海省海东市民和回族土族自治县官亭镇全域"}},{"type":"Feature","geometry":{"type":"Point","coordinates":[102.531735,35.972775]},"properties":{"full_address":"青海省海东市化隆回族自治县 金源乡科上村"}},{"type":"Feature","geometry":{"type":"Point","coordinates":[102.529951,35.934096]},"properties":{"full_address":"青海省海东市化隆回族自治县 金源乡科下村"}},{"type":"Feature","geometry":{"type":"Point","coordinates":[90.80729,38.250777]},"properties":{"full_address":"青海省海西蒙古族藏族自治州茫崖市中铁青藏集团公司花土沟站"}},{"type":"Feature","geometry":{"type":"Point","coordinates":[106.208455,37.805893]},"properties":{"full_address":"宁夏回族自治区吴忠市利通区扁担沟镇高糜子湾村"}},{"type":"Feature","geometry":{"type":"Point","coordinates":[106.25099,37.91013]},"properties":{"full_address":"宁夏回族自治区吴忠市利通区金银滩镇团庄村"}},{"type":"Feature","geometry":{"type":"Point","coordinates":[105.436524,37.471697]},"properties":{"full_address":"宁夏回族自治区中卫市沙坡头区宣和镇宣和村"}},{"type":"Feature","geometry":{"type":"Point","coordinates":[105.658033,37.51781]},"properties":{"full_address":"宁夏回族自治区中卫市中宁县枸杞交易中心"}},{"type":"Feature","geometry":{"type":"Point","coordinates":[105.661589,37.512805]},"properties":{"full_address":"宁夏回族自治区中卫市中宁县枸杞加工城"}},{"type":"Feature","geometry":{"type":"Point","coordinates":[105.6603,37.519288]},"properties":{"full_address":"宁夏回族自治区中卫市中宁县江景公寓"}},{"type":"Feature","geometry":{"type":"Point","coordinates":[105.67842,37.504194]},"properties":{"full_address":"宁夏回族自治区中卫市中宁县福康花园"}},{"type":"Feature","geometry":{"type":"Point","coordinates":[105.678749,37.484839]},"properties":{"full_address":"宁夏回族自治区中卫市中宁县人民医院家属院"}},{"type":"Feature","geometry":{"type":"Point","coordinates":[105.666671,37.507065]},"properties":{"full_address":"宁夏回族自治区中卫市中宁县宁安苑小区"}},{"type":"Feature","geometry":{"type":"Point","coordinates":[105.685285,37.491505]},"properties":{"full_address":"宁夏回族自治区中卫市中宁县瀛海花园小区"}},{"type":"Feature","geometry":{"type":"Point","coordinates":[105.681529,37.505195]},"properties":{"full_address":"宁夏回族自治区中卫市中宁县金岸骄子小区"}},{"type":"Feature","geometry":{"type":"Point","coordinates":[105.669661,37.485647]},"properties":{"full_address":"宁夏回族自治区中卫市中宁县宁安镇地税局小区"}},{"type":"Feature","geometry":{"type":"Point","coordinates":[105.717467,37.499618]},"properties":{"full_address":"宁夏回族自治区中卫市中宁县宁安镇东华村"}},{"type":"Feature","geometry":{"type":"Point","coordinates":[105.67733,37.497104]},"properties":{"full_address":"宁夏回族自治区中卫市中宁县宁安镇枸杞花园西园"}},{"type":"Feature","geometry":{"type":"Point","coordinates":[105.666553,37.489557]},"properties":{"full_address":"宁夏回族自治区中卫市中宁县宁安镇郭庄村"}},{"type":"Feature","geometry":{"type":"Point","coordinates":[105.670621,37.480047]},"properties":{"full_address":"宁夏回族自治区中卫市中宁县宁安镇红宝建材城"}},{"type":"Feature","geometry":{"type":"Point","coordinates":[105.671081,37.483448]},"properties":{"full_address":"宁夏回族自治区中卫市中宁县宁安镇红宝西花园"}},{"type":"Feature","geometry":{"type":"Point","coordinates":[105.673562,37.499876]},"properties":{"full_address":"宁夏回族自治区中卫市中宁县宁安镇红苑小区"}},{"type":"Feature","geometry":{"type":"Point","coordinates":[105.645444,37.469142]},"properties":{"full_address":"宁夏回族自治区中卫市中宁县宁安镇黄桥村"}},{"type":"Feature","geometry":{"type":"Point","coordinates":[105.682588,37.48509]},"properties":{"full_address":"宁夏回族自治区中卫市中宁县宁安镇锦绣苑C区"}},{"type":"Feature","geometry":{"type":"Point","coordinates":[105.6781,37.482849]},"properties":{"full_address":"宁夏回族自治区中卫市中宁县宁安镇绿苑小区"}},{"type":"Feature","geometry":{"type":"Point","coordinates":[105.676216,37.499629]},"properties":{"full_address":"宁夏回族自治区中卫市中宁县宁安镇杞商府邸"}},{"type":"Feature","geometry":{"type":"Point","coordinates":[105.684868,37.493427]},"properties":{"full_address":"宁夏回族自治区中卫市中宁县宁安镇杞乡经典B区"}},{"type":"Feature","geometry":{"type":"Point","coordinates":[105.684129,37.496753]},"properties":{"full_address":"宁夏回族自治区中卫市中宁县宁安镇杞乡经典C区"}},{"type":"Feature","geometry":{"type":"Point","coordinates":[105.679074,37.502585]},"properties":{"full_address":"宁夏回族自治区中卫市中宁县宁安镇水木兰亭"}},{"type":"Feature","geometry":{"type":"Point","coordinates":[105.681661,37.496101]},"properties":{"full_address":"宁夏回族自治区中卫市中宁县宁安镇水泥厂家属院"}},{"type":"Feature","geometry":{"type":"Point","coordinates":[105.673706,37.492843]},"properties":{"full_address":"宁夏回族自治区中卫市中宁县宁安镇为民城市广场"}},{"type":"Feature","geometry":{"type":"Point","coordinates":[105.669661,37.485647]},"properties":{"full_address":"宁夏回族自治区中卫市中宁县宁安镇盐业公司家属院"}},{"type":"Feature","geometry":{"type":"Point","coordinates":[105.690943,37.501822]},"properties":{"full_address":"宁夏回族自治区中卫市中宁县宁安镇殷庄大社区D区"}},{"type":"Feature","geometry":{"type":"Point","coordinates":[105.675012,37.484531]},"properties":{"full_address":"宁夏回族自治区中卫市中宁县宁安镇朱营小康村"}},{"type":"Feature","geometry":{"type":"Point","coordinates":[105.672244,37.483178]},"properties":{"full_address":"宁夏回族自治区中卫市中宁县宁安镇朱营社区"}},{"type":"Feature","geometry":{"type":"Point","coordinates":[105.672785,37.485129]},"properties":{"full_address":"宁夏回族自治区中卫市中宁县宁安镇丽景豪城"}},{"type":"Feature","geometry":{"type":"Point","coordinates":[105.692655,37.477618]},"properties":{"full_address":"宁夏回族自治区中卫市中宁县新堡镇观园壹号"}},{"type":"Feature","geometry":{"type":"Point","coordinates":[105.680669,37.456361]},"properties":{"full_address":"宁夏回族自治区中卫市中宁县新堡镇创业村"}},{"type":"Feature","geometry":{"type":"Point","coordinates":[105.741234,37.485184]},"properties":{"full_address":"宁夏回族自治区中卫市中宁县新堡镇刘庄村"}},{"type":"Feature","geometry":{"type":"Point","coordinates":[105.711279,37.481222]},"properties":{"full_address":"宁夏回族自治区中卫市中宁县新堡镇宋营村"}},{"type":"Feature","geometry":{"type":"Point","coordinates":[105.690388,37.474277]},"properties":{"full_address":"宁夏回族自治区中卫市中宁县新堡镇新水创业园"}},{"type":"Feature","geometry":{"type":"Point","coordinates":[105.696678,37.479892]},"properties":{"full_address":"宁夏回族自治区中卫市中宁县新堡镇天仁名邸"}},{"type":"Feature","geometry":{"type":"Point","coordinates":[105.696317,37.480622]},"properties":{"full_address":"宁夏回族自治区中卫市中宁县新堡镇宏祥达景园"}},{"type":"Feature","geometry":{"type":"Point","coordinates":[105.574446,37.396947]},"properties":{"full_address":"宁夏回族自治区中卫市中宁县大战场镇红宝村"}},{"type":"Feature","geometry":{"type":"Point","coordinates":[105.552775,37.444457]},"properties":{"full_address":"宁夏回族自治区中卫市中宁县大战场镇马莲梁村"}},{"type":"Feature","geometry":{"type":"Point","coordinates":[105.591055,37.414318]},"properties":{"full_address":"宁夏回族自治区中卫市中宁县大战场镇清河村"}},{"type":"Feature","geometry":{"type":"Point","coordinates":[105.6362,37.39676]},"properties":{"full_address":"宁夏回族自治区中卫市中宁县大战场镇石喇叭村"}},{"type":"Feature","geometry":{"type":"Point","coordinates":[105.627146,37.486211]},"properties":{"full_address":"宁夏回族自治区中卫市中宁县舟塔乡靳崖村"}},{"type":"Feature","geometry":{"type":"Point","coordinates":[105.638481,37.504123]},"properties":{"full_address":"宁夏回族自治区中卫市中宁县舟塔乡康滩村"}},{"type":"Feature","geometry":{"type":"Point","coordinates":[105.601046,37.477974]},"properties":{"full_address":"宁夏回族自治区中卫市中宁县舟塔乡潘营村"}},{"type":"Feature","geometry":{"type":"Point","coordinates":[105.615331,37.502107]},"properties":{"full_address":"宁夏回族自治区中卫市中宁县舟塔乡田滩村"}},{"type":"Feature","geometry":{"type":"Point","coordinates":[105.803404,37.503662]},"properties":{"full_address":"宁夏回族自治区中卫市中宁县恩和镇华寺村"}},{"type":"Feature","geometry":{"type":"Point","coordinates":[105.808936,37.51293]},"properties":{"full_address":"宁夏回族自治区中卫市中宁县恩和镇朱台村"}},{"type":"Feature","geometry":{"type":"Point","coordinates":[105.824181,37.524472]},"properties":{"full_address":"宁夏回族自治区中卫市中宁县恩和镇曹桥村"}},{"type":"Feature","geometry":{"type":"Point","coordinates":[105.743169,37.555026]},"properties":{"full_address":"宁夏回族自治区中卫市中宁县石空镇黄庄村"}},{"type":"Feature","geometry":{"type":"Point","coordinates":[105.804797,37.602389]},"properties":{"full_address":"宁夏回族自治区中卫市中宁县石空镇高山寺村"}},{"type":"Feature","geometry":{"type":"Point","coordinates":[105.787457,37.53405]},"properties":{"full_address":"宁夏回族自治区中卫市中宁县鸣沙镇长滩村"}},{"type":"Feature","geometry":{"type":"Point","coordinates":[106.164649,36.573119]},"properties":{"full_address":"宁夏回族自治区中卫市海原县七营镇高崖村"}},{"type":"Feature","geometry":{"type":"Point","coordinates":[87.625083,43.766976]},"properties":{"full_address":"新疆维吾尔自治区乌鲁木齐市天山区胜利路街道边瑞社区"}},{"type":"Feature","geometry":{"type":"Point","coordinates":[87.627206,43.770823]},"properties":{"full_address":"新疆维吾尔自治区乌鲁木齐市天山区南湾街街道延安路社区"}},{"type":"Feature","geometry":{"type":"Point","coordinates":[87.621851,43.769286]},"properties":{"full_address":"新疆维吾尔自治区乌鲁木齐市天山区胜利路街道新东街社区162号广汇胜利小区"}},{"type":"Feature","geometry":{"type":"Point","coordinates":[87.657381,43.81327]},"properties":{"full_address":"新疆维吾尔自治区乌鲁木齐市天山区翠泉路片区翠东社区清泉小区"}},{"type":"Feature","geometry":{"type":"Point","coordinates":[87.615797,43.775484]},"properties":{"full_address":"新疆维吾尔自治区乌鲁木齐市天山区团结路街道皇城社区地贸小区、外贸小区、领馆巷南社区农业厅家属院"}},{"type":"Feature","geometry":{"type":"Point","coordinates":[87.619407,43.777047]},"properties":{"full_address":"新疆维吾尔自治区乌鲁木齐市天山区团结路街道团结社区团结路410号团结路家属院"}},{"type":"Feature","geometry":{"type":"Point","coordinates":[87.614025,43.777398]},"properties":{"full_address":"新疆维吾尔自治区乌鲁木齐市天山区团结路街道领馆巷北社区胜利路63号文化大院"}},{"type":"Feature","geometry":{"type":"Point","coordinates":[87.627207,43.775274]},"properties":{"full_address":"新疆维吾尔自治区乌鲁木齐市天山区团结路街道中泉街南社区团结路709号宏汇苑小区"}},{"type":"Feature","geometry":{"type":"Point","coordinates":[87.620707,43.748786]},"properties":{"full_address":"新疆维吾尔自治区乌鲁木齐市天山区赛马场街道水上乐园社区十七户路229号天山康居苑一期"}},{"type":"Feature","geometry":{"type":"Point","coordinates":[87.629511,43.771834]},"properties":{"full_address":"新疆维吾尔自治区乌鲁木齐市天山区南湾街街道波斯坦巷社区玖久艺景小区"}},{"type":"Feature","geometry":{"type":"Point","coordinates":[87.637702,43.766931]},"properties":{"full_address":"新疆维吾尔自治区乌鲁木齐市天山区南湾街街道昌乐园社区昌乐园小区"}},{"type":"Feature","geometry":{"type":"Point","coordinates":[87.649496,43.769905]},"properties":{"full_address":"新疆维吾尔自治区乌鲁木齐市天山区延安路街道吉顺路北社区富康街859号朗天峰景一期、二期"}},{"type":"Feature","geometry":{"type":"Point","coordinates":[87.616422,43.777081]},"properties":{"full_address":"新疆维吾尔自治区乌鲁木齐市天山区团结路街道团结路社区胜利路160号独楼"}},{"type":"Feature","geometry":{"type":"Point","coordinates":[87.619708,43.79403]},"properties":{"full_address":"新疆维吾尔自治区乌鲁木齐市天山区大小西门街道人民路社区车市巷39号工行大厦"}},{"type":"Feature","geometry":{"type":"Point","coordinates":[87.635124,43.791223]},"properties":{"full_address":"新疆维吾尔自治区乌鲁木齐市天山区幸福路街道四道巷社区幸福路北二巷28号独楼"}},{"type":"Feature","geometry":{"type":"Point","coordinates":[87.645348,43.770845]},"properties":{"full_address":"新疆维吾尔自治区乌鲁木齐市天山区金坤中环花苑溢景轩A区、B区、C区"}},{"type":"Feature","geometry":{"type":"Point","coordinates":[87.609311,43.784075]},"properties":{"full_address":"新疆维吾尔自治区乌鲁木齐市天山区新华南街道三桥社区河滩南路628号信合公寓"}},{"type":"Feature","geometry":{"type":"Point","coordinates":[87.618188,43.769925]},"properties":{"full_address":"新疆维吾尔自治区乌鲁木齐市天山区胜利路街道多斯鲁克社区羊毛湖路32号36中家属院"}},{"type":"Feature","geometry":{"type":"Point","coordinates":[87.64294,43.807021]},"properties":{"full_address":"新疆维吾尔自治区乌鲁木齐市天山区碱泉街道月光社区青年路356号月光小区"}},{"type":"Feature","geometry":{"type":"Point","coordinates":[87.594788,43.771563]},"properties":{"full_address":"新疆维吾尔自治区乌鲁木齐市沙依巴克区炉院街街道炉院街社区金粮源小区"}},{"type":"Feature","geometry":{"type":"Point","coordinates":[87.57585,43.8561]},"properties":{"full_address":"新疆维吾尔自治区乌鲁木齐市新市区鲤鱼山街道野马生态园"}},{"type":"Feature","geometry":{"type":"Point","coordinates":[87.592162,43.900988]},"properties":{"full_address":"新疆维吾尔自治区乌鲁木齐市新市区北京路以东、长春中路以西、喀什路以北、上沙河路以南区域"}},{"type":"Feature","geometry":{"type":"Point","coordinates":[87.548268,43.876504]},"properties":{"full_address":"新疆维吾尔自治区乌鲁木齐市新市区杭州路街道河北西路社区四建小区"}},{"type":"Feature","geometry":{"type":"Point","coordinates":[87.599501,43.906901]},"properties":{"full_address":"新疆维吾尔自治区乌鲁木齐市新市区喀什东路街道五建社区东方御景小区"}},{"type":"Feature","geometry":{"type":"Point","coordinates":[87.594736,43.841307]},"properties":{"full_address":"新疆维吾尔自治区乌鲁木齐市新市区银川路街道天山花园社区天山花园小区"}},{"type":"Feature","geometry":{"type":"Point","coordinates":[87.652642,43.869029]},"properties":{"full_address":"新疆维吾尔自治区乌鲁木齐市水磨沟区振安街街道山润社区山水兰德小区"}},{"type":"Feature","geometry":{"type":"Point","coordinates":[87.702952,43.991612]},"properties":{"full_address":"新疆维吾尔自治区乌鲁木齐市米东区古牧地镇东工村"}},{"type":"Feature","geometry":{"type":"Point","coordinates":[89.194009,42.944079]},"properties":{"full_address":"新疆维吾尔自治区吐鲁番市高昌区葡萄镇鸿景园社区"}},{"type":"Feature","geometry":{"type":"Point","coordinates":[89.15243,42.939611]},"properties":{"full_address":"新疆维吾尔自治区吐鲁番市高昌区新城片区英买里村"}},{"type":"Feature","geometry":{"type":"Point","coordinates":[89.190891,42.941552]},"properties":{"full_address":"新疆维吾尔自治区吐鲁番市高昌区红星片区老城东门社区"}},{"type":"Feature","geometry":{"type":"Point","coordinates":[89.190648,42.948497]},"properties":{"full_address":"新疆维吾尔自治区吐鲁番市高昌区高昌路街道广汇社区广汇小区"}},{"type":"Feature","geometry":{"type":"Point","coordinates":[89.141,42.948801]},"properties":{"full_address":"新疆维吾尔自治区吐鲁番市高昌区亚尔镇恰章村2组"}},{"type":"Feature","geometry":{"type":"Point","coordinates":[89.190614,42.94574]},"properties":{"full_address":"新疆维吾尔自治区吐鲁番市高昌区老城路街道滨湖社区香榭里小区"}},{"type":"Feature","geometry":{"type":"Point","coordinates":[89.177517,42.952415]},"properties":{"full_address":"新疆维吾尔自治区吐鲁番市高昌区高昌路街道友谊巷社区同兴小区"}},{"type":"Feature","geometry":{"type":"Point","coordinates":[89.207291,42.957213]},"properties":{"full_address":"新疆维吾尔自治区吐鲁番市高昌区葡萄镇巴格日社区"}},{"type":"Feature","geometry":{"type":"Point","coordinates":[89.189562,42.944535]},"properties":{"full_address":"新疆维吾尔自治区吐鲁番市高昌区老城路街道滨湖社区祥云小区"}},{"type":"Feature","geometry":{"type":"Point","coordinates":[89.160187,42.947511]},"properties":{"full_address":"新疆维吾尔自治区吐鲁番市高昌区老城路街道新城社区依明巷"}},{"type":"Feature","geometry":{"type":"Point","coordinates":[89.18158,42.94514]},"properties":{"full_address":"新疆维吾尔自治区吐鲁番市高昌区老城路街道高昌中路591号-658号"}},{"type":"Feature","geometry":{"type":"Point","coordinates":[89.172731,42.941749]},"properties":{"full_address":"新疆维吾尔自治区吐鲁番市高昌区老城路街道椿树路社区博斯坦花苑"}},{"type":"Feature","geometry":{"type":"Point","coordinates":[89.179331,42.942111]},"properties":{"full_address":"新疆维吾尔自治区吐鲁番市高昌区老城路街道椿树路社区中祥小区"}},{"type":"Feature","geometry":{"type":"Point","coordinates":[89.189469,42.94143]},"properties":{"full_address":"新疆维吾尔自治区吐鲁番市高昌区老城路街道苏公塔社区阿热阔恰巷"}},{"type":"Feature","geometry":{"type":"Point","coordinates":[89.205288,42.950525]},"properties":{"full_address":"新疆维吾尔自治区吐鲁番市高昌区红星片区南门社区1组平房区"}},{"type":"Feature","geometry":{"type":"Point","coordinates":[89.156856,42.911888]},"properties":{"full_address":"新疆维吾尔自治区吐鲁番市高昌区新城片区吕宗村"}},{"type":"Feature","geometry":{"type":"Point","coordinates":[86.209621,41.722921]},"properties":{"full_address":"新疆维吾尔自治区巴音郭楞蒙古自治州库尔勒市杜鹃河以南—石化大道以西—石化路以南—新城南路以东—友好路以南—发达路以西—石化大道区域内，包含新城街道华星园社区玫瑰庄园1—33号楼、万华苑（华誉职工楼）、七星汇中苑、红光小区、64号小区（东园小区）、新城街道新苇社区光华尚品小区、梨香街道百合社区唐宇大厦、棉纺厂小区、丁香雅居小区、梨香街道美居苑社区圣马雅苑小区、车城美居小区、凯欣家园"}},{"type":"Feature","geometry":{"type":"Point","coordinates":[86.236049,41.718355]},"properties":{"full_address":"新疆维吾尔自治区巴音郭楞蒙古自治州库尔勒市库尔勒经济技术开发区奋进路以南—开发大道以北—兴民路两侧—金地路以东—东环路以西区域内，包含鹭东苑小区及周边商铺、鹭东苑二期工地、中兴家园小区及周边商铺、梧桐人家小区及周边商铺、五德玉器、阿帕奇武装押运公司、巴音郭楞蒙古自治州纤维检验所及在建工地、新疆国源测绘规划设计院"}},{"type":"Feature","geometry":{"type":"Point","coordinates":[86.184199,41.739937]},"properties":{"full_address":"新疆维吾尔自治区巴音郭楞蒙古自治州库尔勒市民幸路以东----香梨大道以西----新华路以南----民生路两侧区域内，包含新城街道南湖社区亲水湾小区、新城广场、银泰花苑小区、梨香街道凌达社区现代名苑小区、龙兴苑小区、圣马润泽园小区、新城花园小区、博雅家园小区、橡胶厂小区、商业银行小区、梨香街道民生社区天福名庭小区、名仕华府小区、泰州明苑小区"}},{"type":"Feature","geometry":{"type":"Point","coordinates":[86.165742,41.701915]},"properties":{"full_address":"新疆维吾尔自治区巴音郭楞蒙古自治州库尔勒市迎宾路以南——机场路以北——南环路以东——团结南路以西——建国南路两侧区域内，包含铁克其乡沙南社区淡水简居小区、金诗雅居小区、安达如苑小区、西部雅居小区、沙南家园小区、爱嘉丽都小区、新城街道物探社区青蓝家园小区、书馨家园小区、摩登BoBo公寓"}},{"type":"Feature","geometry":{"type":"Point","coordinates":[86.151581,41.752032]},"properties":{"full_address":"新疆维吾尔自治区巴音郭楞蒙古自治州库尔勒市朝阳街道丰源社区凯旋公馆A区"}},{"type":"Feature","geometry":{"type":"Point","coordinates":[86.235251,41.706403]},"properties":{"full_address":"新疆维吾尔自治区巴音郭楞蒙古自治州库尔勒市开发大道以南—纪元路以北—218辅道以东—景园路以西区域内，包含大成未来域小区、志远驾校、康博花园小区、辰兴生活家小区、新兴花园小区、辰兴梦想家小区、水木清华小区、左邻右舍小区、天河美居小区"}},{"type":"Feature","geometry":{"type":"Point","coordinates":[86.252181,41.702963]},"properties":{"full_address":"新疆维吾尔自治区巴音郭楞蒙古自治州库尔勒市开发大道以南—安晨大道以北—玉和路以东—东环路以西区域内，包含华景清华园小区、秦淮人家小区、万方经典名苑小区、翰唐锦庭小区、金丰利冷库、时代仓储、捷安建筑机械设备租赁物流园、惠农商贸责任有限公司"}},{"type":"Feature","geometry":{"type":"Point","coordinates":[86.172004,41.734635]},"properties":{"full_address":"新疆维吾尔自治区巴音郭楞蒙古自治州库尔勒市迎宾街道光明社区时代花园小区"}},{"type":"Feature","geometry":{"type":"Point","coordinates":[86.126993,41.773966]},"properties":{"full_address":"新疆维吾尔自治区巴音郭楞蒙古自治州库尔勒市铁克其乡华源社区裕丰家园小区（106号小区）"}},{"type":"Feature","geometry":{"type":"Point","coordinates":[86.166347,41.726456]},"properties":{"full_address":"新疆维吾尔自治区巴音郭楞蒙古自治州库尔勒市迎宾街道中恰其社区兴旺佳园小区"}},{"type":"Feature","geometry":{"type":"Point","coordinates":[86.180818,41.722129]},"properties":{"full_address":"新疆维吾尔自治区巴音郭楞蒙古自治州库尔勒市铁克其乡下恰其社区城泰家园小区（新56号小区）"}},{"type":"Feature","geometry":{"type":"Point","coordinates":[86.179754,41.721076]},"properties":{"full_address":"新疆维吾尔自治区巴音郭楞蒙古自治州库尔勒市丝路街道索克巴格社区艾兰巴格家园小区（新40号小区）"}},{"type":"Feature","geometry":{"type":"Point","coordinates":[86.162422,41.749209]},"properties":{"full_address":"新疆维吾尔自治区巴音郭楞蒙古自治州库尔勒市康都街道东方社区东方一号小区"}},{"type":"Feature","geometry":{"type":"Point","coordinates":[86.174673,41.748832]},"properties":{"full_address":"新疆维吾尔自治区巴音郭楞蒙古自治州库尔勒市建设街道香梨社区盛府丽苑小区"}},{"type":"Feature","geometry":{"type":"Point","coordinates":[86.173817,41.772944]},"properties":{"full_address":"新疆维吾尔自治区巴音郭楞蒙古自治州库尔勒市康都街道康都社区孔雀河1号小区"}},{"type":"Feature","geometry":{"type":"Point","coordinates":[86.147731,41.744967]},"properties":{"full_address":"新疆维吾尔自治区巴音郭楞蒙古自治州库尔勒市朝阳街道团结社区团结大厦"}},{"type":"Feature","geometry":{"type":"Point","coordinates":[86.16763,41.73811]},"properties":{"full_address":"新疆维吾尔自治区巴音郭楞蒙古自治州库尔勒市朝阳街道华夏名门社区塔河明城小区"}},{"type":"Feature","geometry":{"type":"Point","coordinates":[86.142829,41.731249]},"properties":{"full_address":"新疆维吾尔自治区巴音郭楞蒙古自治州库尔勒市丝路街道连心社区城安苑小区"}},{"type":"Feature","geometry":{"type":"Point","coordinates":[86.187053,41.742666]},"properties":{"full_address":"新疆维吾尔自治区巴音郭楞蒙古自治州库尔勒市建设街道新华社区聚福雅苑小区"}},{"type":"Feature","geometry":{"type":"Point","coordinates":[86.217478,41.714875]},"properties":{"full_address":"新疆维吾尔自治区巴音郭楞蒙古自治州库尔勒市梨香街道美居苑社区巴东苑小区"}},{"type":"Feature","geometry":{"type":"Point","coordinates":[81.332234,43.911243]},"properties":{"full_address":"新疆维吾尔自治区伊犁哈萨克自治州伊宁市都来提巴格街道托甫其社区"}},{"type":"Feature","geometry":{"type":"Point","coordinates":[81.355915,43.91914]},"properties":{"full_address":"新疆维吾尔自治区伊犁哈萨克自治州伊宁市琼科瑞克街道努尔勒克社区"}},{"type":"Feature","geometry":{"type":"Point","coordinates":[81.362272,43.918751]},"properties":{"full_address":"新疆维吾尔自治区伊犁哈萨克自治州伊宁市琼科瑞克街道喀尔墩社区"}},{"type":"Feature","geometry":{"type":"Point","coordinates":[81.319387,43.888063]},"properties":{"full_address":"新疆维吾尔自治区伊犁哈萨克自治州伊宁市塔什科瑞克乡科克其力克村"}},{"type":"Feature","geometry":{"type":"Point","coordinates":[81.325134,43.895626]},"properties":{"full_address":"新疆维吾尔自治区伊犁哈萨克自治州伊宁市塔什科瑞克乡英买里村"}},{"type":"Feature","geometry":{"type":"Point","coordinates":[81.32789,43.892507]},"properties":{"full_address":"新疆维吾尔自治区伊犁哈萨克自治州伊宁市塔什科瑞克乡果园村"}},{"type":"Feature","geometry":{"type":"Point","coordinates":[81.319387,43.888063]},"properties":{"full_address":"新疆维吾尔自治区伊犁哈萨克自治州伊宁市塔什科瑞克乡绿洲社区"}},{"type":"Feature","geometry":{"type":"Point","coordinates":[81.34361,43.908089]},"properties":{"full_address":"新疆维吾尔自治区伊犁哈萨克自治州伊宁市喀尔墩乡景苑社区"}},{"type":"Feature","geometry":{"type":"Point","coordinates":[81.367999,43.893707]},"properties":{"full_address":"新疆维吾尔自治区伊犁哈萨克自治州伊宁市喀尔墩乡花果山村"}},{"type":"Feature","geometry":{"type":"Point","coordinates":[81.367621,43.900273]},"properties":{"full_address":"新疆维吾尔自治区伊犁哈萨克自治州伊宁市喀尔墩乡花果山社区"}},{"type":"Feature","geometry":{"type":"Point","coordinates":[81.333288,43.908538]},"properties":{"full_address":"新疆维吾尔自治区伊犁哈萨克自治州伊宁市都来提巴格街道托特科瑞克社区"}},{"type":"Feature","geometry":{"type":"Point","coordinates":[81.335118,43.91886]},"properties":{"full_address":"新疆维吾尔自治区伊犁哈萨克自治州伊宁市琼科瑞克街道英阿亚提社区"}},{"type":"Feature","geometry":{"type":"Point","coordinates":[81.354947,43.907946]},"properties":{"full_address":"新疆维吾尔自治区伊犁哈萨克自治州伊宁市琼科瑞克街道东梁社区"}},{"type":"Feature","geometry":{"type":"Point","coordinates":[81.311195,43.88868]},"properties":{"full_address":"新疆维吾尔自治区伊犁哈萨克自治州伊宁市塔什科瑞克乡阿依墩村恒大雅苑小区"}},{"type":"Feature","geometry":{"type":"Point","coordinates":[81.283534,43.94118]},"properties":{"full_address":"新疆维吾尔自治区伊犁哈萨克自治州伊宁市都来提巴格街道10号小区"}},{"type":"Feature","geometry":{"type":"Point","coordinates":[81.319387,43.888063]},"properties":{"full_address":"新疆维吾尔自治区伊犁哈萨克自治州伊宁市塔什科瑞克乡吉格迪力克村"}},{"type":"Feature","geometry":{"type":"Point","coordinates":[81.348873,43.895799]},"properties":{"full_address":"新疆维吾尔自治区伊犁哈萨克自治州伊宁市塔什科瑞克乡英买里村新路街中9巷附8巷"}},{"type":"Feature","geometry":{"type":"Point","coordinates":[84.742482,44.398894]},"properties":{"full_address":"新疆维吾尔自治区塔城地区乌苏市奎河街道金穗园小区"}},{"type":"Feature","geometry":{"type":"Point","coordinates":[84.712838,44.442869]},"properties":{"full_address":"新疆维吾尔自治区塔城地区乌苏市八十四户乡"}},{"type":"Feature","geometry":{"type":"Point","coordinates":[84.680958,44.432707]},"properties":{"full_address":"新疆维吾尔自治区塔城地区乌苏市南苑街道安达倾城片区、捷特小区、清华园小区、路园小区、电北小区、春晖巷、技术监督局小区、城建小区、房管局小区、园丁小区、海事局小区、万森花园、邮政小区、监狱及物资局平房区、家和小区、文心巷、长征路沿街商铺、电力南院小区、育才巷"}},{"type":"Feature","geometry":{"type":"Point","coordinates":[84.677572,44.442438]},"properties":{"full_address":"新疆维吾尔自治区塔城地区乌苏市虹桥街道94号院、96号院、幸福小区、博雅小区、和平花园、解放路社区平房区、明珠小区、新华小区、美丽园小区、和谐小区、和平小区、华鑫小区、林场家属楼<含虹桥雅苑>、博馨苑小区、人民医院家属楼、虹桥小区、金盾小区、老政府家属院、水榭名苑小区、水榭名苑小区廉租房、老市委家属楼、宜居小区、团结路社区平房区2区、飞云楼"}}]}