{"type":"FeatureCollection","features":[{"type":"Feature","geometry":{"type":"Point","coordinates":[116.548533,39.948493]},"properties":{"province":"北京市","city":"朝阳区","county":"平房（地区）乡","community":"泓鑫家园7号楼","full_address":"北京市朝阳区平房（地区）乡泓鑫家园7号楼","info":""}},{"type":"Feature","geometry":{"type":"Point","coordinates":[116.578126,39.906108]},"properties":{"province":"北京市","city":"朝阳区","county":"三间房（地区）乡","community":"康惠园小区3号院4号楼","full_address":"北京市朝阳区三间房（地区）乡康惠园小区3号院4号楼","info":""}},{"type":"Feature","geometry":{"type":"Point","coordinates":[116.52125,39.818833]},"properties":{"province":"北京市","city":"大兴区","county":"亦庄（地区）镇","community":"小康家园小区14号楼","full_address":"北京市大兴区亦庄（地区）镇小康家园小区14号楼","info":""}},{"type":"Feature","geometry":{"type":"Point","coordinates":[117.272106,39.111229]},"properties":{"province":"天津市","city":"天津市","county":"河东区","community":"上杭路街道芳水河畔家园（19号楼、20号楼除外）","full_address":"天津市天津市河东区上杭路街道芳水河畔家园（19号楼、20号楼除外）","info":""}},{"type":"Feature","geometry":{"type":"Point","coordinates":[117.261423,39.103157]},"properties":{"province":"天津市","city":"天津市","county":"河东区","community":"中山门街道和悦家园（2号楼除外），互助南里（15号楼除外）","full_address":"天津市天津市河东区中山门街道和悦家园（2号楼除外），互助南里（15号楼除外）","info":""}},{"type":"Feature","geometry":{"type":"Point","coordinates":[117.245925,39.110912]},"properties":{"province":"天津市","city":"天津市","county":"河东区","community":"大直沽街道文华里1号院（16号楼除外）","full_address":"天津市天津市河东区大直沽街道文华里1号院（16号楼除外）","info":""}},{"type":"Feature","geometry":{"type":"Point","coordinates":[117.227861,39.133995]},"properties":{"province":"天津市","city":"天津市","county":"河东区","community":"唐家口街道欣荣馨苑（5号楼除外）","full_address":"天津市天津市河东区唐家口街道欣荣馨苑（5号楼除外）","info":""}},{"type":"Feature","geometry":{"type":"Point","coordinates":[117.305241,39.093969]},"properties":{"province":"天津市","city":"天津市","county":"河东区","community":"二号桥街道福东里东区（13号楼除外）","full_address":"天津市天津市河东区二号桥街道福东里东区（13号楼除外）","info":""}},{"type":"Feature","geometry":{"type":"Point","coordinates":[117.249381,39.088665]},"properties":{"province":"天津市","city":"天津市","county":"河东区","community":"富民路街道棉三四工房（5号楼除外）","full_address":"天津市天津市河东区富民路街道棉三四工房（5号楼除外）","info":""}},{"type":"Feature","geometry":{"type":"Point","coordinates":[117.262005,39.155852]},"properties":{"province":"天津市","city":"天津市","county":"河东区","community":"常州道街道东惠家园（4号楼除外），朝华园（5号楼除外）","full_address":"天津市天津市河东区常州道街道东惠家园（4号楼除外），朝华园（5号楼除外）","info":""}},{"type":"Feature","geometry":{"type":"Point","coordinates":[117.281744,39.101022]},"properties":{"province":"天津市","city":"天津市","county":"河东区","community":"二号桥街道龙峰馨园（7号楼除外）","full_address":"天津市天津市河东区二号桥街道龙峰馨园（7号楼除外）","info":""}},{"type":"Feature","geometry":{"type":"Point","coordinates":[117.259311,39.087609]},"properties":{"province":"天津市","city":"天津市","county":"河东区","community":"富民路街道万隆滨河新苑26号楼-30号楼、32号楼、36号楼、37号楼、40号楼-42号楼、44号楼-48号楼、55号楼-57号楼","full_address":"天津市天津市河东区富民路街道万隆滨河新苑26号楼-30号楼、32号楼、36号楼、37号楼、40号楼-42号楼、44号楼-48号楼、55号楼-57号楼","info":""}},{"type":"Feature","geometry":{"type":"Point","coordinates":[117.25352,39.129323]},"properties":{"province":"天津市","city":"天津市","county":"河东区","community":"上杭路街道金湾公寓（2号楼除外），中储栋境（4号楼除外）","full_address":"天津市天津市河东区上杭路街道金湾公寓（2号楼除外），中储栋境（4号楼除外）","info":""}},{"type":"Feature","geometry":{"type":"Point","coordinates":[117.230277,39.123512]},"properties":{"province":"天津市","city":"天津市","county":"河东区","community":"大王庄街道十二经路四号院（1号楼除外）","full_address":"天津市天津市河东区大王庄街道十二经路四号院（1号楼除外）","info":""}},{"type":"Feature","geometry":{"type":"Point","coordinates":[117.238857,39.096327]},"properties":{"province":"天津市","city":"天津市","county":"河西区","community":"挂甲寺街美宁公寓1、2、5、6号楼","full_address":"天津市天津市河西区挂甲寺街美宁公寓1、2、5、6号楼","info":""}},{"type":"Feature","geometry":{"type":"Point","coordinates":[117.22875,39.07805]},"properties":{"province":"天津市","city":"天津市","county":"河西区","community":"尖山街五一家园小区8号楼","full_address":"天津市天津市河西区尖山街五一家园小区8号楼","info":""}},{"type":"Feature","geometry":{"type":"Point","coordinates":[117.258674,39.05614]},"properties":{"province":"天津市","city":"天津市","county":"河西区","community":"东海街华江二委2号楼1门至7门及存车处、6号楼1门至7门","full_address":"天津市天津市河西区东海街华江二委2号楼1门至7门及存车处、6号楼1门至7门","info":""}},{"type":"Feature","geometry":{"type":"Point","coordinates":[117.280603,39.066676]},"properties":{"province":"天津市","city":"天津市","county":"河西区","community":"柳林街雅致里5门至10门、28门至34门","full_address":"天津市天津市河西区柳林街雅致里5门至10门、28门至34门","info":""}},{"type":"Feature","geometry":{"type":"Point","coordinates":[117.222011,39.034299]},"properties":{"province":"天津市","city":"天津市","county":"河西区","community":"梅江街天湾园除2号楼之外的区域","full_address":"天津市天津市河西区梅江街天湾园除2号楼之外的区域","info":""}},{"type":"Feature","geometry":{"type":"Point","coordinates":[117.242669,39.058196]},"properties":{"province":"天津市","city":"天津市","county":"河西区","community":"东海街热电厂宿舍7门至11门","full_address":"天津市天津市河西区东海街热电厂宿舍7门至11门","info":""}},{"type":"Feature","geometry":{"type":"Point","coordinates":[117.2065,39.101997]},"properties":{"province":"天津市","city":"天津市","county":"河西区","community":"桃园街盛瑞公寓2号楼(除3门外)","full_address":"天津市天津市河西区桃园街盛瑞公寓2号楼(除3门外)","info":""}},{"type":"Feature","geometry":{"type":"Point","coordinates":[117.202719,39.101268]},"properties":{"province":"天津市","city":"天津市","county":"河西区","community":"马场街四化里单号院","full_address":"天津市天津市河西区马场街四化里单号院","info":""}},{"type":"Feature","geometry":{"type":"Point","coordinates":[117.258515,39.059563]},"properties":{"province":"天津市","city":"天津市","county":"河西区","community":"东海街九江里除高风险区之外的区域","full_address":"天津市天津市河西区东海街九江里除高风险区之外的区域","info":""}},{"type":"Feature","geometry":{"type":"Point","coordinates":[117.151787,39.126039]},"properties":{"province":"天津市","city":"天津市","county":"南开区","community":"万兴街苏堤西里小区1号楼（除1门外）","full_address":"天津市天津市南开区万兴街苏堤西里小区1号楼（除1门外）","info":""}},{"type":"Feature","geometry":{"type":"Point","coordinates":[117.160678,39.137706]},"properties":{"province":"天津市","city":"天津市","county":"南开区","community":"广开街宇正园小区1号楼（除1门外）","full_address":"天津市天津市南开区广开街宇正园小区1号楼（除1门外）","info":""}},{"type":"Feature","geometry":{"type":"Point","coordinates":[117.222078,39.151831]},"properties":{"province":"天津市","city":"天津市","county":"河北区","community":"王串场街道明溪里小区（除1号楼8—10门）","full_address":"天津市天津市河北区王串场街道明溪里小区（除1号楼8—10门）","info":""}},{"type":"Feature","geometry":{"type":"Point","coordinates":[117.216169,39.182299]},"properties":{"province":"天津市","city":"天津市","county":"河北区","community":"铁东路街道爱贤里小区（除2号楼12、13门）","full_address":"天津市天津市河北区铁东路街道爱贤里小区（除2号楼12、13门）","info":""}},{"type":"Feature","geometry":{"type":"Point","coordinates":[117.296401,39.111992]},"properties":{"province":"天津市","city":"天津市","county":"东丽区","community":"万新街好美嘉园小区6号楼","full_address":"天津市天津市东丽区万新街好美嘉园小区6号楼","info":""}},{"type":"Feature","geometry":{"type":"Point","coordinates":[117.306429,39.139556]},"properties":{"province":"天津市","city":"天津市","county":"东丽区","community":"万新街香邑国际小区6号楼","full_address":"天津市天津市东丽区万新街香邑国际小区6号楼","info":""}},{"type":"Feature","geometry":{"type":"Point","coordinates":[117.298923,39.106556]},"properties":{"province":"天津市","city":"天津市","county":"东丽区","community":"新立街融春园小区除高风险区以外区域","full_address":"天津市天津市东丽区新立街融春园小区除高风险区以外区域","info":""}},{"type":"Feature","geometry":{"type":"Point","coordinates":[117.295,39.086562]},"properties":{"province":"天津市","city":"天津市","county":"东丽区","community":"万新街蓝天花园小区2、6、7、8、10号楼","full_address":"天津市天津市东丽区万新街蓝天花园小区2、6、7、8、10号楼","info":""}},{"type":"Feature","geometry":{"type":"Point","coordinates":[117.293338,39.114838]},"properties":{"province":"天津市","city":"天津市","county":"东丽区","community":"万新街舒畅园小区1、3、8、9号楼","full_address":"天津市天津市东丽区万新街舒畅园小区1、3、8、9号楼","info":""}},{"type":"Feature","geometry":{"type":"Point","coordinates":[117.317283,39.146201]},"properties":{"province":"天津市","city":"天津市","county":"东丽区","community":"华明街惠泽嘉园17号楼","full_address":"天津市天津市东丽区华明街惠泽嘉园17号楼","info":""}},{"type":"Feature","geometry":{"type":"Point","coordinates":[117.47676,39.190322]},"properties":{"province":"天津市","city":"天津市","county":"东丽区","community":"东丽湖街道华侨城汇涛苑除高风险以外区域、华侨城望涛苑49号楼","full_address":"天津市天津市东丽区东丽湖街道华侨城汇涛苑除高风险以外区域、华侨城望涛苑49号楼","info":""}},{"type":"Feature","geometry":{"type":"Point","coordinates":[117.22772,39.02813]},"properties":{"province":"天津市","city":"天津市","county":"西青区","community":"大寺镇梨双公路北侧天津市近代福利气体厂","full_address":"天津市天津市西青区大寺镇梨双公路北侧天津市近代福利气体厂","info":""}},{"type":"Feature","geometry":{"type":"Point","coordinates":[117.253463,39.001197]},"properties":{"province":"天津市","city":"天津市","county":"西青区","community":"大寺镇津港公路西侧物资楼小区","full_address":"天津市天津市西青区大寺镇津港公路西侧物资楼小区","info":""}},{"type":"Feature","geometry":{"type":"Point","coordinates":[117.214269,39.002121]},"properties":{"province":"天津市","city":"天津市","county":"西青区","community":"大寺镇金龙鑫苑14号楼","full_address":"天津市天津市西青区大寺镇金龙鑫苑14号楼","info":""}},{"type":"Feature","geometry":{"type":"Point","coordinates":[117.25013,39.0093]},"properties":{"province":"天津市","city":"天津市","county":"西青区","community":"大寺镇龙顺园6号楼","full_address":"天津市天津市西青区大寺镇龙顺园6号楼","info":""}},{"type":"Feature","geometry":{"type":"Point","coordinates":[117.212767,39.005901]},"properties":{"province":"天津市","city":"天津市","county":"西青区","community":"大寺镇金龙花园16—17号楼","full_address":"天津市天津市西青区大寺镇金龙花园16—17号楼","info":""}},{"type":"Feature","geometry":{"type":"Point","coordinates":[117.238702,39.029835]},"properties":{"province":"天津市","city":"天津市","county":"西青区","community":"大寺镇任河里小区6号楼","full_address":"天津市天津市西青区大寺镇任河里小区6号楼","info":""}},{"type":"Feature","geometry":{"type":"Point","coordinates":[117.246919,39.02389]},"properties":{"province":"天津市","city":"天津市","county":"西青区","community":"大寺镇仁居鑫园小区（除7号楼）","full_address":"天津市天津市西青区大寺镇仁居鑫园小区（除7号楼）","info":""}},{"type":"Feature","geometry":{"type":"Point","coordinates":[117.239982,39.020208]},"properties":{"province":"天津市","city":"天津市","county":"西青区","community":"大寺镇任宝南里小区（除6号楼）","full_address":"天津市天津市西青区大寺镇任宝南里小区（除6号楼）","info":""}},{"type":"Feature","geometry":{"type":"Point","coordinates":[117.221013,39.026651]},"properties":{"province":"天津市","city":"天津市","county":"西青区","community":"大寺镇倪黄庄小二楼（新增）","full_address":"天津市天津市西青区大寺镇倪黄庄小二楼（新增）","info":""}},{"type":"Feature","geometry":{"type":"Point","coordinates":[117.114889,39.056085]},"properties":{"province":"天津市","city":"天津市","county":"西青区","community":"精武镇智达里小区（除3号楼）","full_address":"天津市天津市西青区精武镇智达里小区（除3号楼）","info":""}},{"type":"Feature","geometry":{"type":"Point","coordinates":[117.264174,38.993058]},"properties":{"province":"天津市","city":"天津市","county":"西青区","community":"赤龙南街亲和良园小区（除2号楼）","full_address":"天津市天津市西青区赤龙南街亲和良园小区（除2号楼）","info":""}},{"type":"Feature","geometry":{"type":"Point","coordinates":[117.197433,39.017436]},"properties":{"province":"天津市","city":"天津市","county":"西青区","community":"大寺镇金祥园13号楼","full_address":"天津市天津市西青区大寺镇金祥园13号楼","info":""}},{"type":"Feature","geometry":{"type":"Point","coordinates":[117.25316,39.007981]},"properties":{"province":"天津市","city":"天津市","county":"西青区","community":"大寺镇龙腾花园3号楼","full_address":"天津市天津市西青区大寺镇龙腾花园3号楼","info":""}},{"type":"Feature","geometry":{"type":"Point","coordinates":[117.111384,39.124025]},"properties":{"province":"天津市","city":"天津市","county":"西青区","community":"中北镇凯信佳园小区（除1号楼外）","full_address":"天津市天津市西青区中北镇凯信佳园小区（除1号楼外）","info":""}},{"type":"Feature","geometry":{"type":"Point","coordinates":[117.271269,39.047496]},"properties":{"province":"天津市","city":"天津市","county":"津南区","community":"双林街泓春园15号楼","full_address":"天津市天津市津南区双林街泓春园15号楼","info":""}},{"type":"Feature","geometry":{"type":"Point","coordinates":[117.276818,39.027794]},"properties":{"province":"天津市","city":"天津市","county":"津南区","community":"双港镇常春藤花园北区63号楼、70号楼","full_address":"天津市天津市津南区双港镇常春藤花园北区63号楼、70号楼","info":""}},{"type":"Feature","geometry":{"type":"Point","coordinates":[117.26597,39.030443]},"properties":{"province":"天津市","city":"天津市","county":"津南区","community":"双港镇尚景园3号楼、5号楼、6号楼","full_address":"天津市天津市津南区双港镇尚景园3号楼、5号楼、6号楼","info":""}},{"type":"Feature","geometry":{"type":"Point","coordinates":[117.343132,38.94112]},"properties":{"province":"天津市","city":"天津市","county":"津南区","community":"八里台镇汇秀庭苑61号楼","full_address":"天津市天津市津南区八里台镇汇秀庭苑61号楼","info":""}},{"type":"Feature","geometry":{"type":"Point","coordinates":[117.272674,39.03216]},"properties":{"province":"天津市","city":"天津市","county":"津南区","community":"双港镇天富园8号楼、12号楼","full_address":"天津市天津市津南区双港镇天富园8号楼、12号楼","info":""}},{"type":"Feature","geometry":{"type":"Point","coordinates":[117.314931,39.045043]},"properties":{"province":"天津市","city":"天津市","county":"津南区","community":"双港镇棕榈苑31号楼、33号楼","full_address":"天津市天津市津南区双港镇棕榈苑31号楼、33号楼","info":""}},{"type":"Feature","geometry":{"type":"Point","coordinates":[117.352473,39.249169]},"properties":{"province":"天津市","city":"天津市","county":"北辰区","community":"西堤头镇刘快庄村除高风险区域以外其他区域","full_address":"天津市天津市北辰区西堤头镇刘快庄村除高风险区域以外其他区域","info":""}},{"type":"Feature","geometry":{"type":"Point","coordinates":[114.515597,38.009291]},"properties":{"province":"河北省","city":"石家庄市","county":"裕华区","community":"建通街道盛邦花园一区","full_address":"河北省石家庄市裕华区建通街道盛邦花园一区","info":""}},{"type":"Feature","geometry":{"type":"Point","coordinates":[114.520635,38.017653]},"properties":{"province":"河北省","city":"石家庄市","county":"裕华区","community":"裕华路街道青园小区","full_address":"河北省石家庄市裕华区裕华路街道青园小区","info":""}},{"type":"Feature","geometry":{"type":"Point","coordinates":[118.141797,39.828974]},"properties":{"province":"河北省","city":"唐山市","county":"丰润区","community":"金泰花园其他区域","full_address":"河北省唐山市丰润区金泰花园其他区域","info":""}},{"type":"Feature","geometry":{"type":"Point","coordinates":[118.103663,39.826818]},"properties":{"province":"河北省","city":"唐山市","county":"丰润区","community":"金域华府其他区域","full_address":"河北省唐山市丰润区金域华府其他区域","info":""}},{"type":"Feature","geometry":{"type":"Point","coordinates":[118.113227,39.823033]},"properties":{"province":"河北省","city":"唐山市","county":"丰润区","community":"天赐良园小区其他区域","full_address":"河北省唐山市丰润区天赐良园小区其他区域","info":""}},{"type":"Feature","geometry":{"type":"Point","coordinates":[118.048981,39.639504]},"properties":{"province":"河北省","city":"唐山市","county":"丰润区","community":"黄家屯村阳光小区其他区域","full_address":"河北省唐山市丰润区黄家屯村阳光小区其他区域","info":""}},{"type":"Feature","geometry":{"type":"Point","coordinates":[118.197731,39.805339]},"properties":{"province":"河北省","city":"唐山市","county":"丰润区","community":"殷官屯村其他区域","full_address":"河北省唐山市丰润区殷官屯村其他区域","info":""}},{"type":"Feature","geometry":{"type":"Point","coordinates":[115.573093,38.876712]},"properties":{"province":"河北省","city":"保定市","county":"莲池区","community":"慕湖大厦（七一东路2899号）","full_address":"河北省保定市莲池区慕湖大厦（七一东路2899号）","info":""}},{"type":"Feature","geometry":{"type":"Point","coordinates":[115.57344,38.87353]},"properties":{"province":"河北省","city":"保定市","county":"莲池区","community":"保定慕子妇产医院核酸采集点（恒升路99号）","full_address":"河北省保定市莲池区保定慕子妇产医院核酸采集点（恒升路99号）","info":""}},{"type":"Feature","geometry":{"type":"Point","coordinates":[115.565174,38.875459]},"properties":{"province":"河北省","city":"保定市","county":"莲池区","community":"卓正国际酒店（七一东路2358号）","full_address":"河北省保定市莲池区卓正国际酒店（七一东路2358号）","info":""}},{"type":"Feature","geometry":{"type":"Point","coordinates":[115.57258,38.874862]},"properties":{"province":"河北省","city":"保定市","county":"莲池区","community":"品格美发沙龙（恒升路未来像素2号楼61号底商）","full_address":"河北省保定市莲池区品格美发沙龙（恒升路未来像素2号楼61号底商）","info":""}},{"type":"Feature","geometry":{"type":"Point","coordinates":[115.57258,38.874862]},"properties":{"province":"河北省","city":"保定市","county":"莲池区","community":"像素便利店（恒升路未来像素2号楼50号商铺）","full_address":"河北省保定市莲池区像素便利店（恒升路未来像素2号楼50号商铺）","info":""}},{"type":"Feature","geometry":{"type":"Point","coordinates":[115.429051,38.757624]},"properties":{"province":"河北省","city":"保定市","county":"清苑区","community":"白团乡西壁阳城村","full_address":"河北省保定市清苑区白团乡西壁阳城村","info":""}},{"type":"Feature","geometry":{"type":"Point","coordinates":[116.192217,39.571229]},"properties":{"province":"河北省","city":"保定市","county":"涿州市","community":"涿州市义和庄镇陶营村","full_address":"河北省保定市涿州市涿州市义和庄镇陶营村","info":""}},{"type":"Feature","geometry":{"type":"Point","coordinates":[116.016353,39.505002]},"properties":{"province":"河北省","city":"保定市","county":"涿州市","community":"涿州市香邑溪谷小区一期","full_address":"河北省保定市涿州市涿州市香邑溪谷小区一期","info":""}},{"type":"Feature","geometry":{"type":"Point","coordinates":[115.930916,39.471167]},"properties":{"province":"河北省","city":"保定市","county":"涿州市","community":"涿州市桃园街道大马村","full_address":"河北省保定市涿州市涿州市桃园街道大马村","info":""}},{"type":"Feature","geometry":{"type":"Point","coordinates":[116.002918,39.483997]},"properties":{"province":"河北省","city":"保定市","county":"涿州市","community":"涿州市名流一品小区","full_address":"河北省保定市涿州市涿州市名流一品小区","info":""}},{"type":"Feature","geometry":{"type":"Point","coordinates":[116.01856,39.493293]},"properties":{"province":"河北省","city":"保定市","county":"涿州市","community":"涿州市名流风景洋房小区","full_address":"河北省保定市涿州市涿州市名流风景洋房小区","info":""}},{"type":"Feature","geometry":{"type":"Point","coordinates":[115.993058,39.474723]},"properties":{"province":"河北省","city":"保定市","county":"涿州市","community":"涿州市云景城小区","full_address":"河北省保定市涿州市涿州市云景城小区","info":""}},{"type":"Feature","geometry":{"type":"Point","coordinates":[115.926447,39.479199]},"properties":{"province":"河北省","city":"保定市","county":"涿州市","community":"涿州市东城坊镇南庄村","full_address":"河北省保定市涿州市涿州市东城坊镇南庄村","info":""}},{"type":"Feature","geometry":{"type":"Point","coordinates":[117.753059,40.959505]},"properties":{"province":"河北省","city":"承德市","county":"双滦区","community":"双塔山镇大龙庙村回迁楼3号楼","full_address":"河北省承德市双滦区双塔山镇大龙庙村回迁楼3号楼","info":""}},{"type":"Feature","geometry":{"type":"Point","coordinates":[117.777572,40.953614]},"properties":{"province":"河北省","city":"承德市","county":"双滦区","community":"秀水街道锦绣城一区11号楼","full_address":"河北省承德市双滦区秀水街道锦绣城一区11号楼","info":""}},{"type":"Feature","geometry":{"type":"Point","coordinates":[117.742785,40.967521]},"properties":{"province":"河北省","city":"承德市","county":"双滦区","community":"西地镇西地新村","full_address":"河北省承德市双滦区西地镇西地新村","info":""}},{"type":"Feature","geometry":{"type":"Point","coordinates":[117.952082,40.892476]},"properties":{"province":"河北省","city":"承德市","county":"高新区","community":"承德银行研发中心（武烈路189-2）","full_address":"河北省承德市高新区承德银行研发中心（武烈路189-2）","info":""}},{"type":"Feature","geometry":{"type":"Point","coordinates":[117.952082,40.892476]},"properties":{"province":"河北省","city":"承德市","county":"高新区","community":"润园朗园小区朗园30号楼","full_address":"河北省承德市高新区润园朗园小区朗园30号楼","info":""}},{"type":"Feature","geometry":{"type":"Point","coordinates":[116.826839,40.043865]},"properties":{"province":"河北省","city":"廊坊市","county":"三河市","community":"嘉都小区31号楼","full_address":"河北省廊坊市三河市嘉都小区31号楼","info":""}},{"type":"Feature","geometry":{"type":"Point","coordinates":[119.029415,42.300176]},"properties":{"province":"内蒙古自治区","city":"赤峰市","county":"红山区","community":"高新技术产业开发区红山产业园蒙欣街1号和8号","full_address":"内蒙古自治区赤峰市红山区高新技术产业开发区红山产业园蒙欣街1号和8号","info":""}},{"type":"Feature","geometry":{"type":"Point","coordinates":[118.997983,42.292289]},"properties":{"province":"内蒙古自治区","city":"赤峰市","county":"红山区","community":"红山区东城街道绿景小区","full_address":"内蒙古自治区赤峰市红山区红山区东城街道绿景小区","info":""}},{"type":"Feature","geometry":{"type":"Point","coordinates":[118.970648,42.279622]},"properties":{"province":"内蒙古自治区","city":"赤峰市","county":"红山区","community":"头道街以南、二道街以北、火花路以东、四合楼东胡同以西（除药厂5号楼外）所有区域","full_address":"内蒙古自治区赤峰市红山区头道街以南、二道街以北、火花路以东、四合楼东胡同以西（除药厂5号楼外）所有区域","info":""}},{"type":"Feature","geometry":{"type":"Point","coordinates":[118.918053,42.28378]},"properties":{"province":"内蒙古自治区","city":"赤峰市","county":"松山区","community":"松州街道恒基馨居小区","full_address":"内蒙古自治区赤峰市松山区松州街道恒基馨居小区","info":""}},{"type":"Feature","geometry":{"type":"Point","coordinates":[120.087736,43.881291]},"properties":{"province":"内蒙古自治区","city":"赤峰市","county":"阿鲁科尔沁旗","community":"欧沐沦街道和平巷与西市路交叉口东侧金领秀艺术培训学校所在的整栋楼","full_address":"内蒙古自治区赤峰市阿鲁科尔沁旗欧沐沦街道和平巷与西市路交叉口东侧金领秀艺术培训学校所在的整栋楼","info":""}},{"type":"Feature","geometry":{"type":"Point","coordinates":[120.0657,43.872299]},"properties":{"province":"内蒙古自治区","city":"赤峰市","county":"阿鲁科尔沁旗","community":"柴达木苏木连天草业有限公司办公及住宿场所","full_address":"内蒙古自治区赤峰市阿鲁科尔沁旗柴达木苏木连天草业有限公司办公及住宿场所","info":""}},{"type":"Feature","geometry":{"type":"Point","coordinates":[120.070583,43.876778]},"properties":{"province":"内蒙古自治区","city":"赤峰市","county":"阿鲁科尔沁旗","community":"欧沐沦街道滨河花园小区","full_address":"内蒙古自治区赤峰市阿鲁科尔沁旗欧沐沦街道滨河花园小区","info":""}},{"type":"Feature","geometry":{"type":"Point","coordinates":[120.095014,43.877361]},"properties":{"province":"内蒙古自治区","city":"赤峰市","county":"阿鲁科尔沁旗","community":"欧沐沦街道益民广场","full_address":"内蒙古自治区赤峰市阿鲁科尔沁旗欧沐沦街道益民广场","info":""}},{"type":"Feature","geometry":{"type":"Point","coordinates":[120.096678,43.883187]},"properties":{"province":"内蒙古自治区","city":"赤峰市","county":"阿鲁科尔沁旗","community":"欧沐沦街道天瑞家园小区","full_address":"内蒙古自治区赤峰市阿鲁科尔沁旗欧沐沦街道天瑞家园小区","info":""}},{"type":"Feature","geometry":{"type":"Point","coordinates":[120.090783,43.875687]},"properties":{"province":"内蒙古自治区","city":"赤峰市","county":"阿鲁科尔沁旗","community":"欧沐沦街道向阳小区","full_address":"内蒙古自治区赤峰市阿鲁科尔沁旗欧沐沦街道向阳小区","info":""}},{"type":"Feature","geometry":{"type":"Point","coordinates":[120.071705,43.870001]},"properties":{"province":"内蒙古自治区","city":"赤峰市","county":"阿鲁科尔沁旗","community":"罕乌拉街道天元小区","full_address":"内蒙古自治区赤峰市阿鲁科尔沁旗罕乌拉街道天元小区","info":""}},{"type":"Feature","geometry":{"type":"Point","coordinates":[120.096678,43.883187]},"properties":{"province":"内蒙古自治区","city":"赤峰市","county":"阿鲁科尔沁旗","community":"罕乌拉街道玉龙家园小区","full_address":"内蒙古自治区赤峰市阿鲁科尔沁旗罕乌拉街道玉龙家园小区","info":""}},{"type":"Feature","geometry":{"type":"Point","coordinates":[120.070879,43.877485]},"properties":{"province":"内蒙古自治区","city":"赤峰市","county":"阿鲁科尔沁旗","community":"罕乌拉街道新农雅居B区","full_address":"内蒙古自治区赤峰市阿鲁科尔沁旗罕乌拉街道新农雅居B区","info":""}},{"type":"Feature","geometry":{"type":"Point","coordinates":[120.05822,43.86984]},"properties":{"province":"内蒙古自治区","city":"赤峰市","county":"阿鲁科尔沁旗","community":"市场监督管理局","full_address":"内蒙古自治区赤峰市阿鲁科尔沁旗市场监督管理局","info":""}},{"type":"Feature","geometry":{"type":"Point","coordinates":[120.096686,43.908431]},"properties":{"province":"内蒙古自治区","city":"赤峰市","county":"阿鲁科尔沁旗","community":"天山镇郊房身村（除二组外）","full_address":"内蒙古自治区赤峰市阿鲁科尔沁旗天山镇郊房身村（除二组外）","info":""}},{"type":"Feature","geometry":{"type":"Point","coordinates":[119.015412,42.940244]},"properties":{"province":"内蒙古自治区","city":"赤峰市","county":"翁牛特旗","community":"中昊华庭小区","full_address":"内蒙古自治区赤峰市翁牛特旗中昊华庭小区","info":""}},{"type":"Feature","geometry":{"type":"Point","coordinates":[119.001371,42.939786]},"properties":{"province":"内蒙古自治区","city":"赤峰市","county":"翁牛特旗","community":"百合北区1号楼、2号楼、3号楼","full_address":"内蒙古自治区赤峰市翁牛特旗百合北区1号楼、2号楼、3号楼","info":""}},{"type":"Feature","geometry":{"type":"Point","coordinates":[117.452276,49.598734]},"properties":{"province":"内蒙古自治区","city":"呼伦贝尔市","county":"满洲里市","community":"湖西小区","full_address":"内蒙古自治区呼伦贝尔市满洲里市湖西小区","info":""}},{"type":"Feature","geometry":{"type":"Point","coordinates":[117.427224,49.601739]},"properties":{"province":"内蒙古自治区","city":"呼伦贝尔市","county":"满洲里市","community":"尚都国际小区","full_address":"内蒙古自治区呼伦贝尔市满洲里市尚都国际小区","info":""}},{"type":"Feature","geometry":{"type":"Point","coordinates":[117.533684,49.565206]},"properties":{"province":"内蒙古自治区","city":"呼伦贝尔市","county":"满洲里市","community":"工业园区老丁货场","full_address":"内蒙古自治区呼伦贝尔市满洲里市工业园区老丁货场","info":""}},{"type":"Feature","geometry":{"type":"Point","coordinates":[117.456204,49.581011]},"properties":{"province":"内蒙古自治区","city":"呼伦贝尔市","county":"满洲里市","community":"道南16栋130-137号及对面平房","full_address":"内蒙古自治区呼伦贝尔市满洲里市道南16栋130-137号及对面平房","info":""}},{"type":"Feature","geometry":{"type":"Point","coordinates":[101.055562,41.938874]},"properties":{"province":"内蒙古自治区","city":"阿拉善盟","county":"额济纳旗","community":"达来呼布镇土尔扈特社区太豪小区4号楼","full_address":"内蒙古自治区阿拉善盟额济纳旗达来呼布镇土尔扈特社区太豪小区4号楼","info":""}},{"type":"Feature","geometry":{"type":"Point","coordinates":[101.061884,41.971086]},"properties":{"province":"内蒙古自治区","city":"阿拉善盟","county":"额济纳旗","community":"达来呼布镇居延社区天赋玫瑰园6号楼","full_address":"内蒙古自治区阿拉善盟额济纳旗达来呼布镇居延社区天赋玫瑰园6号楼","info":""}},{"type":"Feature","geometry":{"type":"Point","coordinates":[101.047222,41.959892]},"properties":{"province":"内蒙古自治区","city":"阿拉善盟","county":"额济纳旗","community":"达来呼布镇居延社区马鬃山路嘉宸公寓5号1栋","full_address":"内蒙古自治区阿拉善盟额济纳旗达来呼布镇居延社区马鬃山路嘉宸公寓5号1栋","info":""}},{"type":"Feature","geometry":{"type":"Point","coordinates":[123.426424,41.797444]},"properties":{"province":"辽宁省","city":"沈阳市","county":"沈河区","community":"风雨坛街道进华社区义安小区内除高风险区外的其他楼宇","full_address":"辽宁省沈阳市沈河区风雨坛街道进华社区义安小区内除高风险区外的其他楼宇","info":""}},{"type":"Feature","geometry":{"type":"Point","coordinates":[123.427351,41.799031]},"properties":{"province":"辽宁省","city":"沈阳市","county":"沈河区","community":"风雨坛街道进华社区六纬路46号单体楼","full_address":"辽宁省沈阳市沈河区风雨坛街道进华社区六纬路46号单体楼","info":""}},{"type":"Feature","geometry":{"type":"Point","coordinates":[123.427938,41.799151]},"properties":{"province":"辽宁省","city":"沈阳市","county":"沈河区","community":"风雨坛街道进华社区涵泰商务大厦","full_address":"辽宁省沈阳市沈河区风雨坛街道进华社区涵泰商务大厦","info":""}},{"type":"Feature","geometry":{"type":"Point","coordinates":[123.438293,41.793888]},"properties":{"province":"辽宁省","city":"沈阳市","county":"沈河区","community":"朱剪炉街道迎新社区大西路316号单体楼","full_address":"辽宁省沈阳市沈河区朱剪炉街道迎新社区大西路316号单体楼","info":""}},{"type":"Feature","geometry":{"type":"Point","coordinates":[123.444356,41.801568]},"properties":{"province":"辽宁省","city":"沈阳市","county":"沈河区","community":"朱剪炉街道宝石社区小西路38号单体楼","full_address":"辽宁省沈阳市沈河区朱剪炉街道宝石社区小西路38号单体楼","info":""}},{"type":"Feature","geometry":{"type":"Point","coordinates":[123.396588,41.803919]},"properties":{"province":"辽宁省","city":"沈阳市","county":"铁西区","community":"霁虹街道晋斯华庭小区","full_address":"辽宁省沈阳市铁西区霁虹街道晋斯华庭小区","info":""}},{"type":"Feature","geometry":{"type":"Point","coordinates":[123.388383,41.804359]},"properties":{"province":"辽宁省","city":"沈阳市","county":"铁西区","community":"霁虹街道保利百合花园（北园）小区","full_address":"辽宁省沈阳市铁西区霁虹街道保利百合花园（北园）小区","info":""}},{"type":"Feature","geometry":{"type":"Point","coordinates":[126.75841,45.727079]},"properties":{"province":"黑龙江省","city":"哈尔滨市","county":"香坊区","community":"高丽风情小镇(除16号楼)","full_address":"黑龙江省哈尔滨市香坊区高丽风情小镇(除16号楼)","info":""}},{"type":"Feature","geometry":{"type":"Point","coordinates":[126.761453,45.727293]},"properties":{"province":"黑龙江省","city":"哈尔滨市","county":"香坊区","community":"金源幸福小区","full_address":"黑龙江省哈尔滨市香坊区金源幸福小区","info":""}},{"type":"Feature","geometry":{"type":"Point","coordinates":[125.127901,46.602879]},"properties":{"province":"黑龙江省","city":"大庆市","county":"萨尔图区","community":"绿园街道福瑞家园小区及裙带商服所属区域","full_address":"黑龙江省大庆市萨尔图区绿园街道福瑞家园小区及裙带商服所属区域","info":""}},{"type":"Feature","geometry":{"type":"Point","coordinates":[125.129481,46.585264]},"properties":{"province":"黑龙江省","city":"大庆市","county":"萨尔图区","community":"黎明街道科技路南苑新城1号楼","full_address":"黑龙江省大庆市萨尔图区黎明街道科技路南苑新城1号楼","info":""}},{"type":"Feature","geometry":{"type":"Point","coordinates":[125.138713,46.581164]},"properties":{"province":"黑龙江省","city":"大庆市","county":"萨尔图区","community":"黎明街道富民街九区9-79号楼","full_address":"黑龙江省大庆市萨尔图区黎明街道富民街九区9-79号楼","info":""}},{"type":"Feature","geometry":{"type":"Point","coordinates":[125.102462,46.596307]},"properties":{"province":"黑龙江省","city":"大庆市","county":"萨尔图区","community":"东风街道新星小区F组团（除H3号楼）","full_address":"黑龙江省大庆市萨尔图区东风街道新星小区F组团（除H3号楼）","info":""}},{"type":"Feature","geometry":{"type":"Point","coordinates":[125.130553,46.575373]},"properties":{"province":"黑龙江省","city":"大庆市","county":"萨尔图区","community":"黎明街道富民街湖滨花园小区","full_address":"黑龙江省大庆市萨尔图区黎明街道富民街湖滨花园小区","info":""}},{"type":"Feature","geometry":{"type":"Point","coordinates":[125.162068,46.545157]},"properties":{"province":"黑龙江省","city":"大庆市","county":"龙凤区","community":"湿地街道欣凤学城三期小区内全域","full_address":"黑龙江省大庆市龙凤区湿地街道欣凤学城三期小区内全域","info":""}},{"type":"Feature","geometry":{"type":"Point","coordinates":[125.11161,46.517048]},"properties":{"province":"黑龙江省","city":"大庆市","county":"龙凤区","community":"龙凤镇龙府小区全域","full_address":"黑龙江省大庆市龙凤区龙凤镇龙府小区全域","info":""}},{"type":"Feature","geometry":{"type":"Point","coordinates":[125.108446,46.535]},"properties":{"province":"黑龙江省","city":"大庆市","county":"龙凤区","community":"龙凤街道泰9宾馆所在楼栋","full_address":"黑龙江省大庆市龙凤区龙凤街道泰9宾馆所在楼栋","info":""}},{"type":"Feature","geometry":{"type":"Point","coordinates":[125.136816,46.565092]},"properties":{"province":"黑龙江省","city":"大庆市","county":"龙凤区","community":"龙政街道唐人中心小区及周边商服全域","full_address":"黑龙江省大庆市龙凤区龙政街道唐人中心小区及周边商服全域","info":""}},{"type":"Feature","geometry":{"type":"Point","coordinates":[125.117977,46.534987]},"properties":{"province":"黑龙江省","city":"大庆市","county":"龙凤区","community":"卧里屯街道铁路小区全域","full_address":"黑龙江省大庆市龙凤区卧里屯街道铁路小区全域","info":""}},{"type":"Feature","geometry":{"type":"Point","coordinates":[125.121023,46.54538]},"properties":{"province":"黑龙江省","city":"大庆市","county":"龙凤区","community":"三永街道三永街道办公楼全域","full_address":"黑龙江省大庆市龙凤区三永街道三永街道办公楼全域","info":""}},{"type":"Feature","geometry":{"type":"Point","coordinates":[125.1176,46.5481]},"properties":{"province":"黑龙江省","city":"大庆市","county":"龙凤区","community":"三永街道御湖湾尚品幼儿园全域","full_address":"黑龙江省大庆市龙凤区三永街道御湖湾尚品幼儿园全域","info":""}},{"type":"Feature","geometry":{"type":"Point","coordinates":[125.121671,46.532166]},"properties":{"province":"黑龙江省","city":"大庆市","county":"龙凤区","community":"龙凤街道龙祥小区全域","full_address":"黑龙江省大庆市龙凤区龙凤街道龙祥小区全域","info":""}},{"type":"Feature","geometry":{"type":"Point","coordinates":[125.138014,46.5607]},"properties":{"province":"黑龙江省","city":"大庆市","county":"龙凤区","community":"龙政街道华溪龙城二期小区全域","full_address":"黑龙江省大庆市龙凤区龙政街道华溪龙城二期小区全域","info":""}},{"type":"Feature","geometry":{"type":"Point","coordinates":[125.114015,46.519621]},"properties":{"province":"黑龙江省","city":"大庆市","county":"龙凤区","community":"龙凤镇中心小学全域","full_address":"黑龙江省大庆市龙凤区龙凤镇中心小学全域","info":""}},{"type":"Feature","geometry":{"type":"Point","coordinates":[125.108027,46.535235]},"properties":{"province":"黑龙江省","city":"大庆市","county":"龙凤区","community":"龙凤街道凤阳三区全域","full_address":"黑龙江省大庆市龙凤区龙凤街道凤阳三区全域","info":""}},{"type":"Feature","geometry":{"type":"Point","coordinates":[125.144701,46.555263]},"properties":{"province":"黑龙江省","city":"大庆市","county":"龙凤区","community":"龙政街道滨海花园小区全域","full_address":"黑龙江省大庆市龙凤区龙政街道滨海花园小区全域","info":""}},{"type":"Feature","geometry":{"type":"Point","coordinates":[125.138346,46.5585]},"properties":{"province":"黑龙江省","city":"大庆市","county":"龙凤区","community":"龙政街道东城领秀B区7号楼","full_address":"黑龙江省大庆市龙凤区龙政街道东城领秀B区7号楼","info":""}},{"type":"Feature","geometry":{"type":"Point","coordinates":[125.114373,46.519031]},"properties":{"province":"黑龙江省","city":"大庆市","county":"龙凤区","community":"龙凤镇鑫腾宾馆全域","full_address":"黑龙江省大庆市龙凤区龙凤镇鑫腾宾馆全域","info":""}},{"type":"Feature","geometry":{"type":"Point","coordinates":[130.35786,46.81787]},"properties":{"province":"黑龙江省","city":"佳木斯市","county":"向阳区","community":"时代景城A区9号楼","full_address":"黑龙江省佳木斯市向阳区时代景城A区9号楼","info":""}},{"type":"Feature","geometry":{"type":"Point","coordinates":[130.354893,46.801089]},"properties":{"province":"黑龙江省","city":"佳木斯市","county":"向阳区","community":"桥北街15号","full_address":"黑龙江省佳木斯市向阳区桥北街15号","info":""}},{"type":"Feature","geometry":{"type":"Point","coordinates":[130.367195,46.790717]},"properties":{"province":"黑龙江省","city":"佳木斯市","county":"向阳区","community":"龙海名苑小区","full_address":"黑龙江省佳木斯市向阳区龙海名苑小区","info":""}},{"type":"Feature","geometry":{"type":"Point","coordinates":[130.36703,46.811155]},"properties":{"province":"黑龙江省","city":"佳木斯市","county":"向阳区","community":"时代景城小区","full_address":"黑龙江省佳木斯市向阳区时代景城小区","info":""}},{"type":"Feature","geometry":{"type":"Point","coordinates":[130.368897,46.811794]},"properties":{"province":"黑龙江省","city":"佳木斯市","county":"向阳区","community":"铭诗苑小区","full_address":"黑龙江省佳木斯市向阳区铭诗苑小区","info":""}},{"type":"Feature","geometry":{"type":"Point","coordinates":[130.364084,46.813226]},"properties":{"province":"黑龙江省","city":"佳木斯市","county":"向阳区","community":"景江小区","full_address":"黑龙江省佳木斯市向阳区景江小区","info":""}},{"type":"Feature","geometry":{"type":"Point","coordinates":[130.33441,46.818623]},"properties":{"province":"黑龙江省","city":"佳木斯市","county":"向阳区","community":"罗曼庄园","full_address":"黑龙江省佳木斯市向阳区罗曼庄园","info":""}},{"type":"Feature","geometry":{"type":"Point","coordinates":[130.355583,46.811417]},"properties":{"province":"黑龙江省","city":"佳木斯市","county":"向阳区","community":"建业小区","full_address":"黑龙江省佳木斯市向阳区建业小区","info":""}},{"type":"Feature","geometry":{"type":"Point","coordinates":[130.376464,46.79375]},"properties":{"province":"黑龙江省","city":"佳木斯市","county":"向阳区","community":"南铁西小区","full_address":"黑龙江省佳木斯市向阳区南铁西小区","info":""}},{"type":"Feature","geometry":{"type":"Point","coordinates":[130.361175,46.811067]},"properties":{"province":"黑龙江省","city":"佳木斯市","county":"向阳区","community":"珍铭苑小区","full_address":"黑龙江省佳木斯市向阳区珍铭苑小区","info":""}},{"type":"Feature","geometry":{"type":"Point","coordinates":[130.361901,46.805448]},"properties":{"province":"黑龙江省","city":"佳木斯市","county":"向阳区","community":"世水花园一期至三期","full_address":"黑龙江省佳木斯市向阳区世水花园一期至三期","info":""}},{"type":"Feature","geometry":{"type":"Point","coordinates":[130.3757,46.787406]},"properties":{"province":"黑龙江省","city":"佳木斯市","county":"向阳区","community":"佳木斯大学三角地","full_address":"黑龙江省佳木斯市向阳区佳木斯大学三角地","info":""}},{"type":"Feature","geometry":{"type":"Point","coordinates":[130.365759,46.786449]},"properties":{"province":"黑龙江省","city":"佳木斯市","county":"向阳区","community":"佳木斯大学一区B院","full_address":"黑龙江省佳木斯市向阳区佳木斯大学一区B院","info":""}},{"type":"Feature","geometry":{"type":"Point","coordinates":[130.332412,46.793061]},"properties":{"province":"黑龙江省","city":"佳木斯市","county":"向阳区","community":"万公馆","full_address":"黑龙江省佳木斯市向阳区万公馆","info":""}},{"type":"Feature","geometry":{"type":"Point","coordinates":[130.367927,46.811683]},"properties":{"province":"黑龙江省","city":"佳木斯市","county":"向阳区","community":"万达华府一期、二期","full_address":"黑龙江省佳木斯市向阳区万达华府一期、二期","info":""}},{"type":"Feature","geometry":{"type":"Point","coordinates":[130.366323,46.812309]},"properties":{"province":"黑龙江省","city":"佳木斯市","county":"向阳区","community":"红旗嘉苑","full_address":"黑龙江省佳木斯市向阳区红旗嘉苑","info":""}},{"type":"Feature","geometry":{"type":"Point","coordinates":[130.390257,46.809499]},"properties":{"province":"黑龙江省","city":"佳木斯市","county":"向阳区","community":"党校小区","full_address":"黑龙江省佳木斯市向阳区党校小区","info":""}},{"type":"Feature","geometry":{"type":"Point","coordinates":[130.355074,46.817015]},"properties":{"province":"黑龙江省","city":"佳木斯市","county":"向阳区","community":"金地家园","full_address":"黑龙江省佳木斯市向阳区金地家园","info":""}},{"type":"Feature","geometry":{"type":"Point","coordinates":[130.340464,46.809775]},"properties":{"province":"黑龙江省","city":"佳木斯市","county":"向阳区","community":"常青花园小区","full_address":"黑龙江省佳木斯市向阳区常青花园小区","info":""}},{"type":"Feature","geometry":{"type":"Point","coordinates":[130.337405,46.806864]},"properties":{"province":"黑龙江省","city":"佳木斯市","county":"向阳区","community":"港龙东方城小区","full_address":"黑龙江省佳木斯市向阳区港龙东方城小区","info":""}},{"type":"Feature","geometry":{"type":"Point","coordinates":[130.3545,46.81775]},"properties":{"province":"黑龙江省","city":"佳木斯市","county":"向阳区","community":"御景华庭小区","full_address":"黑龙江省佳木斯市向阳区御景华庭小区","info":""}},{"type":"Feature","geometry":{"type":"Point","coordinates":[130.362298,46.810445]},"properties":{"province":"黑龙江省","city":"佳木斯市","county":"向阳区","community":"鹤电小区","full_address":"黑龙江省佳木斯市向阳区鹤电小区","info":""}},{"type":"Feature","geometry":{"type":"Point","coordinates":[130.3552,46.815]},"properties":{"province":"黑龙江省","city":"佳木斯市","county":"向阳区","community":"牧工商小区","full_address":"黑龙江省佳木斯市向阳区牧工商小区","info":""}},{"type":"Feature","geometry":{"type":"Point","coordinates":[130.36803,46.804326]},"properties":{"province":"黑龙江省","city":"佳木斯市","county":"向阳区","community":"永房教育一小区","full_address":"黑龙江省佳木斯市向阳区永房教育一小区","info":""}},{"type":"Feature","geometry":{"type":"Point","coordinates":[130.365346,46.80779]},"properties":{"province":"黑龙江省","city":"佳木斯市","county":"向阳区","community":"天福城东区","full_address":"黑龙江省佳木斯市向阳区天福城东区","info":""}},{"type":"Feature","geometry":{"type":"Point","coordinates":[130.368402,46.786902]},"properties":{"province":"黑龙江省","city":"佳木斯市","county":"向阳区","community":"新华名苑小区","full_address":"黑龙江省佳木斯市向阳区新华名苑小区","info":""}},{"type":"Feature","geometry":{"type":"Point","coordinates":[130.367242,46.790403]},"properties":{"province":"黑龙江省","city":"佳木斯市","county":"向阳区","community":"翰林名苑小区","full_address":"黑龙江省佳木斯市向阳区翰林名苑小区","info":""}},{"type":"Feature","geometry":{"type":"Point","coordinates":[130.362545,46.810295]},"properties":{"province":"黑龙江省","city":"佳木斯市","county":"向阳区","community":"爱心家园小区","full_address":"黑龙江省佳木斯市向阳区爱心家园小区","info":""}},{"type":"Feature","geometry":{"type":"Point","coordinates":[130.360668,46.811921]},"properties":{"province":"黑龙江省","city":"佳木斯市","county":"向阳区","community":"滨江小区二期","full_address":"黑龙江省佳木斯市向阳区滨江小区二期","info":""}},{"type":"Feature","geometry":{"type":"Point","coordinates":[130.35455,46.8155]},"properties":{"province":"黑龙江省","city":"佳木斯市","county":"向阳区","community":"帝景豪庭小区","full_address":"黑龙江省佳木斯市向阳区帝景豪庭小区","info":""}},{"type":"Feature","geometry":{"type":"Point","coordinates":[130.356375,46.811]},"properties":{"province":"黑龙江省","city":"佳木斯市","county":"向阳区","community":"九州社区永房小区","full_address":"黑龙江省佳木斯市向阳区九州社区永房小区","info":""}},{"type":"Feature","geometry":{"type":"Point","coordinates":[130.362871,46.801909]},"properties":{"province":"黑龙江省","city":"佳木斯市","county":"向阳区","community":"杏湖壹品小区","full_address":"黑龙江省佳木斯市向阳区杏湖壹品小区","info":""}},{"type":"Feature","geometry":{"type":"Point","coordinates":[130.362259,46.816528]},"properties":{"province":"黑龙江省","city":"佳木斯市","county":"向阳区","community":"西林金地小区","full_address":"黑龙江省佳木斯市向阳区西林金地小区","info":""}},{"type":"Feature","geometry":{"type":"Point","coordinates":[130.362853,46.810853]},"properties":{"province":"黑龙江省","city":"佳木斯市","county":"向阳区","community":"三江商贸城小区","full_address":"黑龙江省佳木斯市向阳区三江商贸城小区","info":""}},{"type":"Feature","geometry":{"type":"Point","coordinates":[130.348223,46.804335]},"properties":{"province":"黑龙江省","city":"佳木斯市","county":"向阳区","community":"长青街教育一小区","full_address":"黑龙江省佳木斯市向阳区长青街教育一小区","info":""}},{"type":"Feature","geometry":{"type":"Point","coordinates":[130.36803,46.804326]},"properties":{"province":"黑龙江省","city":"佳木斯市","county":"向阳区","community":"璞院小区","full_address":"黑龙江省佳木斯市向阳区璞院小区","info":""}},{"type":"Feature","geometry":{"type":"Point","coordinates":[130.36803,46.804326]},"properties":{"province":"黑龙江省","city":"佳木斯市","county":"向阳区","community":"光明社区小区","full_address":"黑龙江省佳木斯市向阳区光明社区小区","info":""}},{"type":"Feature","geometry":{"type":"Point","coordinates":[130.339152,46.789059]},"properties":{"province":"黑龙江省","city":"佳木斯市","county":"向阳区","community":"万象府小区","full_address":"黑龙江省佳木斯市向阳区万象府小区","info":""}},{"type":"Feature","geometry":{"type":"Point","coordinates":[130.386265,46.819277]},"properties":{"province":"黑龙江省","city":"佳木斯市","county":"前进区","community":"金港湾小区","full_address":"黑龙江省佳木斯市前进区金港湾小区","info":""}},{"type":"Feature","geometry":{"type":"Point","coordinates":[130.372973,46.815464]},"properties":{"province":"黑龙江省","city":"佳木斯市","county":"前进区","community":"太阳市场小区","full_address":"黑龙江省佳木斯市前进区太阳市场小区","info":""}},{"type":"Feature","geometry":{"type":"Point","coordinates":[130.369111,46.808823]},"properties":{"province":"黑龙江省","city":"佳木斯市","county":"前进区","community":"都市人居小区C栋、千里马楼","full_address":"黑龙江省佳木斯市前进区都市人居小区C栋、千里马楼","info":""}},{"type":"Feature","geometry":{"type":"Point","coordinates":[130.403134,46.799793]},"properties":{"province":"黑龙江省","city":"佳木斯市","county":"前进区","community":"胜利小区","full_address":"黑龙江省佳木斯市前进区胜利小区","info":""}},{"type":"Feature","geometry":{"type":"Point","coordinates":[130.377454,46.811865]},"properties":{"province":"黑龙江省","city":"佳木斯市","county":"前进区","community":"国脉通3号楼和2号楼所在的小区","full_address":"黑龙江省佳木斯市前进区国脉通3号楼和2号楼所在的小区","info":""}},{"type":"Feature","geometry":{"type":"Point","coordinates":[130.404014,46.823333]},"properties":{"province":"黑龙江省","city":"佳木斯市","county":"前进区","community":"长安东路201号门市","full_address":"黑龙江省佳木斯市前进区长安东路201号门市","info":""}},{"type":"Feature","geometry":{"type":"Point","coordinates":[130.375356,46.803412]},"properties":{"province":"黑龙江省","city":"佳木斯市","county":"前进区","community":"站前路佳和福居小区","full_address":"黑龙江省佳木斯市前进区站前路佳和福居小区","info":""}},{"type":"Feature","geometry":{"type":"Point","coordinates":[130.390148,46.810654]},"properties":{"province":"黑龙江省","city":"佳木斯市","county":"前进区","community":"鸿基家园小区","full_address":"黑龙江省佳木斯市前进区鸿基家园小区","info":""}},{"type":"Feature","geometry":{"type":"Point","coordinates":[130.375063,46.814103]},"properties":{"province":"黑龙江省","city":"佳木斯市","county":"前进区","community":"粮库7组啤酒厂家属楼小区","full_address":"黑龙江省佳木斯市前进区粮库7组啤酒厂家属楼小区","info":""}},{"type":"Feature","geometry":{"type":"Point","coordinates":[130.384119,46.796878]},"properties":{"province":"黑龙江省","city":"佳木斯市","county":"前进区","community":"枫桥河畔小区","full_address":"黑龙江省佳木斯市前进区枫桥河畔小区","info":""}},{"type":"Feature","geometry":{"type":"Point","coordinates":[130.382475,46.793502]},"properties":{"province":"黑龙江省","city":"佳木斯市","county":"前进区","community":"山水家园小区","full_address":"黑龙江省佳木斯市前进区山水家园小区","info":""}},{"type":"Feature","geometry":{"type":"Point","coordinates":[130.405001,46.825163]},"properties":{"province":"黑龙江省","city":"佳木斯市","county":"东风区","community":"建国办兴电社区发电北区","full_address":"黑龙江省佳木斯市东风区建国办兴电社区发电北区","info":""}},{"type":"Feature","geometry":{"type":"Point","coordinates":[130.398726,46.816616]},"properties":{"province":"黑龙江省","city":"佳木斯市","county":"东风区","community":"阳光绿洲小区","full_address":"黑龙江省佳木斯市东风区阳光绿洲小区","info":""}},{"type":"Feature","geometry":{"type":"Point","coordinates":[130.362853,46.810853]},"properties":{"province":"黑龙江省","city":"佳木斯市","county":"郊区","community":"万兴华城小区","full_address":"黑龙江省佳木斯市郊区万兴华城小区","info":""}},{"type":"Feature","geometry":{"type":"Point","coordinates":[130.368566,46.812271]},"properties":{"province":"黑龙江省","city":"佳木斯市","county":"郊区","community":"长安新城小区","full_address":"黑龙江省佳木斯市郊区长安新城小区","info":""}},{"type":"Feature","geometry":{"type":"Point","coordinates":[130.402714,46.822482]},"properties":{"province":"黑龙江省","city":"佳木斯市","county":"郊区","community":"物价小区","full_address":"黑龙江省佳木斯市郊区物价小区","info":""}},{"type":"Feature","geometry":{"type":"Point","coordinates":[130.29837,46.805775]},"properties":{"province":"黑龙江省","city":"佳木斯市","county":"郊区","community":"五一社区三合小区","full_address":"黑龙江省佳木斯市郊区五一社区三合小区","info":""}},{"type":"Feature","geometry":{"type":"Point","coordinates":[130.328485,46.804589]},"properties":{"province":"黑龙江省","city":"佳木斯市","county":"郊区","community":"英伦尚城小区","full_address":"黑龙江省佳木斯市郊区英伦尚城小区","info":""}},{"type":"Feature","geometry":{"type":"Point","coordinates":[130.320609,46.803399]},"properties":{"province":"黑龙江省","city":"佳木斯市","county":"郊区","community":"荷兰城观湖小区","full_address":"黑龙江省佳木斯市郊区荷兰城观湖小区","info":""}},{"type":"Feature","geometry":{"type":"Point","coordinates":[130.329537,46.808157]},"properties":{"province":"黑龙江省","city":"佳木斯市","county":"郊区","community":"欧亚小镇小区","full_address":"黑龙江省佳木斯市郊区欧亚小镇小区","info":""}},{"type":"Feature","geometry":{"type":"Point","coordinates":[130.315951,46.817032]},"properties":{"province":"黑龙江省","city":"佳木斯市","county":"郊区","community":"江南雅居小区","full_address":"黑龙江省佳木斯市郊区江南雅居小区","info":""}},{"type":"Feature","geometry":{"type":"Point","coordinates":[130.240296,46.801003]},"properties":{"province":"黑龙江省","city":"佳木斯市","county":"郊区","community":"佳天国际小区","full_address":"黑龙江省佳木斯市郊区佳天国际小区","info":""}},{"type":"Feature","geometry":{"type":"Point","coordinates":[127.52839,50.232986]},"properties":{"province":"黑龙江省","city":"黑河市","county":"爱辉区","community":"中央东大街365号","full_address":"黑龙江省黑河市爱辉区中央东大街365号","info":""}},{"type":"Feature","geometry":{"type":"Point","coordinates":[0,0]},"properties":{"province":"黑龙江省","city":"黑河市","county":"爱辉区","community":"花园街道博文社区弘发粮苑小区（除4号楼1单元）、4号楼附属门市（除1单元附属门市）及粮苑超市（电业街41号）、黑河供销（社区）商城划定为中风险区","full_address":"黑龙江省黑河市爱辉区花园街道博文社区弘发粮苑小区（除4号楼1单元）、4号楼附属门市（除1单元附属门市）及粮苑超市（电业街41号）、黑河供销（社区）商城划定为中风险区","info":""}},{"type":"Feature","geometry":{"type":"Point","coordinates":[127.521653,50.235038]},"properties":{"province":"黑龙江省","city":"黑河市","county":"爱辉区","community":"花园街道博文社区安发小区3号楼（不含1单元）","full_address":"黑龙江省黑河市爱辉区花园街道博文社区安发小区3号楼（不含1单元）","info":""}},{"type":"Feature","geometry":{"type":"Point","coordinates":[127.501834,50.238791]},"properties":{"province":"黑龙江省","city":"黑河市","county":"爱辉区","community":"花园街道长海社区龙滨嘉苑小区1号楼、2号楼（不含1单元及1单元附属门市）、4号楼（不含1单元及1单元楼下车库）、8号楼","full_address":"黑龙江省黑河市爱辉区花园街道长海社区龙滨嘉苑小区1号楼、2号楼（不含1单元及1单元附属门市）、4号楼（不含1单元及1单元楼下车库）、8号楼","info":""}},{"type":"Feature","geometry":{"type":"Point","coordinates":[127.500209,50.2385]},"properties":{"province":"黑龙江省","city":"黑河市","county":"爱辉区","community":"花园街道长海社区黑龙大厦水利家属楼（不含1单元）及院内2户平房、永顺汽车修理厂、远恒废品收购部","full_address":"黑龙江省黑河市爱辉区花园街道长海社区黑龙大厦水利家属楼（不含1单元）及院内2户平房、永顺汽车修理厂、远恒废品收购部","info":""}},{"type":"Feature","geometry":{"type":"Point","coordinates":[127.512145,50.241397]},"properties":{"province":"黑龙江省","city":"黑河市","county":"爱辉区","community":"海兰街道温馨社区供销社家属楼（不含3单元）、盛世华庭小区、多客隆食杂店、迎恩路110—2号、万顺叫车黑河分公司喇嘛台社区服务站（迎恩路110—3号）、澳创集团（迎恩路112—1号）、罗曼蒂克婚纱馆（迎恩路112—4号）、乡村铁锅炖（迎恩路114—2号）、洪森沙发（迎恩路114—3号）门市","full_address":"黑龙江省黑河市爱辉区海兰街道温馨社区供销社家属楼（不含3单元）、盛世华庭小区、多客隆食杂店、迎恩路110—2号、万顺叫车黑河分公司喇嘛台社区服务站（迎恩路110—3号）、澳创集团（迎恩路112—1号）、罗曼蒂克婚纱馆（迎恩路112—4号）、乡村铁锅炖（迎恩路114—2号）、洪森沙发（迎恩路114—3号）门市","info":""}},{"type":"Feature","geometry":{"type":"Point","coordinates":[127.497957,50.252053]},"properties":{"province":"黑龙江省","city":"黑河市","county":"爱辉区","community":"海兰街道鹿源春社区中房怡园小区（不含66号楼2单元及2单元附属门市）","full_address":"黑龙江省黑河市爱辉区海兰街道鹿源春社区中房怡园小区（不含66号楼2单元及2单元附属门市）","info":""}},{"type":"Feature","geometry":{"type":"Point","coordinates":[127.476292,50.246054]},"properties":{"province":"黑龙江省","city":"黑河市","county":"爱辉区","community":"海兰街道温馨社区力波家园19号楼、23号楼、24号楼（不含1单元）、25号楼","full_address":"黑龙江省黑河市爱辉区海兰街道温馨社区力波家园19号楼、23号楼、24号楼（不含1单元）、25号楼","info":""}},{"type":"Feature","geometry":{"type":"Point","coordinates":[127.484806,50.256644]},"properties":{"province":"黑龙江省","city":"黑河市","county":"爱辉区","community":"西兴街道人保财险社区益民一区5号楼、7号楼（不含5单元及5单元附属门市）","full_address":"黑龙江省黑河市爱辉区西兴街道人保财险社区益民一区5号楼、7号楼（不含5单元及5单元附属门市）","info":""}},{"type":"Feature","geometry":{"type":"Point","coordinates":[127.505825,50.233663]},"properties":{"province":"黑龙江省","city":"黑河市","county":"爱辉区","community":"花园街道长海社区国税小区1号楼及附属门市（不含4单元及4单元附属门市）、2号楼","full_address":"黑龙江省黑河市爱辉区花园街道长海社区国税小区1号楼及附属门市（不含4单元及4单元附属门市）、2号楼","info":""}},{"type":"Feature","geometry":{"type":"Point","coordinates":[127.518173,50.240237]},"properties":{"province":"黑龙江省","city":"黑河市","county":"爱辉区","community":"花园街道长海社区边检楼及附属门市、武警楼及附属门市","full_address":"黑龙江省黑河市爱辉区花园街道长海社区边检楼及附属门市、武警楼及附属门市","info":""}},{"type":"Feature","geometry":{"type":"Point","coordinates":[127.517764,50.245825]},"properties":{"province":"黑龙江省","city":"黑河市","county":"爱辉区","community":"花园街道金兰社区华林庭苑小区及附属门市（不含1号楼2单元及2单元附属门市）","full_address":"黑龙江省黑河市爱辉区花园街道金兰社区华林庭苑小区及附属门市（不含1号楼2单元及2单元附属门市）","info":""}},{"type":"Feature","geometry":{"type":"Point","coordinates":[127.530701,50.237656]},"properties":{"province":"黑龙江省","city":"黑河市","county":"爱辉区","community":"花园街道武庙屯社区之路佳苑小区8号楼及附属门市、9号楼、10号楼（不含3单元）、11号楼","full_address":"黑龙江省黑河市爱辉区花园街道武庙屯社区之路佳苑小区8号楼及附属门市、9号楼、10号楼（不含3单元）、11号楼","info":""}},{"type":"Feature","geometry":{"type":"Point","coordinates":[127.521489,50.234591]},"properties":{"province":"黑龙江省","city":"黑河市","county":"爱辉区","community":"花园街道博文社区安发小区及附属门市（不含3号楼1单元、7号楼4单元）","full_address":"黑龙江省黑河市爱辉区花园街道博文社区安发小区及附属门市（不含3号楼1单元、7号楼4单元）","info":""}},{"type":"Feature","geometry":{"type":"Point","coordinates":[127.53045,50.230125]},"properties":{"province":"黑龙江省","city":"黑河市","county":"爱辉区","community":"花园街道博文社区学府家园小区1号楼1单元、2号楼（不含7单元）","full_address":"黑龙江省黑河市爱辉区花园街道博文社区学府家园小区1号楼1单元、2号楼（不含7单元）","info":""}},{"type":"Feature","geometry":{"type":"Point","coordinates":[127.509752,50.231367]},"properties":{"province":"黑龙江省","city":"黑河市","county":"爱辉区","community":"花园街道博文社区中房尚城小区及附属门市（不含1号楼2单元及2单元附属门市、5号楼4单元及4单元附属门市）","full_address":"黑龙江省黑河市爱辉区花园街道博文社区中房尚城小区及附属门市（不含1号楼2单元及2单元附属门市、5号楼4单元及4单元附属门市）","info":""}},{"type":"Feature","geometry":{"type":"Point","coordinates":[0,0]},"properties":{"province":"黑龙江省","city":"黑河市","county":"爱辉区","community":"花园街道长海社区学苑小区1号楼（不含3单元）及电业街17号、19号、21号、23号、25号、27号、29号门市。","full_address":"黑龙江省黑河市爱辉区花园街道长海社区学苑小区1号楼（不含3单元）及电业街17号、19号、21号、23号、25号、27号、29号门市。","info":""}},{"type":"Feature","geometry":{"type":"Point","coordinates":[127.489122,50.246789]},"properties":{"province":"黑龙江省","city":"黑河市","county":"爱辉区","community":"海兰街道鹿源春社区金达之家小区及附属门市（不含民航家属楼6单元及6单元附属门市、国际公司改造楼2单元及2单元附属门市）","full_address":"黑龙江省黑河市爱辉区海兰街道鹿源春社区金达之家小区及附属门市（不含民航家属楼6单元及6单元附属门市、国际公司改造楼2单元及2单元附属门市）","info":""}},{"type":"Feature","geometry":{"type":"Point","coordinates":[127.478895,50.244896]},"properties":{"province":"黑龙江省","city":"黑河市","county":"爱辉区","community":"海兰街道温馨社区北国明珠小区及附属车库（不含7号楼1单元及1单元附属车库、18号楼2单元及2单元附属车库）","full_address":"黑龙江省黑河市爱辉区海兰街道温馨社区北国明珠小区及附属车库（不含7号楼1单元及1单元附属车库、18号楼2单元及2单元附属车库）","info":""}},{"type":"Feature","geometry":{"type":"Point","coordinates":[127.49554,50.243425]},"properties":{"province":"黑龙江省","city":"黑河市","county":"爱辉区","community":"兴安街道热电社区民政小区（不含61号楼5单元、一建2号楼3单元）","full_address":"黑龙江省黑河市爱辉区兴安街道热电社区民政小区（不含61号楼5单元、一建2号楼3单元）","info":""}},{"type":"Feature","geometry":{"type":"Point","coordinates":[127.483609,50.249889]},"properties":{"province":"黑龙江省","city":"黑河市","county":"爱辉区","community":"西兴街道福龙社区益民二区8号楼及附属门市（不含5单元及5单元附属门市）","full_address":"黑龙江省黑河市爱辉区西兴街道福龙社区益民二区8号楼及附属门市（不含5单元及5单元附属门市）","info":""}},{"type":"Feature","geometry":{"type":"Point","coordinates":[127.500451,50.252106]},"properties":{"province":"黑龙江省","city":"黑河市","county":"爱辉区","community":"中燃厂区办公楼","full_address":"黑龙江省黑河市爱辉区中燃厂区办公楼","info":""}},{"type":"Feature","geometry":{"type":"Point","coordinates":[0,0]},"properties":{"province":"黑龙江省","city":"黑河市","county":"爱辉区","community":"兴安街道金融社区祥和景园小区4、5、6、7、9、10单元划定为中风险区","full_address":"黑龙江省黑河市爱辉区兴安街道金融社区祥和景园小区4、5、6、7、9、10单元划定为中风险区","info":""}},{"type":"Feature","geometry":{"type":"Point","coordinates":[127.519319,50.234282]},"properties":{"province":"黑龙江省","city":"黑河市","county":"爱辉区","community":"爱辉区花园街道博文社区华泰龙江嘉园小区（龙江路115—1号）及附属门市","full_address":"黑龙江省黑河市爱辉区爱辉区花园街道博文社区华泰龙江嘉园小区（龙江路115—1号）及附属门市","info":""}},{"type":"Feature","geometry":{"type":"Point","coordinates":[121.125152,30.988061]},"properties":{"province":"上海市","city":"上海市","county":"青浦区","community":"练塘镇西至西泾江、东至泖阳港、南至老松蒸公路、北至松蒸公路的区域","full_address":"上海市上海市青浦区练塘镇西至西泾江、东至泖阳港、南至老松蒸公路、北至松蒸公路的区域","info":""}},{"type":"Feature","geometry":{"type":"Point","coordinates":[121.743407,31.892494]},"properties":{"province":"江苏省","city":"南通市","county":"启东市","community":"南阳镇红星村14组","full_address":"江苏省南通市启东市南阳镇红星村14组","info":""}},{"type":"Feature","geometry":{"type":"Point","coordinates":[121.743407,31.892494]},"properties":{"province":"江苏省","city":"南通市","county":"启东市","community":"南阳镇红星村15组","full_address":"江苏省南通市启东市南阳镇红星村15组","info":""}},{"type":"Feature","geometry":{"type":"Point","coordinates":[121.743407,31.892494]},"properties":{"province":"江苏省","city":"南通市","county":"启东市","community":"南阳镇红星村16组","full_address":"江苏省南通市启东市南阳镇红星村16组","info":""}},{"type":"Feature","geometry":{"type":"Point","coordinates":[121.743407,31.892494]},"properties":{"province":"江苏省","city":"南通市","county":"启东市","community":"南阳镇红星村17组","full_address":"江苏省南通市启东市南阳镇红星村17组","info":""}},{"type":"Feature","geometry":{"type":"Point","coordinates":[121.743407,31.892494]},"properties":{"province":"江苏省","city":"南通市","county":"启东市","community":"南阳镇红星村18组","full_address":"江苏省南通市启东市南阳镇红星村18组","info":""}},{"type":"Feature","geometry":{"type":"Point","coordinates":[121.710002,31.961929]},"properties":{"province":"江苏省","city":"南通市","county":"启东市","community":"海复镇安东村21组","full_address":"江苏省南通市启东市海复镇安东村21组","info":""}},{"type":"Feature","geometry":{"type":"Point","coordinates":[121.710002,31.961929]},"properties":{"province":"江苏省","city":"南通市","county":"启东市","community":"海复镇安东村22组","full_address":"江苏省南通市启东市海复镇安东村22组","info":""}},{"type":"Feature","geometry":{"type":"Point","coordinates":[121.710002,31.961929]},"properties":{"province":"江苏省","city":"南通市","county":"启东市","community":"海复镇安东村23组","full_address":"江苏省南通市启东市海复镇安东村23组","info":""}},{"type":"Feature","geometry":{"type":"Point","coordinates":[121.710002,31.961929]},"properties":{"province":"江苏省","city":"南通市","county":"启东市","community":"海复镇安东村24组","full_address":"江苏省南通市启东市海复镇安东村24组","info":""}},{"type":"Feature","geometry":{"type":"Point","coordinates":[120.617676,27.50852]},"properties":{"province":"浙江省","city":"温州市","county":"龙港市","community":"金沙江实业有限公司（新城开发区时代大道海景路999号）","full_address":"浙江省温州市龙港市金沙江实业有限公司（新城开发区时代大道海景路999号）","info":""}},{"type":"Feature","geometry":{"type":"Point","coordinates":[118.089394,24.444733]},"properties":{"province":"福建省","city":"厦门市","county":"思明区","community":"厦港街道巡司顶社区部分区域（厦港新村11、13、15、17、19、21、23、25、27、29、31、33、35、37、39、41号、厦港新村5-1号；巡司顶巷1、23、25号；巡司顶巷4-2、4-4、4-5、4-6、4-7、4-8、4-10、4-11号；巡司顶巷6号（海龙小区）；巡司顶巷10、12、6-1、6-2、6-3、6-4号；思明南路483、485、487号；巡司顶巷3、5、7、9、16号；永福宫巷1、3、5、7、9、10、11、12、13、15、17、19、21、23、25、27号；思明南路479号；巡司顶巷16-1、16-2、16-3、16-4、16-5号）","full_address":"福建省厦门市思明区厦港街道巡司顶社区部分区域（厦港新村11、13、15、17、19、21、23、25、27、29、31、33、35、37、39、41号、厦港新村5-1号；巡司顶巷1、23、25号；巡司顶巷4-2、4-4、4-5、4-6、4-7、4-8、4-10、4-11号；巡司顶巷6号（海龙小区）；巡司顶巷10、12、6-1、6-2、6-3、6-4号；思明南路483、485、487号；巡司顶巷3、5、7、9、16号；永福宫巷1、3、5、7、9、10、11、12、13、15、17、19、21、23、25、27号；思明南路479号；巡司顶巷16-1、16-2、16-3、16-4、16-5号）","info":""}},{"type":"Feature","geometry":{"type":"Point","coordinates":[118.095362,24.487972]},"properties":{"province":"福建省","city":"厦门市","county":"思明区","community":"福达里小区（七星西路7、9、11、13、15、17、19、21、23号）","full_address":"福建省厦门市思明区福达里小区（七星西路7、9、11、13、15、17、19、21、23号）","info":""}},{"type":"Feature","geometry":{"type":"Point","coordinates":[115.842502,26.42168]},"properties":{"province":"江西省","city":"赣州市","county":"宁都县","community":"青塘镇南堡村","full_address":"江西省赣州市宁都县青塘镇南堡村","info":""}},{"type":"Feature","geometry":{"type":"Point","coordinates":[116.021965,26.468166]},"properties":{"province":"江西省","city":"赣州市","county":"宁都县","community":"梅江镇九龙湾","full_address":"江西省赣州市宁都县梅江镇九龙湾","info":""}},{"type":"Feature","geometry":{"type":"Point","coordinates":[115.975605,26.333181]},"properties":{"province":"江西省","city":"赣州市","county":"宁都县","community":"田头镇坪上村","full_address":"江西省赣州市宁都县田头镇坪上村","info":""}},{"type":"Feature","geometry":{"type":"Point","coordinates":[116.007236,26.914717]},"properties":{"province":"江西省","city":"赣州市","county":"宁都县","community":"水东工业园龙树门Q2栋","full_address":"江西省赣州市宁都县水东工业园龙树门Q2栋","info":""}},{"type":"Feature","geometry":{"type":"Point","coordinates":[116.016779,26.469646]},"properties":{"province":"江西省","city":"赣州市","county":"宁都县","community":"梅江镇西厢村","full_address":"江西省赣州市宁都县梅江镇西厢村","info":""}},{"type":"Feature","geometry":{"type":"Point","coordinates":[116.006547,26.468686]},"properties":{"province":"江西省","city":"赣州市","county":"宁都县","community":"梅江镇世纪名园","full_address":"江西省赣州市宁都县梅江镇世纪名园","info":""}},{"type":"Feature","geometry":{"type":"Point","coordinates":[116.011985,26.477948]},"properties":{"province":"江西省","city":"赣州市","county":"宁都县","community":"梅江镇铭门鑫都小区","full_address":"江西省赣州市宁都县梅江镇铭门鑫都小区","info":""}},{"type":"Feature","geometry":{"type":"Point","coordinates":[116.010184,26.44911]},"properties":{"province":"江西省","city":"赣州市","county":"宁都县","community":"梅江镇锦绣泉城小区","full_address":"江西省赣州市宁都县梅江镇锦绣泉城小区","info":""}},{"type":"Feature","geometry":{"type":"Point","coordinates":[116.105061,26.523978]},"properties":{"province":"江西省","city":"赣州市","county":"宁都县","community":"梅江镇会同乡上陂头村上二组","full_address":"江西省赣州市宁都县梅江镇会同乡上陂头村上二组","info":""}},{"type":"Feature","geometry":{"type":"Point","coordinates":[116.007499,26.480148]},"properties":{"province":"江西省","city":"赣州市","county":"宁都县","community":"梅江镇东方名城","full_address":"江西省赣州市宁都县梅江镇东方名城","info":""}},{"type":"Feature","geometry":{"type":"Point","coordinates":[116.011844,26.476013]},"properties":{"province":"江西省","city":"赣州市","county":"宁都县","community":"梅江镇博生西路","full_address":"江西省赣州市宁都县梅江镇博生西路","info":""}},{"type":"Feature","geometry":{"type":"Point","coordinates":[116.013621,26.470996]},"properties":{"province":"江西省","city":"赣州市","county":"宁都县","community":"宁都六小","full_address":"江西省赣州市宁都县宁都六小","info":""}},{"type":"Feature","geometry":{"type":"Point","coordinates":[116.023236,26.470897]},"properties":{"province":"江西省","city":"赣州市","county":"宁都县","community":"电力公司","full_address":"江西省赣州市宁都县电力公司","info":""}},{"type":"Feature","geometry":{"type":"Point","coordinates":[116.005394,26.485254]},"properties":{"province":"江西省","city":"赣州市","county":"宁都县","community":"易堂学校","full_address":"江西省赣州市宁都县易堂学校","info":""}},{"type":"Feature","geometry":{"type":"Point","coordinates":[116.020003,26.469182]},"properties":{"province":"江西省","city":"赣州市","county":"宁都县","community":"宁师附小","full_address":"江西省赣州市宁都县宁师附小","info":""}},{"type":"Feature","geometry":{"type":"Point","coordinates":[116.345367,26.339736]},"properties":{"province":"江西省","city":"赣州市","county":"宁都县","community":"宁都二中","full_address":"江西省赣州市宁都县宁都二中","info":""}},{"type":"Feature","geometry":{"type":"Point","coordinates":[116.000093,26.49097]},"properties":{"province":"江西省","city":"赣州市","county":"宁都县","community":"梅江镇中梁江都府","full_address":"江西省赣州市宁都县梅江镇中梁江都府","info":""}},{"type":"Feature","geometry":{"type":"Point","coordinates":[116.021965,26.468166]},"properties":{"province":"江西省","city":"赣州市","county":"宁都县","community":"梅江镇三环北路巴罗娜酒庄","full_address":"江西省赣州市宁都县梅江镇三环北路巴罗娜酒庄","info":""}},{"type":"Feature","geometry":{"type":"Point","coordinates":[116.019877,26.472049]},"properties":{"province":"江西省","city":"赣州市","county":"宁都县","community":"梅江镇美食街","full_address":"江西省赣州市宁都县梅江镇美食街","info":""}},{"type":"Feature","geometry":{"type":"Point","coordinates":[116.00655,26.470614]},"properties":{"province":"江西省","city":"赣州市","county":"宁都县","community":"梅江镇凌云菜市场","full_address":"江西省赣州市宁都县梅江镇凌云菜市场","info":""}},{"type":"Feature","geometry":{"type":"Point","coordinates":[116.01575,26.476751]},"properties":{"province":"江西省","city":"赣州市","county":"宁都县","community":"梅江镇红山岭小区","full_address":"江西省赣州市宁都县梅江镇红山岭小区","info":""}},{"type":"Feature","geometry":{"type":"Point","coordinates":[116.009322,26.480066]},"properties":{"province":"江西省","city":"赣州市","county":"宁都县","community":"梅江镇第五幼儿园","full_address":"江西省赣州市宁都县梅江镇第五幼儿园","info":""}},{"type":"Feature","geometry":{"type":"Point","coordinates":[116.007282,26.486927]},"properties":{"province":"江西省","city":"赣州市","county":"宁都县","community":"梅江镇背村","full_address":"江西省赣州市宁都县梅江镇背村","info":""}},{"type":"Feature","geometry":{"type":"Point","coordinates":[116.02247,26.485235]},"properties":{"province":"江西省","city":"赣州市","county":"宁都县","community":"梅江镇北门村熊屋山","full_address":"江西省赣州市宁都县梅江镇北门村熊屋山","info":""}},{"type":"Feature","geometry":{"type":"Point","coordinates":[116.013693,26.458571]},"properties":{"province":"江西省","city":"赣州市","county":"宁都县","community":"梅江镇新庄华夏农业公司后门月生排","full_address":"江西省赣州市宁都县梅江镇新庄华夏农业公司后门月生排","info":""}},{"type":"Feature","geometry":{"type":"Point","coordinates":[116.018002,26.465872]},"properties":{"province":"江西省","city":"赣州市","county":"宁都县","community":"梅江镇城南二路","full_address":"江西省赣州市宁都县梅江镇城南二路","info":""}},{"type":"Feature","geometry":{"type":"Point","coordinates":[116.012029,26.479085]},"properties":{"province":"江西省","city":"赣州市","county":"宁都县","community":"梅江镇御龙湾国际酒店","full_address":"江西省赣州市宁都县梅江镇御龙湾国际酒店","info":""}},{"type":"Feature","geometry":{"type":"Point","coordinates":[116.02015,26.48775]},"properties":{"province":"江西省","city":"赣州市","county":"宁都县","community":"易堂学校对面小主人幼儿园附近（租房）","full_address":"江西省赣州市宁都县易堂学校对面小主人幼儿园附近（租房）","info":""}},{"type":"Feature","geometry":{"type":"Point","coordinates":[116.021965,26.468166]},"properties":{"province":"江西省","city":"赣州市","county":"宁都县","community":"梅江镇胜利路54号自建房","full_address":"江西省赣州市宁都县梅江镇胜利路54号自建房","info":""}},{"type":"Feature","geometry":{"type":"Point","coordinates":[116.003643,26.444878]},"properties":{"province":"江西省","city":"赣州市","county":"宁都县","community":"宁都九中","full_address":"江西省赣州市宁都县宁都九中","info":""}},{"type":"Feature","geometry":{"type":"Point","coordinates":[116.021987,26.477945]},"properties":{"province":"江西省","city":"赣州市","county":"宁都县","community":"宁都二小","full_address":"江西省赣州市宁都县宁都二小","info":""}},{"type":"Feature","geometry":{"type":"Point","coordinates":[115.824093,26.341219]},"properties":{"province":"江西省","city":"赣州市","county":"宁都县","community":"梅江镇凌云大道万豪宾馆隔壁（瓷砖店同楼栋）","full_address":"江西省赣州市宁都县梅江镇凌云大道万豪宾馆隔壁（瓷砖店同楼栋）","info":""}},{"type":"Feature","geometry":{"type":"Point","coordinates":[116.048957,26.465446]},"properties":{"province":"江西省","city":"赣州市","county":"宁都县","community":"梅江镇湖田村","full_address":"江西省赣州市宁都县梅江镇湖田村","info":""}},{"type":"Feature","geometry":{"type":"Point","coordinates":[116.105061,26.523978]},"properties":{"province":"江西省","city":"赣州市","county":"宁都县","community":"工业园会同路柏胜运动服饰","full_address":"江西省赣州市宁都县工业园会同路柏胜运动服饰","info":""}},{"type":"Feature","geometry":{"type":"Point","coordinates":[116.037511,26.910624]},"properties":{"province":"江西省","city":"赣州市","county":"宁都县","community":"东韶乡永乐村河池","full_address":"江西省赣州市宁都县东韶乡永乐村河池","info":""}},{"type":"Feature","geometry":{"type":"Point","coordinates":[116.024132,26.457428]},"properties":{"province":"江西省","city":"赣州市","county":"宁都县","community":"梅江镇天鼎铭聚小区","full_address":"江西省赣州市宁都县梅江镇天鼎铭聚小区","info":""}},{"type":"Feature","geometry":{"type":"Point","coordinates":[116.017173,26.47256]},"properties":{"province":"江西省","city":"赣州市","county":"宁都县","community":"宁都一小","full_address":"江西省赣州市宁都县宁都一小","info":""}},{"type":"Feature","geometry":{"type":"Point","coordinates":[116.00987,26.426075]},"properties":{"province":"江西省","city":"赣州市","county":"宁都县","community":"梅江镇水东村龙树公司","full_address":"江西省赣州市宁都县梅江镇水东村龙树公司","info":""}},{"type":"Feature","geometry":{"type":"Point","coordinates":[116.021965,26.468166]},"properties":{"province":"江西省","city":"赣州市","county":"宁都县","community":"梅江镇兴达米业","full_address":"江西省赣州市宁都县梅江镇兴达米业","info":""}},{"type":"Feature","geometry":{"type":"Point","coordinates":[116.025288,26.460853]},"properties":{"province":"江西省","city":"赣州市","county":"宁都县","community":"梅江镇新庄村卫生室","full_address":"江西省赣州市宁都县梅江镇新庄村卫生室","info":""}},{"type":"Feature","geometry":{"type":"Point","coordinates":[116.024834,26.460821]},"properties":{"province":"江西省","city":"赣州市","county":"宁都县","community":"梅江镇新庄菜市场","full_address":"江西省赣州市宁都县梅江镇新庄菜市场","info":""}},{"type":"Feature","geometry":{"type":"Point","coordinates":[116.019558,26.46944]},"properties":{"province":"江西省","city":"赣州市","county":"宁都县","community":"老党校对面宁师附小隔壁楼栋","full_address":"江西省赣州市宁都县老党校对面宁师附小隔壁楼栋","info":""}},{"type":"Feature","geometry":{"type":"Point","coordinates":[116.025577,26.467202]},"properties":{"province":"江西省","city":"赣州市","county":"宁都县","community":"梅江镇河东中学","full_address":"江西省赣州市宁都县梅江镇河东中学","info":""}},{"type":"Feature","geometry":{"type":"Point","coordinates":[116.023713,26.45862]},"properties":{"province":"江西省","city":"赣州市","county":"宁都县","community":"梅江镇天赐龙港","full_address":"江西省赣州市宁都县梅江镇天赐龙港","info":""}},{"type":"Feature","geometry":{"type":"Point","coordinates":[115.436605,27.328461]},"properties":{"province":"江西省","city":"吉安市","county":"永丰县","community":"恩江镇永丰大道10号2栋","full_address":"江西省吉安市永丰县恩江镇永丰大道10号2栋","info":""}},{"type":"Feature","geometry":{"type":"Point","coordinates":[115.436726,27.252114]},"properties":{"province":"江西省","city":"吉安市","county":"永丰县","community":"恩江镇洋陂坑村洋陂坑自然村","full_address":"江西省吉安市永丰县恩江镇洋陂坑村洋陂坑自然村","info":""}},{"type":"Feature","geometry":{"type":"Point","coordinates":[115.456493,27.32845]},"properties":{"province":"江西省","city":"吉安市","county":"永丰县","community":"恩江镇石桥村朱家脑自然村","full_address":"江西省吉安市永丰县恩江镇石桥村朱家脑自然村","info":""}},{"type":"Feature","geometry":{"type":"Point","coordinates":[115.456493,27.32845]},"properties":{"province":"江西省","city":"吉安市","county":"永丰县","community":"恩江镇石桥村李家自然村","full_address":"江西省吉安市永丰县恩江镇石桥村李家自然村","info":""}},{"type":"Feature","geometry":{"type":"Point","coordinates":[115.432851,27.27408]},"properties":{"province":"江西省","city":"吉安市","county":"永丰县","community":"恩江镇汽车城3栋","full_address":"江西省吉安市永丰县恩江镇汽车城3栋","info":""}},{"type":"Feature","geometry":{"type":"Point","coordinates":[115.4233,27.323161]},"properties":{"province":"江西省","city":"吉安市","county":"永丰县","community":"恩江镇绿鑫花园","full_address":"江西省吉安市永丰县恩江镇绿鑫花园","info":""}},{"type":"Feature","geometry":{"type":"Point","coordinates":[115.435396,27.322823]},"properties":{"province":"江西省","city":"吉安市","county":"永丰县","community":"恩江镇开吉社区郭家路口","full_address":"江西省吉安市永丰县恩江镇开吉社区郭家路口","info":""}},{"type":"Feature","geometry":{"type":"Point","coordinates":[115.416302,27.325261]},"properties":{"province":"江西省","city":"吉安市","county":"永丰县","community":"恩江镇花园村水陂头滁溪新村","full_address":"江西省吉安市永丰县恩江镇花园村水陂头滁溪新村","info":""}},{"type":"Feature","geometry":{"type":"Point","coordinates":[115.419338,27.321298]},"properties":{"province":"江西省","city":"吉安市","county":"永丰县","community":"恩江镇花园村花园自然村","full_address":"江西省吉安市永丰县恩江镇花园村花园自然村","info":""}},{"type":"Feature","geometry":{"type":"Point","coordinates":[115.430103,27.313507]},"properties":{"province":"江西省","city":"吉安市","county":"永丰县","community":"恩江镇狐狸洲10栋","full_address":"江西省吉安市永丰县恩江镇狐狸洲10栋","info":""}},{"type":"Feature","geometry":{"type":"Point","coordinates":[115.430904,27.328463]},"properties":{"province":"江西省","city":"吉安市","county":"永丰县","community":"恩江镇和景陆号院27栋","full_address":"江西省吉安市永丰县恩江镇和景陆号院27栋","info":""}},{"type":"Feature","geometry":{"type":"Point","coordinates":[115.415598,27.321367]},"properties":{"province":"江西省","city":"吉安市","county":"永丰县","community":"恩江镇国际都会8栋","full_address":"江西省吉安市永丰县恩江镇国际都会8栋","info":""}},{"type":"Feature","geometry":{"type":"Point","coordinates":[115.45307,27.302515]},"properties":{"province":"江西省","city":"吉安市","county":"永丰县","community":"恩江镇贯岭社区希望苑","full_address":"江西省吉安市永丰县恩江镇贯岭社区希望苑","info":""}},{"type":"Feature","geometry":{"type":"Point","coordinates":[115.437135,27.317645]},"properties":{"province":"江西省","city":"吉安市","county":"永丰县","community":"恩江镇副食品大楼","full_address":"江西省吉安市永丰县恩江镇副食品大楼","info":""}},{"type":"Feature","geometry":{"type":"Point","coordinates":[115.437299,27.32591]},"properties":{"province":"江西省","city":"吉安市","county":"永丰县","community":"恩江镇丰苑小区民星大楼","full_address":"江西省吉安市永丰县恩江镇丰苑小区民星大楼","info":""}},{"type":"Feature","geometry":{"type":"Point","coordinates":[115.430904,27.328463]},"properties":{"province":"江西省","city":"吉安市","county":"永丰县","community":"恩江镇城西南路16号","full_address":"江西省吉安市永丰县恩江镇城西南路16号","info":""}},{"type":"Feature","geometry":{"type":"Point","coordinates":[115.430904,27.328463]},"properties":{"province":"江西省","city":"吉安市","county":"永丰县","community":"恩江镇书香苑","full_address":"江西省吉安市永丰县恩江镇书香苑","info":""}},{"type":"Feature","geometry":{"type":"Point","coordinates":[115.430904,27.328463]},"properties":{"province":"江西省","city":"吉安市","county":"永丰县","community":"恩江镇爱玛月子中心","full_address":"江西省吉安市永丰县恩江镇爱玛月子中心","info":""}},{"type":"Feature","geometry":{"type":"Point","coordinates":[115.430904,27.328463]},"properties":{"province":"江西省","city":"吉安市","county":"永丰县","community":"恩江镇中医院桥南分院院区自建房","full_address":"江西省吉安市永丰县恩江镇中医院桥南分院院区自建房","info":""}},{"type":"Feature","geometry":{"type":"Point","coordinates":[115.427434,27.326537]},"properties":{"province":"江西省","city":"吉安市","county":"永丰县","community":"恩江镇家乐佳超市附近的公租房","full_address":"江西省吉安市永丰县恩江镇家乐佳超市附近的公租房","info":""}},{"type":"Feature","geometry":{"type":"Point","coordinates":[115.416302,27.325261]},"properties":{"province":"江西省","city":"吉安市","county":"永丰县","community":"恩江镇花园村白鹇洲自然村","full_address":"江西省吉安市永丰县恩江镇花园村白鹇洲自然村","info":""}},{"type":"Feature","geometry":{"type":"Point","coordinates":[115.402607,27.390028]},"properties":{"province":"江西省","city":"吉安市","county":"永丰县","community":"坑田镇罗珠村峡山自然村","full_address":"江西省吉安市永丰县坑田镇罗珠村峡山自然村","info":""}},{"type":"Feature","geometry":{"type":"Point","coordinates":[115.500433,27.347662]},"properties":{"province":"江西省","city":"吉安市","county":"永丰县","community":"潭城乡鸭田村肖家自然村","full_address":"江西省吉安市永丰县潭城乡鸭田村肖家自然村","info":""}},{"type":"Feature","geometry":{"type":"Point","coordinates":[115.666661,27.087957]},"properties":{"province":"江西省","city":"吉安市","county":"永丰县","community":"藤田镇藤顺社区街上组","full_address":"江西省吉安市永丰县藤田镇藤顺社区街上组","info":""}},{"type":"Feature","geometry":{"type":"Point","coordinates":[115.539546,27.365309]},"properties":{"province":"江西省","city":"吉安市","county":"永丰县","community":"沿陂镇沿陂街","full_address":"江西省吉安市永丰县沿陂镇沿陂街","info":""}},{"type":"Feature","geometry":{"type":"Point","coordinates":[115.617361,27.096109]},"properties":{"province":"江西省","city":"吉安市","county":"永丰县","community":"瑶田镇梅坑村金山坪自然村","full_address":"江西省吉安市永丰县瑶田镇梅坑村金山坪自然村","info":""}},{"type":"Feature","geometry":{"type":"Point","coordinates":[115.41076,27.3081]},"properties":{"province":"江西省","city":"吉安市","county":"永丰县","community":"佐龙乡永吉花苑1栋","full_address":"江西省吉安市永丰县佐龙乡永吉花苑1栋","info":""}},{"type":"Feature","geometry":{"type":"Point","coordinates":[115.469575,27.32337]},"properties":{"province":"江西省","city":"吉安市","county":"永丰县","community":"佐龙乡西塘村岭下自然村","full_address":"江西省吉安市永丰县佐龙乡西塘村岭下自然村","info":""}},{"type":"Feature","geometry":{"type":"Point","coordinates":[115.486748,27.329359]},"properties":{"province":"江西省","city":"吉安市","county":"永丰县","community":"佐龙乡坪下村丁家山自然村","full_address":"江西省吉安市永丰县佐龙乡坪下村丁家山自然村","info":""}},{"type":"Feature","geometry":{"type":"Point","coordinates":[115.425507,27.308615]},"properties":{"province":"江西省","city":"吉安市","county":"永丰县","community":"佐龙乡南塘村洋界苑","full_address":"江西省吉安市永丰县佐龙乡南塘村洋界苑","info":""}},{"type":"Feature","geometry":{"type":"Point","coordinates":[115.422184,27.314258]},"properties":{"province":"江西省","city":"吉安市","county":"永丰县","community":"佐龙乡南塘村南塘自然村","full_address":"江西省吉安市永丰县佐龙乡南塘村南塘自然村","info":""}},{"type":"Feature","geometry":{"type":"Point","coordinates":[115.506127,27.313895]},"properties":{"province":"江西省","city":"吉安市","county":"永丰县","community":"佐龙乡麻田村崩堪自然村","full_address":"江西省吉安市永丰县佐龙乡麻田村崩堪自然村","info":""}},{"type":"Feature","geometry":{"type":"Point","coordinates":[115.441079,27.36844]},"properties":{"province":"江西省","city":"吉安市","county":"永丰县","community":"佐龙乡棱溪村洲上自然村","full_address":"江西省吉安市永丰县佐龙乡棱溪村洲上自然村","info":""}},{"type":"Feature","geometry":{"type":"Point","coordinates":[115.441079,27.36844]},"properties":{"province":"江西省","city":"吉安市","county":"永丰县","community":"佐龙乡棱溪村棱溪自然村","full_address":"江西省吉安市永丰县佐龙乡棱溪村棱溪自然村","info":""}},{"type":"Feature","geometry":{"type":"Point","coordinates":[115.434183,27.31576]},"properties":{"province":"江西省","city":"吉安市","county":"永丰县","community":"永丰县人民医院","full_address":"江西省吉安市永丰县永丰县人民医院","info":""}},{"type":"Feature","geometry":{"type":"Point","coordinates":[115.368029,27.283091]},"properties":{"province":"江西省","city":"吉安市","county":"永丰县","community":"佐龙乡浪田村佬上自然村","full_address":"江西省吉安市永丰县佐龙乡浪田村佬上自然村","info":""}},{"type":"Feature","geometry":{"type":"Point","coordinates":[115.744466,26.991108]},"properties":{"province":"江西省","city":"吉安市","county":"永丰县","community":"恩江镇金峰苑小区","full_address":"江西省吉安市永丰县恩江镇金峰苑小区","info":""}},{"type":"Feature","geometry":{"type":"Point","coordinates":[115.420041,27.284539]},"properties":{"province":"江西省","city":"吉安市","county":"永丰县","community":"恩江镇岭上村漕下村","full_address":"江西省吉安市永丰县恩江镇岭上村漕下村","info":""}},{"type":"Feature","geometry":{"type":"Point","coordinates":[115.425504,27.319608]},"properties":{"province":"江西省","city":"吉安市","county":"永丰县","community":"恩江镇安居小区","full_address":"江西省吉安市永丰县恩江镇安居小区","info":""}},{"type":"Feature","geometry":{"type":"Point","coordinates":[115.759731,27.053313]},"properties":{"province":"江西省","city":"吉安市","county":"永丰县","community":"君埠乡君埠老街","full_address":"江西省吉安市永丰县君埠乡君埠老街","info":""}},{"type":"Feature","geometry":{"type":"Point","coordinates":[115.504116,27.433091]},"properties":{"province":"江西省","city":"吉安市","county":"永丰县","community":"潭城乡农贸市场","full_address":"江西省吉安市永丰县潭城乡农贸市场","info":""}},{"type":"Feature","geometry":{"type":"Point","coordinates":[115.43845,27.317192]},"properties":{"province":"江西省","city":"吉安市","county":"永丰县","community":"恩江镇永丰县妇幼保健院","full_address":"江西省吉安市永丰县恩江镇永丰县妇幼保健院","info":""}},{"type":"Feature","geometry":{"type":"Point","coordinates":[114.934152,27.006643]},"properties":{"province":"江西省","city":"吉安市","county":"经开区","community":"地质铭都小区","full_address":"江西省吉安市经开区地质铭都小区","info":""}},{"type":"Feature","geometry":{"type":"Point","coordinates":[114.933124,27.001375]},"properties":{"province":"江西省","city":"吉安市","county":"经开区","community":"梨塘居民点","full_address":"江西省吉安市经开区梨塘居民点","info":""}},{"type":"Feature","geometry":{"type":"Point","coordinates":[114.93375,27.004438]},"properties":{"province":"江西省","city":"吉安市","county":"经开区","community":"庐贤雅居小区","full_address":"江西省吉安市经开区庐贤雅居小区","info":""}},{"type":"Feature","geometry":{"type":"Point","coordinates":[114.928285,27.007679]},"properties":{"province":"江西省","city":"吉安市","county":"经开区","community":"银图豪庭","full_address":"江西省吉安市经开区银图豪庭","info":""}},{"type":"Feature","geometry":{"type":"Point","coordinates":[120.43084,36.30755]},"properties":{"province":"山东省","city":"青岛市","county":"城阳区","community":"城阳街道办事处御景尚都小区32号楼","full_address":"山东省青岛市城阳区城阳街道办事处御景尚都小区32号楼","info":""}},{"type":"Feature","geometry":{"type":"Point","coordinates":[120.419455,36.373876]},"properties":{"province":"山东省","city":"青岛市","county":"即墨区","community":"通济街道润发家园","full_address":"山东省青岛市即墨区通济街道润发家园","info":""}},{"type":"Feature","geometry":{"type":"Point","coordinates":[120.391322,36.389356]},"properties":{"province":"山东省","city":"青岛市","county":"即墨区","community":"通济街道陈家河小区","full_address":"山东省青岛市即墨区通济街道陈家河小区","info":""}},{"type":"Feature","geometry":{"type":"Point","coordinates":[120.469652,36.393073]},"properties":{"province":"山东省","city":"青岛市","county":"即墨区","community":"通济街道长辛社区","full_address":"山东省青岛市即墨区通济街道长辛社区","info":""}},{"type":"Feature","geometry":{"type":"Point","coordinates":[120.469652,36.393073]},"properties":{"province":"山东省","city":"青岛市","county":"即墨区","community":"通济街道马山社区","full_address":"山东省青岛市即墨区通济街道马山社区","info":""}},{"type":"Feature","geometry":{"type":"Point","coordinates":[120.467569,36.397263]},"properties":{"province":"山东省","city":"青岛市","county":"即墨区","community":"通济街道永合花苑小区","full_address":"山东省青岛市即墨区通济街道永合花苑小区","info":""}},{"type":"Feature","geometry":{"type":"Point","coordinates":[120.494032,36.399658]},"properties":{"province":"山东省","city":"青岛市","county":"即墨区","community":"潮海街道景瑞名都小区","full_address":"山东省青岛市即墨区潮海街道景瑞名都小区","info":""}},{"type":"Feature","geometry":{"type":"Point","coordinates":[120.469652,36.393073]},"properties":{"province":"山东省","city":"青岛市","county":"即墨区","community":"大信街道信胜社区","full_address":"山东省青岛市即墨区大信街道信胜社区","info":""}},{"type":"Feature","geometry":{"type":"Point","coordinates":[120.469652,36.393073]},"properties":{"province":"山东省","city":"青岛市","county":"即墨区","community":"聚信社区","full_address":"山东省青岛市即墨区聚信社区","info":""}},{"type":"Feature","geometry":{"type":"Point","coordinates":[120.469652,36.393073]},"properties":{"province":"山东省","city":"青岛市","county":"即墨区","community":"信成社区","full_address":"山东省青岛市即墨区信成社区","info":""}},{"type":"Feature","geometry":{"type":"Point","coordinates":[120.421273,36.391745]},"properties":{"province":"山东省","city":"青岛市","county":"即墨区","community":"通济街道同济馨园","full_address":"山东省青岛市即墨区通济街道同济馨园","info":""}},{"type":"Feature","geometry":{"type":"Point","coordinates":[120.432624,36.374]},"properties":{"province":"山东省","city":"青岛市","county":"即墨区","community":"通济街道辛家庄","full_address":"山东省青岛市即墨区通济街道辛家庄","info":""}},{"type":"Feature","geometry":{"type":"Point","coordinates":[120.434198,36.394996]},"properties":{"province":"山东省","city":"青岛市","county":"即墨区","community":"通济街道隆福名居小区","full_address":"山东省青岛市即墨区通济街道隆福名居小区","info":""}},{"type":"Feature","geometry":{"type":"Point","coordinates":[120.417323,36.450802]},"properties":{"province":"山东省","city":"青岛市","county":"即墨区","community":"北安街道周戈庄新村","full_address":"山东省青岛市即墨区北安街道周戈庄新村","info":""}},{"type":"Feature","geometry":{"type":"Point","coordinates":[120.441686,36.598272]},"properties":{"province":"山东省","city":"青岛市","county":"即墨区","community":"灵山街道刘家旺疃村","full_address":"山东省青岛市即墨区灵山街道刘家旺疃村","info":""}},{"type":"Feature","geometry":{"type":"Point","coordinates":[120.472574,36.439419]},"properties":{"province":"山东省","city":"青岛市","county":"即墨区","community":"北安街道辛和村","full_address":"山东省青岛市即墨区北安街道辛和村","info":""}},{"type":"Feature","geometry":{"type":"Point","coordinates":[120.472574,36.439419]},"properties":{"province":"山东省","city":"青岛市","county":"即墨区","community":"北安街道泉东新村","full_address":"山东省青岛市即墨区北安街道泉东新村","info":""}},{"type":"Feature","geometry":{"type":"Point","coordinates":[120.472574,36.439419]},"properties":{"province":"山东省","city":"青岛市","county":"即墨区","community":"北安街道营上村","full_address":"山东省青岛市即墨区北安街道营上村","info":""}},{"type":"Feature","geometry":{"type":"Point","coordinates":[120.456273,36.580542]},"properties":{"province":"山东省","city":"青岛市","county":"即墨区","community":"灵山街道西姜戈庄村","full_address":"山东省青岛市即墨区灵山街道西姜戈庄村","info":""}},{"type":"Feature","geometry":{"type":"Point","coordinates":[120.409986,36.388511]},"properties":{"province":"山东省","city":"青岛市","county":"即墨区","community":"华山一路157号马山新城","full_address":"山东省青岛市即墨区华山一路157号马山新城","info":""}},{"type":"Feature","geometry":{"type":"Point","coordinates":[120.415299,36.374479]},"properties":{"province":"山东省","city":"青岛市","county":"即墨区","community":"通济街道华山一路硕辉苑小区","full_address":"山东省青岛市即墨区通济街道华山一路硕辉苑小区","info":""}},{"type":"Feature","geometry":{"type":"Point","coordinates":[120.391398,36.381124]},"properties":{"province":"山东省","city":"青岛市","county":"即墨区","community":"通济街道清华园小区","full_address":"山东省青岛市即墨区通济街道清华园小区","info":""}},{"type":"Feature","geometry":{"type":"Point","coordinates":[120.439681,36.396586]},"properties":{"province":"山东省","city":"青岛市","county":"即墨区","community":"通济街道庄头村商住楼一区","full_address":"山东省青岛市即墨区通济街道庄头村商住楼一区","info":""}},{"type":"Feature","geometry":{"type":"Point","coordinates":[120.357419,36.396102]},"properties":{"province":"山东省","city":"青岛市","county":"即墨区","community":"大信街道司家疃三村商业楼西区","full_address":"山东省青岛市即墨区大信街道司家疃三村商业楼西区","info":""}},{"type":"Feature","geometry":{"type":"Point","coordinates":[115.149491,33.174183]},"properties":{"province":"河南省","city":"周口市","county":"沈丘县","community":"沈丘县老城镇西关社区","full_address":"河南省周口市沈丘县沈丘县老城镇西关社区","info":""}},{"type":"Feature","geometry":{"type":"Point","coordinates":[115.072257,33.395721]},"properties":{"province":"河南省","city":"周口市","county":"沈丘县","community":"沈丘县槐店回族镇云龙小区","full_address":"河南省周口市沈丘县沈丘县槐店回族镇云龙小区","info":""}},{"type":"Feature","geometry":{"type":"Point","coordinates":[115.205868,33.360748]},"properties":{"province":"河南省","city":"周口市","county":"沈丘县","community":"沈丘县槐店回族镇王庄社区","full_address":"河南省周口市沈丘县沈丘县槐店回族镇王庄社区","info":""}},{"type":"Feature","geometry":{"type":"Point","coordinates":[109.485706,30.269711]},"properties":{"province":"湖北省","city":"恩施土家族苗族自治州","county":"恩施市","community":"舞阳坝街道清江东路9号州商务局宿舍","full_address":"湖北省恩施土家族苗族自治州恩施市舞阳坝街道清江东路9号州商务局宿舍","info":""}},{"type":"Feature","geometry":{"type":"Point","coordinates":[109.496397,30.288922]},"properties":{"province":"湖北省","city":"恩施土家族苗族自治州","county":"恩施市","community":"舞阳坝街道恩施职业技术学院南校区","full_address":"湖北省恩施土家族苗族自治州恩施市舞阳坝街道恩施职业技术学院南校区","info":""}},{"type":"Feature","geometry":{"type":"Point","coordinates":[109.504074,30.283375]},"properties":{"province":"湖北省","city":"恩施土家族苗族自治州","county":"恩施市","community":"舞阳坝街道沙湾怡馨园A栋","full_address":"湖北省恩施土家族苗族自治州恩施市舞阳坝街道沙湾怡馨园A栋","info":""}},{"type":"Feature","geometry":{"type":"Point","coordinates":[109.501482,30.285839]},"properties":{"province":"湖北省","city":"恩施土家族苗族自治州","county":"恩施市","community":"舞阳坝街道三孔桥社区沙湾小区","full_address":"湖北省恩施土家族苗族自治州恩施市舞阳坝街道三孔桥社区沙湾小区","info":""}},{"type":"Feature","geometry":{"type":"Point","coordinates":[109.476228,30.298439]},"properties":{"province":"湖北省","city":"恩施土家族苗族自治州","county":"恩施市","community":"小渡船街道盛世家园B栋二单元","full_address":"湖北省恩施土家族苗族自治州恩施市小渡船街道盛世家园B栋二单元","info":""}},{"type":"Feature","geometry":{"type":"Point","coordinates":[109.475714,30.290129]},"properties":{"province":"湖北省","city":"恩施土家族苗族自治州","county":"恩施市","community":"小渡船街道民族东路14号民宗局宿舍","full_address":"湖北省恩施土家族苗族自治州恩施市小渡船街道民族东路14号民宗局宿舍","info":""}},{"type":"Feature","geometry":{"type":"Point","coordinates":[109.481921,30.287763]},"properties":{"province":"湖北省","city":"恩施土家族苗族自治州","county":"恩施市","community":"小渡船街道百佳广场住宿楼","full_address":"湖北省恩施土家族苗族自治州恩施市小渡船街道百佳广场住宿楼","info":""}},{"type":"Feature","geometry":{"type":"Point","coordinates":[109.480353,30.289449]},"properties":{"province":"湖北省","city":"恩施土家族苗族自治州","county":"恩施市","community":"小渡船街道航空花园至一方购物广场（大桥路住建局路口至民族路交界处）区域","full_address":"湖北省恩施土家族苗族自治州恩施市小渡船街道航空花园至一方购物广场（大桥路住建局路口至民族路交界处）区域","info":""}},{"type":"Feature","geometry":{"type":"Point","coordinates":[109.483201,30.290172]},"properties":{"province":"湖北省","city":"恩施土家族苗族自治州","county":"恩施市","community":"小渡船街道大桥路5巷","full_address":"湖北省恩施土家族苗族自治州恩施市小渡船街道大桥路5巷","info":""}},{"type":"Feature","geometry":{"type":"Point","coordinates":[109.479666,30.284852]},"properties":{"province":"湖北省","city":"恩施土家族苗族自治州","county":"恩施市","community":"小渡船街道航空路金三角农行宿舍2栋","full_address":"湖北省恩施土家族苗族自治州恩施市小渡船街道航空路金三角农行宿舍2栋","info":""}},{"type":"Feature","geometry":{"type":"Point","coordinates":[109.47632,30.28968]},"properties":{"province":"湖北省","city":"恩施土家族苗族自治州","county":"恩施市","community":"小渡船街道瑞都香榭B栋2单元","full_address":"湖北省恩施土家族苗族自治州恩施市小渡船街道瑞都香榭B栋2单元","info":""}},{"type":"Feature","geometry":{"type":"Point","coordinates":[109.485375,30.269625]},"properties":{"province":"湖北省","city":"恩施土家族苗族自治州","county":"恩施市","community":"小渡船街道恩施市供销社宿舍2单元","full_address":"湖北省恩施土家族苗族自治州恩施市小渡船街道恩施市供销社宿舍2单元","info":""}},{"type":"Feature","geometry":{"type":"Point","coordinates":[109.475312,30.292653]},"properties":{"province":"湖北省","city":"恩施土家族苗族自治州","county":"恩施市","community":"小渡船街道工农路电力宿舍上院","full_address":"湖北省恩施土家族苗族自治州恩施市小渡船街道工农路电力宿舍上院","info":""}},{"type":"Feature","geometry":{"type":"Point","coordinates":[109.47372,30.292469]},"properties":{"province":"湖北省","city":"恩施土家族苗族自治州","county":"恩施市","community":"小渡船街道工农路4巷100号楼","full_address":"湖北省恩施土家族苗族自治州恩施市小渡船街道工农路4巷100号楼","info":""}},{"type":"Feature","geometry":{"type":"Point","coordinates":[109.473451,30.269561]},"properties":{"province":"湖北省","city":"恩施土家族苗族自治州","county":"恩施市","community":"六角亭街道施南茗都小区","full_address":"湖北省恩施土家族苗族自治州恩施市六角亭街道施南茗都小区","info":""}},{"type":"Feature","geometry":{"type":"Point","coordinates":[109.478318,30.26098]},"properties":{"province":"湖北省","city":"恩施土家族苗族自治州","county":"恩施市","community":"六角亭街道恩施市东方医院","full_address":"湖北省恩施土家族苗族自治州恩施市六角亭街道恩施市东方医院","info":""}},{"type":"Feature","geometry":{"type":"Point","coordinates":[109.484822,30.318056]},"properties":{"province":"湖北省","city":"恩施土家族苗族自治州","county":"恩施市","community":"六角亭街道松树坪还建小区","full_address":"湖北省恩施土家族苗族自治州恩施市六角亭街道松树坪还建小区","info":""}},{"type":"Feature","geometry":{"type":"Point","coordinates":[109.473878,30.265268]},"properties":{"province":"湖北省","city":"恩施土家族苗族自治州","county":"恩施市","community":"六角亭街道首府壹品小区7栋","full_address":"湖北省恩施土家族苗族自治州恩施市六角亭街道首府壹品小区7栋","info":""}},{"type":"Feature","geometry":{"type":"Point","coordinates":[109.482049,30.315081]},"properties":{"province":"湖北省","city":"恩施土家族苗族自治州","county":"恩施市","community":"金子坝街道红庙老粮店宿舍","full_address":"湖北省恩施土家族苗族自治州恩施市金子坝街道红庙老粮店宿舍","info":""}},{"type":"Feature","geometry":{"type":"Point","coordinates":[109.486781,30.293563]},"properties":{"province":"湖北省","city":"恩施土家族苗族自治州","county":"恩施市","community":"金子坝街道银河苑小区1栋","full_address":"湖北省恩施土家族苗族自治州恩施市金子坝街道银河苑小区1栋","info":""}},{"type":"Feature","geometry":{"type":"Point","coordinates":[109.48831,30.294695]},"properties":{"province":"湖北省","city":"恩施土家族苗族自治州","county":"恩施市","community":"金子坝街道凤凰路夷水仙居3栋2单元","full_address":"湖北省恩施土家族苗族自治州恩施市金子坝街道凤凰路夷水仙居3栋2单元","info":""}},{"type":"Feature","geometry":{"type":"Point","coordinates":[109.486183,30.263502]},"properties":{"province":"湖北省","city":"恩施土家族苗族自治州","county":"恩施市","community":"金子坝街道东风大道137号","full_address":"湖北省恩施土家族苗族自治州恩施市金子坝街道东风大道137号","info":""}},{"type":"Feature","geometry":{"type":"Point","coordinates":[109.498383,30.309596]},"properties":{"province":"湖北省","city":"恩施土家族苗族自治州","county":"恩施市","community":"金子坝街道澜院建筑工地","full_address":"湖北省恩施土家族苗族自治州恩施市金子坝街道澜院建筑工地","info":""}},{"type":"Feature","geometry":{"type":"Point","coordinates":[109.49024,30.341308]},"properties":{"province":"湖北省","city":"恩施土家族苗族自治州","county":"恩施市","community":"金子坝街道万金汇小区1号楼","full_address":"湖北省恩施土家族苗族自治州恩施市金子坝街道万金汇小区1号楼","info":""}},{"type":"Feature","geometry":{"type":"Point","coordinates":[109.518571,30.279749]},"properties":{"province":"湖北省","city":"恩施土家族苗族自治州","county":"恩施市","community":"七里坪街道七里新城1栋1单元","full_address":"湖北省恩施土家族苗族自治州恩施市七里坪街道七里新城1栋1单元","info":""}},{"type":"Feature","geometry":{"type":"Point","coordinates":[109.375704,30.090954]},"properties":{"province":"湖北省","city":"恩施土家族苗族自治州","county":"恩施市","community":"芭蕉侗族乡黄连溪村杉树湾组","full_address":"湖北省恩施土家族苗族自治州恩施市芭蕉侗族乡黄连溪村杉树湾组","info":""}},{"type":"Feature","geometry":{"type":"Point","coordinates":[109.628022,30.381211]},"properties":{"province":"湖北省","city":"恩施土家族苗族自治州","county":"恩施市","community":"白杨坪镇洞下槽村芭蕉园组凹大丘安置小区","full_address":"湖北省恩施土家族苗族自治州恩施市白杨坪镇洞下槽村芭蕉园组凹大丘安置小区","info":""}},{"type":"Feature","geometry":{"type":"Point","coordinates":[109.728742,30.193666]},"properties":{"province":"湖北省","city":"恩施土家族苗族自治州","county":"恩施市","community":"新塘乡前坪村小溪组","full_address":"湖北省恩施土家族苗族自治州恩施市新塘乡前坪村小溪组","info":""}},{"type":"Feature","geometry":{"type":"Point","coordinates":[109.669346,30.246028]},"properties":{"province":"湖北省","city":"恩施土家族苗族自治州","county":"恩施市","community":"三岔镇恩施大清江景区游客中心","full_address":"湖北省恩施土家族苗族自治州恩施市三岔镇恩施大清江景区游客中心","info":""}},{"type":"Feature","geometry":{"type":"Point","coordinates":[109.224909,30.46971]},"properties":{"province":"湖北省","city":"恩施土家族苗族自治州","county":"恩施市","community":"恩施大峡谷风景区管理处大庙村朱家店子组原大坝3小组","full_address":"湖北省恩施土家族苗族自治州恩施市恩施大峡谷风景区管理处大庙村朱家店子组原大坝3小组","info":""}},{"type":"Feature","geometry":{"type":"Point","coordinates":[109.475508,30.28958]},"properties":{"province":"湖北省","city":"恩施土家族苗族自治州","county":"恩施市","community":"小渡船财政所宿舍","full_address":"湖北省恩施土家族苗族自治州恩施市小渡船财政所宿舍","info":""}},{"type":"Feature","geometry":{"type":"Point","coordinates":[114.140567,22.541928]},"properties":{"province":"广东省","city":"深圳市","county":"罗湖区","community":"黄贝街道新秀社区秀南街89号、91号围合区域（除高风险区外）","full_address":"广东省深圳市罗湖区黄贝街道新秀社区秀南街89号、91号围合区域（除高风险区外）","info":""}},{"type":"Feature","geometry":{"type":"Point","coordinates":[114.106069,22.562817]},"properties":{"province":"广东省","city":"深圳市","county":"罗湖区","community":"笋岗街道招商中环1栋、2栋围合区域（除停车场外）","full_address":"广东省深圳市罗湖区笋岗街道招商中环1栋、2栋围合区域（除停车场外）","info":""}},{"type":"Feature","geometry":{"type":"Point","coordinates":[114.05472,22.56476]},"properties":{"province":"广东省","city":"深圳市","county":"福田区","community":"梅林街道上梅林新村第22栋-第25栋、第34栋-第37栋、第186栋、第187栋、第202栋-第205栋、第220栋-第222栋","full_address":"广东省深圳市福田区梅林街道上梅林新村第22栋-第25栋、第34栋-第37栋、第186栋、第187栋、第202栋-第205栋、第220栋-第222栋","info":""}},{"type":"Feature","geometry":{"type":"Point","coordinates":[114.083115,22.537349]},"properties":{"province":"广东省","city":"深圳市","county":"福田区","community":"福田街道福华路21号福侨大厦A座、B座，福华路23号福田外贸大厦","full_address":"广东省深圳市福田区福田街道福华路21号福侨大厦A座、B座，福华路23号福田外贸大厦","info":""}},{"type":"Feature","geometry":{"type":"Point","coordinates":[114.048176,22.512361]},"properties":{"province":"广东省","city":"深圳市","county":"福田区","community":"福保街道益田村第52栋（高风险区除外）","full_address":"广东省深圳市福田区福保街道益田村第52栋（高风险区除外）","info":""}},{"type":"Feature","geometry":{"type":"Point","coordinates":[114.043004,22.562297]},"properties":{"province":"广东省","city":"深圳市","county":"福田区","community":"梅林街道下梅林围面村第15栋-17栋、第29栋、第31栋-38栋","full_address":"广东省深圳市福田区梅林街道下梅林围面村第15栋-17栋、第29栋、第31栋-38栋","info":""}},{"type":"Feature","geometry":{"type":"Point","coordinates":[112.799162,22.244035]},"properties":{"province":"广东省","city":"江门市","county":"台山市","community":"台城街道秀荷花城2幢1、2、3单元","full_address":"广东省江门市台山市台城街道秀荷花城2幢1、2、3单元","info":""}},{"type":"Feature","geometry":{"type":"Point","coordinates":[113.679223,22.807985]},"properties":{"province":"广东省","city":"东莞市","county":"沙田镇","community":"海腾国际码头员工宿舍","full_address":"广东省东莞市沙田镇海腾国际码头员工宿舍","info":""}},{"type":"Feature","geometry":{"type":"Point","coordinates":[113.633399,22.878853]},"properties":{"province":"广东省","city":"东莞市","county":"沙田镇","community":"西太隆村东至南北运河、南至明珠路、西至淡水湖、北至西头围队“八十亩”基耕路（土名）合围区域（高风险区域除外）","full_address":"广东省东莞市沙田镇西太隆村东至南北运河、南至明珠路、西至淡水湖、北至西头围队“八十亩”基耕路（土名）合围区域（高风险区域除外）","info":""}},{"type":"Feature","geometry":{"type":"Point","coordinates":[107.967941,21.547289]},"properties":{"province":"广西壮族自治区","city":"防城港市","county":"东兴市","community":"七星社区第1网格","full_address":"广西壮族自治区防城港市东兴市七星社区第1网格","info":""}},{"type":"Feature","geometry":{"type":"Point","coordinates":[107.973053,21.546326]},"properties":{"province":"广西壮族自治区","city":"防城港市","county":"东兴市","community":"七星社区第4网格部分区域：北起兴东路346号至106小区6栋11号，东至106小区6栋11号到6栋17号，南至106小区17号到雷雨大厦，西至雷雨大厦到兴东路路口","full_address":"广西壮族自治区防城港市东兴市七星社区第4网格部分区域：北起兴东路346号至106小区6栋11号，东至106小区6栋11号到6栋17号，南至106小区17号到雷雨大厦，西至雷雨大厦到兴东路路口","info":""}},{"type":"Feature","geometry":{"type":"Point","coordinates":[107.962704,21.547439]},"properties":{"province":"广西壮族自治区","city":"防城港市","county":"东兴市","community":"七星社区第9、10网格部分区域：北起河洲路七巷，西接河洲路五巷至河洲路八巷接河洲路，南至兴东路，东至江那路接财源路及湖南路合围区域","full_address":"广西壮族自治区防城港市东兴市七星社区第9、10网格部分区域：北起河洲路七巷，西接河洲路五巷至河洲路八巷接河洲路，南至兴东路，东至江那路接财源路及湖南路合围区域","info":""}},{"type":"Feature","geometry":{"type":"Point","coordinates":[107.96225,21.547952]},"properties":{"province":"广西壮族自治区","city":"防城港市","county":"东兴市","community":"北起大坪路与冲卜一路交汇处，东至冲卜一路与景阳南路交汇处，南至景阳南路与冲卜三路交汇处，西至冲卜三路与大坪路交汇处","full_address":"广西壮族自治区防城港市东兴市北起大坪路与冲卜一路交汇处，东至冲卜一路与景阳南路交汇处，南至景阳南路与冲卜三路交汇处，西至冲卜三路与大坪路交汇处","info":""}},{"type":"Feature","geometry":{"type":"Point","coordinates":[108.020438,21.565536]},"properties":{"province":"广西壮族自治区","city":"防城港市","county":"东兴市","community":"楠木山村","full_address":"广西壮族自治区防城港市东兴市楠木山村","info":""}},{"type":"Feature","geometry":{"type":"Point","coordinates":[107.975943,21.549837]},"properties":{"province":"广西壮族自治区","city":"防城港市","county":"东兴市","community":"深沟社区第10网格寓安花园","full_address":"广西壮族自治区防城港市东兴市深沟社区第10网格寓安花园","info":""}},{"type":"Feature","geometry":{"type":"Point","coordinates":[109.527883,18.223166]},"properties":{"province":"海南省","city":"三亚市","county":"吉阳区","community":"大东海社区榆亚路124号、126号、128号","full_address":"海南省三亚市吉阳区大东海社区榆亚路124号、126号、128号","info":""}},{"type":"Feature","geometry":{"type":"Point","coordinates":[109.516252,18.30405]},"properties":{"province":"海南省","city":"三亚市","county":"吉阳区","community":"抱坡村委会津海建材市场的型材三区一排一、二、三层各层的68～80号铺面","full_address":"海南省三亚市吉阳区抱坡村委会津海建材市场的型材三区一排一、二、三层各层的68～80号铺面","info":""}},{"type":"Feature","geometry":{"type":"Point","coordinates":[110.389585,18.794923]},"properties":{"province":"海南省","city":"省直辖县级行政单位","county":"万宁市","community":"万城镇万隆社区高风险区外的区域","full_address":"海南省省直辖县级行政单位万宁市万城镇万隆社区高风险区外的区域","info":""}},{"type":"Feature","geometry":{"type":"Point","coordinates":[110.376935,18.789939]},"properties":{"province":"海南省","city":"省直辖县级行政单位","county":"万宁市","community":"万城镇丰园社区高风险区外的区域","full_address":"海南省省直辖县级行政单位万宁市万城镇丰园社区高风险区外的区域","info":""}},{"type":"Feature","geometry":{"type":"Point","coordinates":[110.392319,18.791231]},"properties":{"province":"海南省","city":"省直辖县级行政单位","county":"万宁市","community":"万城镇番村社区高风险区外的区域","full_address":"海南省省直辖县级行政单位万宁市万城镇番村社区高风险区外的区域","info":""}},{"type":"Feature","geometry":{"type":"Point","coordinates":[110.361355,18.787956]},"properties":{"province":"海南省","city":"省直辖县级行政单位","county":"万宁市","community":"万城镇滨湖社区大院核酸采样点覆盖的区域","full_address":"海南省省直辖县级行政单位万宁市万城镇滨湖社区大院核酸采样点覆盖的区域","info":""}},{"type":"Feature","geometry":{"type":"Point","coordinates":[0,0]},"properties":{"province":"海南省","city":"省直辖县级行政单位","county":"万宁市","community":"龙滚镇上城村委会高风险区外的区域","full_address":"海南省省直辖县级行政单位万宁市龙滚镇上城村委会高风险区外的区域","info":""}},{"type":"Feature","geometry":{"type":"Point","coordinates":[110.402215,18.799233]},"properties":{"province":"海南省","city":"省直辖县级行政单位","county":"万宁市","community":"万城镇新海社区高风险区外的区域","full_address":"海南省省直辖县级行政单位万宁市万城镇新海社区高风险区外的区域","info":""}},{"type":"Feature","geometry":{"type":"Point","coordinates":[110.412461,18.799946]},"properties":{"province":"海南省","city":"省直辖县级行政单位","county":"万宁市","community":"万城镇东方社区高风险区外的区域","full_address":"海南省省直辖县级行政单位万宁市万城镇东方社区高风险区外的区域","info":""}},{"type":"Feature","geometry":{"type":"Point","coordinates":[110.408447,18.794729]},"properties":{"province":"海南省","city":"省直辖县级行政单位","county":"万宁市","community":"万城镇朝阳社区高风险区外的区域","full_address":"海南省省直辖县级行政单位万宁市万城镇朝阳社区高风险区外的区域","info":""}},{"type":"Feature","geometry":{"type":"Point","coordinates":[110.374542,18.789538]},"properties":{"province":"海南省","city":"省直辖县级行政单位","county":"万宁市","community":"万城镇中央坡农场高风险区外的区域","full_address":"海南省省直辖县级行政单位万宁市万城镇中央坡农场高风险区外的区域","info":""}},{"type":"Feature","geometry":{"type":"Point","coordinates":[110.329797,18.825979]},"properties":{"province":"海南省","city":"省直辖县级行政单位","county":"万宁市","community":"长丰镇马坡村委会第8、第14村民小组高风险区外的区域","full_address":"海南省省直辖县级行政单位万宁市长丰镇马坡村委会第8、第14村民小组高风险区外的区域","info":""}},{"type":"Feature","geometry":{"type":"Point","coordinates":[105.829687,30.17801]},"properties":{"province":"重庆市","city":"重庆市","county":"潼南区","community":"梓潼街道御景江山小区、正兴街53号、正兴街商业街周边区域（东临接龙桥横街、西临御景江山小区、南临正兴商业街背街、北临滨江路的合围区域）","full_address":"重庆市重庆市潼南区梓潼街道御景江山小区、正兴街53号、正兴街商业街周边区域（东临接龙桥横街、西临御景江山小区、南临正兴商业街背街、北临滨江路的合围区域）","info":""}},{"type":"Feature","geometry":{"type":"Point","coordinates":[105.843409,30.194743]},"properties":{"province":"重庆市","city":"重庆市","county":"潼南区","community":"桂林街道北城丽都小区（除第10栋外）","full_address":"重庆市重庆市潼南区桂林街道北城丽都小区（除第10栋外）","info":""}},{"type":"Feature","geometry":{"type":"Point","coordinates":[105.841858,30.19626]},"properties":{"province":"重庆市","city":"重庆市","county":"潼南区","community":"桂林街道上城华府小区（除第19栋外）","full_address":"重庆市重庆市潼南区桂林街道上城华府小区（除第19栋外）","info":""}},{"type":"Feature","geometry":{"type":"Point","coordinates":[105.846296,30.192139]},"properties":{"province":"重庆市","city":"重庆市","county":"潼南区","community":"桂林街道井田农贸市场及周边区域（东临春意街、西临花庙路、南临春阳街和北临巴渝东路的合围区域）","full_address":"重庆市重庆市潼南区桂林街道井田农贸市场及周边区域（东临春意街、西临花庙路、南临春阳街和北临巴渝东路的合围区域）","info":""}},{"type":"Feature","geometry":{"type":"Point","coordinates":[105.617097,30.155302]},"properties":{"province":"重庆市","city":"重庆市","county":"潼南区","community":"崇龛中学、崇龛镇场镇及周边区域（东临思泉路、西临中华鱼池养殖场临街路、南临明月街、北临吉庆路的合围区域，不含崇龛镇卫生院）","full_address":"重庆市重庆市潼南区崇龛中学、崇龛镇场镇及周边区域（东临思泉路、西临中华鱼池养殖场临街路、南临明月街、北临吉庆路的合围区域，不含崇龛镇卫生院）","info":""}},{"type":"Feature","geometry":{"type":"Point","coordinates":[105.590227,30.128334]},"properties":{"province":"重庆市","city":"重庆市","county":"潼南区","community":"崇龛镇长寿村4组小关家陇处","full_address":"重庆市重庆市潼南区崇龛镇长寿村4组小关家陇处","info":""}},{"type":"Feature","geometry":{"type":"Point","coordinates":[104.104464,30.64096]},"properties":{"province":"四川省","city":"成都市","county":"锦江区","community":"牛市口街道钢管厂一区（除外成都锦江瑞康医院），包含底商","full_address":"四川省成都市锦江区牛市口街道钢管厂一区（除外成都锦江瑞康医院），包含底商","info":""}},{"type":"Feature","geometry":{"type":"Point","coordinates":[104.10237,30.64328]},"properties":{"province":"四川省","city":"成都市","county":"锦江区","community":"牛市口街道大田坎街95号院1-3栋，含1栋底商","full_address":"四川省成都市锦江区牛市口街道大田坎街95号院1-3栋，含1栋底商","info":""}},{"type":"Feature","geometry":{"type":"Point","coordinates":[104.094919,30.637146]},"properties":{"province":"四川省","city":"成都市","county":"锦江区","community":"牛市口街道朝阳名宅，包含底商","full_address":"四川省成都市锦江区牛市口街道朝阳名宅，包含底商","info":""}},{"type":"Feature","geometry":{"type":"Point","coordinates":[104.095818,30.636943]},"properties":{"province":"四川省","city":"成都市","county":"锦江区","community":"牛市口街道朝阳逸景，包含底商","full_address":"四川省成都市锦江区牛市口街道朝阳逸景，包含底商","info":""}},{"type":"Feature","geometry":{"type":"Point","coordinates":[104.103625,30.644821]},"properties":{"province":"四川省","city":"成都市","county":"锦江区","community":"牛市口街道蜀都花园，包含底商","full_address":"四川省成都市锦江区牛市口街道蜀都花园，包含底商","info":""}},{"type":"Feature","geometry":{"type":"Point","coordinates":[104.060254,30.671699]},"properties":{"province":"四川省","city":"成都市","county":"青羊区","community":"草市街道八宝街社区一号网格：东至青龙巷；南至青龙街、八宝街；西至万和路；北至王家塘街","full_address":"四川省成都市青羊区草市街道八宝街社区一号网格：东至青龙巷；南至青龙街、八宝街；西至万和路；北至王家塘街","info":""}},{"type":"Feature","geometry":{"type":"Point","coordinates":[104.076813,30.668913]},"properties":{"province":"四川省","city":"成都市","county":"青羊区","community":"草市街道德盛路75号院（德盛路75号）","full_address":"四川省成都市青羊区草市街道德盛路75号院（德盛路75号）","info":""}},{"type":"Feature","geometry":{"type":"Point","coordinates":[104.081195,30.667219]},"properties":{"province":"四川省","city":"成都市","county":"青羊区","community":"草市街道帘官公所街49号院（帘官公所街49号）","full_address":"四川省成都市青羊区草市街道帘官公所街49号院（帘官公所街49号）","info":""}},{"type":"Feature","geometry":{"type":"Point","coordinates":[104.040321,30.680219]},"properties":{"province":"四川省","city":"成都市","county":"金牛区","community":"抚琴街道抚琴南二巷18号院、16号院、14号院，抚琴南三巷1号1、2、3、4、5栋","full_address":"四川省成都市金牛区抚琴街道抚琴南二巷18号院、16号院、14号院，抚琴南三巷1号1、2、3、4、5栋","info":""}},{"type":"Feature","geometry":{"type":"Point","coordinates":[104.038066,30.645082]},"properties":{"province":"四川省","city":"成都市","county":"武侯区","community":"浆洗街街道大石南路1号院","full_address":"四川省成都市武侯区浆洗街街道大石南路1号院","info":""}},{"type":"Feature","geometry":{"type":"Point","coordinates":[104.027652,30.631635]},"properties":{"province":"四川省","city":"成都市","county":"武侯区","community":"红牌楼街道佳灵路33号优地B区","full_address":"四川省成都市武侯区红牌楼街道佳灵路33号优地B区","info":""}},{"type":"Feature","geometry":{"type":"Point","coordinates":[104.02772,30.643781]},"properties":{"province":"四川省","city":"成都市","county":"武侯区","community":"浆洗街街道双楠1区（含底商）","full_address":"四川省成都市武侯区浆洗街街道双楠1区（含底商）","info":""}},{"type":"Feature","geometry":{"type":"Point","coordinates":[104.030871,30.648416]},"properties":{"province":"四川省","city":"成都市","county":"武侯区","community":"浆洗街街道金地花园东区西区（含底商）","full_address":"四川省成都市武侯区浆洗街街道金地花园东区西区（含底商）","info":""}},{"type":"Feature","geometry":{"type":"Point","coordinates":[104.059241,30.644715]},"properties":{"province":"四川省","city":"成都市","county":"武侯区","community":"浆洗街街道百花东街与大石南路交界口至百花东街与百吉街交界口道路临街两侧楼栋（含底商）","full_address":"四川省成都市武侯区浆洗街街道百花东街与大石南路交界口至百花东街与百吉街交界口道路临街两侧楼栋（含底商）","info":""}},{"type":"Feature","geometry":{"type":"Point","coordinates":[104.119383,30.655892]},"properties":{"province":"四川省","city":"成都市","county":"成华区","community":"跳蹬河街道馨和苑及底商（东篱路10号)","full_address":"四川省成都市成华区跳蹬河街道馨和苑及底商（东篱路10号)","info":""}},{"type":"Feature","geometry":{"type":"Point","coordinates":[104.128028,30.68367]},"properties":{"province":"四川省","city":"成都市","county":"成华区","community":"二仙桥街道交大·归谷建设派及底商(仙韵一路66号)","full_address":"四川省成都市成华区二仙桥街道交大·归谷建设派及底商(仙韵一路66号)","info":""}},{"type":"Feature","geometry":{"type":"Point","coordinates":[104.125968,30.684883]},"properties":{"province":"四川省","city":"成都市","county":"成华区","community":"二仙桥街道泰博理想城2期及底商（仙韵巷66号)","full_address":"四川省成都市成华区二仙桥街道泰博理想城2期及底商（仙韵巷66号)","info":""}},{"type":"Feature","geometry":{"type":"Point","coordinates":[104.125968,30.684883]},"properties":{"province":"四川省","city":"成都市","county":"成华区","community":"二仙桥街道泰博理想城1期及底商（仙韵二路33号)","full_address":"四川省成都市成华区二仙桥街道泰博理想城1期及底商（仙韵二路33号)","info":""}},{"type":"Feature","geometry":{"type":"Point","coordinates":[104.159838,30.682397]},"properties":{"province":"四川省","city":"成都市","county":"成华区","community":"二仙桥街道华润租住房项目宿舍、仙韵三路、四路项目宿舍、合信K101项目宿舍(民兴二路)","full_address":"四川省成都市成华区二仙桥街道华润租住房项目宿舍、仙韵三路、四路项目宿舍、合信K101项目宿舍(民兴二路)","info":""}},{"type":"Feature","geometry":{"type":"Point","coordinates":[104.159838,30.682397]},"properties":{"province":"四川省","city":"成都市","county":"成华区","community":"二仙桥街道蜀道紫瑞府二期项目宿舍（民兴二路)","full_address":"四川省成都市成华区二仙桥街道蜀道紫瑞府二期项目宿舍（民兴二路)","info":""}},{"type":"Feature","geometry":{"type":"Point","coordinates":[104.159838,30.682397]},"properties":{"province":"四川省","city":"成都市","county":"成华区","community":"二仙桥街道禾创文创产业园项目宿舍（民兴二路 )","full_address":"四川省成都市成华区二仙桥街道禾创文创产业园项目宿舍（民兴二路 )","info":""}},{"type":"Feature","geometry":{"type":"Point","coordinates":[104.122563,30.719797]},"properties":{"province":"四川省","city":"成都市","county":"成华区","community":"成华区二仙桥街道中车配套幼儿园及养老院项目宿舍（二仙桥西北路17号)","full_address":"四川省成都市成华区成华区二仙桥街道中车配套幼儿园及养老院项目宿舍（二仙桥西北路17号)","info":""}},{"type":"Feature","geometry":{"type":"Point","coordinates":[104.052552,30.631263]},"properties":{"province":"四川省","city":"成都市","county":"高新区","community":"芳草街街道王府花园小区（含二期、商户）","full_address":"四川省成都市高新区芳草街街道王府花园小区（含二期、商户）","info":""}},{"type":"Feature","geometry":{"type":"Point","coordinates":[105.439446,28.847068]},