{"type":"FeatureCollection","features":[{"type":"Feature","geometry":{"type":"Point","coordinates":[116.685486,39.866066]},"properties":{"full_address":"北京市通州区梨园（地区）镇高楼金第小区及高楼金便民生鲜超市"}},{"type":"Feature","geometry":{"type":"Point","coordinates":[116.280447,39.778869]},"properties":{"full_address":"北京市大兴区黄村（地区）镇狼垡一村除高风险区外的其他区域"}},{"type":"Feature","geometry":{"type":"Point","coordinates":[117.24318,39.148279]},"properties":{"full_address":"天津市天津市河东区鲁山道街道皓阳园4号楼"}},{"type":"Feature","geometry":{"type":"Point","coordinates":[117.259269,39.10488]},"properties":{"full_address":"天津市天津市河东区中山门街道中山门西里21号楼独院"}},{"type":"Feature","geometry":{"type":"Point","coordinates":[117.262074,39.155391]},"properties":{"full_address":"天津市天津市河东区常州道街道东惠家园9号楼"}},{"type":"Feature","geometry":{"type":"Point","coordinates":[117.202719,39.101268]},"properties":{"full_address":"天津市天津市河西区马场街四化里单号院"}},{"type":"Feature","geometry":{"type":"Point","coordinates":[117.140936,39.143202]},"properties":{"full_address":"天津市天津市南开区长虹街雅云里小区5号楼"}},{"type":"Feature","geometry":{"type":"Point","coordinates":[117.310786,39.08625]},"properties":{"full_address":"天津市天津市东丽区张贵庄街津门里小区增12号楼"}},{"type":"Feature","geometry":{"type":"Point","coordinates":[117.277164,39.111013]},"properties":{"full_address":"天津市天津市东丽区万新街增兴家园小区15号楼"}},{"type":"Feature","geometry":{"type":"Point","coordinates":[117.172455,39.04826]},"properties":{"full_address":"天津市天津市西青区李七庄街盛阳园1号楼、2号楼"}},{"type":"Feature","geometry":{"type":"Point","coordinates":[117.204947,39.057171]},"properties":{"full_address":"天津市天津市西青区津门湖街鸣泉花园"}},{"type":"Feature","geometry":{"type":"Point","coordinates":[117.24218,38.914913]},"properties":{"full_address":"天津市天津市西青区王稳庄镇大侯庄村隆泰园"}},{"type":"Feature","geometry":{"type":"Point","coordinates":[117.236941,38.92198]},"properties":{"full_address":"天津市天津市西青区王稳庄镇大侯庄村平房区（津淄公路以西）"}},{"type":"Feature","geometry":{"type":"Point","coordinates":[117.332188,38.938644]},"properties":{"full_address":"天津市天津市津南区八里台镇碧桂园映月庭院2号楼"}},{"type":"Feature","geometry":{"type":"Point","coordinates":[117.024596,39.392551]},"properties":{"full_address":"天津市天津市武清区东蒲洼街光明道金都花园（29号楼除外）"}},{"type":"Feature","geometry":{"type":"Point","coordinates":[117.059761,39.410327]},"properties":{"full_address":"天津市天津市武清区杨村街尚清湾A区（27号楼1单元除外）"}},{"type":"Feature","geometry":{"type":"Point","coordinates":[117.660281,39.039062]},"properties":{"full_address":"天津市天津市滨海新区杭州道街广州道37、39、41、43号"}},{"type":"Feature","geometry":{"type":"Point","coordinates":[117.679804,39.040525]},"properties":{"full_address":"天津市天津市滨海新区杭州道街智谛山18号楼、22号楼"}},{"type":"Feature","geometry":{"type":"Point","coordinates":[117.657498,39.042663]},"properties":{"full_address":"天津市天津市滨海新区杭州道街城市名居2号楼"}},{"type":"Feature","geometry":{"type":"Point","coordinates":[117.66866,39.04325]},"properties":{"full_address":"天津市天津市滨海新区杭州道街贻和花园11号楼"}},{"type":"Feature","geometry":{"type":"Point","coordinates":[117.663917,39.034761]},"properties":{"full_address":"天津市天津市滨海新区杭州道街美景园7号楼"}},{"type":"Feature","geometry":{"type":"Point","coordinates":[117.644618,39.042574]},"properties":{"full_address":"天津市天津市滨海新区新河街湘江里12号楼"}},{"type":"Feature","geometry":{"type":"Point","coordinates":[117.628505,39.051276]},"properties":{"full_address":"天津市天津市滨海新区新河街南益名士华庭14号楼"}},{"type":"Feature","geometry":{"type":"Point","coordinates":[117.636666,39.034648]},"properties":{"full_address":"天津市天津市滨海新区新河街百兴里5号楼"}},{"type":"Feature","geometry":{"type":"Point","coordinates":[117.644466,39.044297]},"properties":{"full_address":"天津市天津市滨海新区新河街漓江里14号楼"}},{"type":"Feature","geometry":{"type":"Point","coordinates":[117.635883,39.13196]},"properties":{"full_address":"天津市天津市滨海新区北塘街欣康苑8号楼"}},{"type":"Feature","geometry":{"type":"Point","coordinates":[117.71707,39.106827]},"properties":{"full_address":"天津市天津市滨海新区北塘街欣平苑6号楼"}},{"type":"Feature","geometry":{"type":"Point","coordinates":[117.657937,39.103517]},"properties":{"full_address":"天津市天津市滨海新区北塘街中建幸福城64号楼"}},{"type":"Feature","geometry":{"type":"Point","coordinates":[117.687186,39.037389]},"properties":{"full_address":"天津市天津市滨海新区泰达街捷达园B栋"}},{"type":"Feature","geometry":{"type":"Point","coordinates":[117.639848,39.042094]},"properties":{"full_address":"天津市天津市滨海新区新河街西江里11号楼"}},{"type":"Feature","geometry":{"type":"Point","coordinates":[117.73193,39.02126]},"properties":{"full_address":"天津市天津市滨海新区泰达街朗月轩2号楼"}},{"type":"Feature","geometry":{"type":"Point","coordinates":[117.721736,39.086567]},"properties":{"full_address":"天津市天津市滨海新区泰达街尚德园1号楼"}},{"type":"Feature","geometry":{"type":"Point","coordinates":[117.726231,39.035263]},"properties":{"full_address":"天津市天津市滨海新区泰达街万通新城国际10号楼"}},{"type":"Feature","geometry":{"type":"Point","coordinates":[117.67117,39.044761]},"properties":{"full_address":"天津市天津市滨海新区杭州道街贻和花园26号楼"}},{"type":"Feature","geometry":{"type":"Point","coordinates":[117.700591,39.093209]},"properties":{"full_address":"天津市天津市滨海新区北塘街御澜名邸6号楼"}},{"type":"Feature","geometry":{"type":"Point","coordinates":[117.657442,38.992905]},"properties":{"full_address":"天津市天津市滨海新区大沽街海昌天澜9号楼"}},{"type":"Feature","geometry":{"type":"Point","coordinates":[117.644192,39.042368]},"properties":{"full_address":"天津市天津市滨海新区新河街湘江里11号楼"}},{"type":"Feature","geometry":{"type":"Point","coordinates":[117.641646,39.040124]},"properties":{"full_address":"天津市天津市滨海新区新河街珠江里13号楼"}},{"type":"Feature","geometry":{"type":"Point","coordinates":[117.638251,39.045624]},"properties":{"full_address":"天津市天津市滨海新区新河街岷江西里1号楼"}},{"type":"Feature","geometry":{"type":"Point","coordinates":[117.558128,39.133826]},"properties":{"full_address":"天津市天津市滨海新区北塘街绅湖公馆2号楼"}},{"type":"Feature","geometry":{"type":"Point","coordinates":[117.71707,39.106827]},"properties":{"full_address":"天津市天津市滨海新区北塘街欣昌苑11号楼"}},{"type":"Feature","geometry":{"type":"Point","coordinates":[117.655606,39.044946]},"properties":{"full_address":"天津市天津市滨海新区杭州道街贻成奥林花园9号楼"}},{"type":"Feature","geometry":{"type":"Point","coordinates":[117.65731,39.04211]},"properties":{"full_address":"天津市天津市滨海新区杭州道街城市名居1号楼"}},{"type":"Feature","geometry":{"type":"Point","coordinates":[117.700273,39.009044]},"properties":{"full_address":"天津市天津市滨海新区塘沽街紫云园6号楼"}},{"type":"Feature","geometry":{"type":"Point","coordinates":[117.700539,38.982061]},"properties":{"full_address":"天津市天津市滨海新区大沽街和荣苑3号楼"}},{"type":"Feature","geometry":{"type":"Point","coordinates":[117.740677,39.033304]},"properties":{"full_address":"天津市天津市滨海新区新港街启航嘉园1号楼、2号楼"}},{"type":"Feature","geometry":{"type":"Point","coordinates":[117.599733,39.035423]},"properties":{"full_address":"天津市天津市滨海新区胡家园街滨尚花园7号楼"}},{"type":"Feature","geometry":{"type":"Point","coordinates":[117.555539,39.089626]},"properties":{"full_address":"天津市天津市滨海新区经开区天渤公寓2号楼"}},{"type":"Feature","geometry":{"type":"Point","coordinates":[117.722927,39.075827]},"properties":{"full_address":"天津市天津市滨海新区经开区天润公寓2号楼、3号楼"}},{"type":"Feature","geometry":{"type":"Point","coordinates":[117.731094,39.073357]},"properties":{"full_address":"天津市天津市滨海新区经开区天泽公寓1号楼"}},{"type":"Feature","geometry":{"type":"Point","coordinates":[117.648627,39.065813]},"properties":{"full_address":"天津市天津市滨海新区新北街东至东江路、西至厦门路-云山道-威海路、北至第九大街、南至泰达大街区域内居民小区"}},{"type":"Feature","geometry":{"type":"Point","coordinates":[119.255445,39.86681]},"properties":{"full_address":"河北省秦皇岛市抚宁区骊城街道紫金湾景尚小区除13号楼以外的区域"}},{"type":"Feature","geometry":{"type":"Point","coordinates":[115.517572,38.871032]},"properties":{"full_address":"河北省保定市莲池区河北大学五四路校区（五四东路180号）"}},{"type":"Feature","geometry":{"type":"Point","coordinates":[114.894222,40.806233]},"properties":{"full_address":"河北省张家口市桥东区胜利北路街道汉桥北街社区除南口国税局家属院2号楼以外的区域"}},{"type":"Feature","geometry":{"type":"Point","coordinates":[114.888088,40.788294]},"properties":{"full_address":"河北省张家口市桥东区胜利北路街道德胜街社区"}},{"type":"Feature","geometry":{"type":"Point","coordinates":[114.892206,40.814157]},"properties":{"full_address":"河北省张家口市桥东区陆军第81集团军医院（含院内家属区）"}},{"type":"Feature","geometry":{"type":"Point","coordinates":[114.879394,40.78465]},"properties":{"full_address":"河北省张家口市桥东区红旗楼街道汉桥南街社区"}},{"type":"Feature","geometry":{"type":"Point","coordinates":[114.897231,40.819728]},"properties":{"full_address":"河北省张家口市桥东区五一路街道五一路社区陆军第81集团军医院北院家属区。"}},{"type":"Feature","geometry":{"type":"Point","coordinates":[114.887173,40.827186]},"properties":{"full_address":"河北省张家口市桥西区公园路综合市场（下东营路店）"}},{"type":"Feature","geometry":{"type":"Point","coordinates":[114.881646,40.818232]},"properties":{"full_address":"河北省张家口市桥西区武城街社区除武城街步行街以外的区域"}},{"type":"Feature","geometry":{"type":"Point","coordinates":[114.876503,40.819398]},"properties":{"full_address":"河北省张家口市桥西区鼓楼西街社区"}},{"type":"Feature","geometry":{"type":"Point","coordinates":[114.878339,40.820924]},"properties":{"full_address":"河北省张家口市桥西区北关街社区"}},{"type":"Feature","geometry":{"type":"Point","coordinates":[115.09951,40.608726]},"properties":{"full_address":"河北省张家口市宣化区义圣宫青云美术班所在楼栋"}},{"type":"Feature","geometry":{"type":"Point","coordinates":[115.064389,40.606121]},"properties":{"full_address":"河北省张家口市宣化区万字会南路"}},{"type":"Feature","geometry":{"type":"Point","coordinates":[115.09951,40.608726]},"properties":{"full_address":"河北省张家口市宣化区宣钢设备能源部气化作业区"}},{"type":"Feature","geometry":{"type":"Point","coordinates":[115.061134,40.604462]},"properties":{"full_address":"河北省张家口市宣化区东草市街"}},{"type":"Feature","geometry":{"type":"Point","coordinates":[115.063843,40.605628]},"properties":{"full_address":"河北省张家口市宣化区东二道巷"}},{"type":"Feature","geometry":{"type":"Point","coordinates":[115.066071,40.609918]},"properties":{"full_address":"河北省张家口市宣化区武庙街"}},{"type":"Feature","geometry":{"type":"Point","coordinates":[115.063766,40.616113]},"properties":{"full_address":"河北省张家口市宣化区钟楼大街（钟楼至花巷段）"}},{"type":"Feature","geometry":{"type":"Point","coordinates":[115.09951,40.608726]},"properties":{"full_address":"河北省张家口市宣化区双盛批发大市场"}},{"type":"Feature","geometry":{"type":"Point","coordinates":[113.986087,41.080042]},"properties":{"full_address":"河北省张家口市尚义县滨河新城住宅小区南区"}},{"type":"Feature","geometry":{"type":"Point","coordinates":[113.980144,41.075618]},"properties":{"full_address":"河北省张家口市尚义县太平南路新县医院对面华佗药房"}},{"type":"Feature","geometry":{"type":"Point","coordinates":[113.986087,41.080042]},"properties":{"full_address":"河北省张家口市尚义县滨河新城住宅小区底商万德福超市"}},{"type":"Feature","geometry":{"type":"Point","coordinates":[114.91194,40.762419]},"properties":{"full_address":"河北省张家口市经开区马路东街道办事处福源里社区茶榆云顶小区8号楼"}},{"type":"Feature","geometry":{"type":"Point","coordinates":[114.878049,40.770992]},"properties":{"full_address":"河北省张家口市经开区南站街道学府路社区河北北方学院西校区"}},{"type":"Feature","geometry":{"type":"Point","coordinates":[114.925178,40.66847]},"properties":{"full_address":"河北省张家口市经开区沙岭子镇二里半村河北北方学院南校区"}},{"type":"Feature","geometry":{"type":"Point","coordinates":[114.929788,40.690771]},"properties":{"full_address":"河北省张家口市经开区沙岭子镇全域屈家庄村以外的其他区域"}},{"type":"Feature","geometry":{"type":"Point","coordinates":[117.078295,39.982718]},"properties":{"full_address":"河北省廊坊市三河市京贸物联农副产品市场"}},{"type":"Feature","geometry":{"type":"Point","coordinates":[116.84276,39.970769]},"properties":{"full_address":"河北省廊坊市三河市燕郊镇发盖子村"}},{"type":"Feature","geometry":{"type":"Point","coordinates":[112.556163,37.823495]},"properties":{"full_address":"山西省太原市小店区太原东高速服务区"}},{"type":"Feature","geometry":{"type":"Point","coordinates":[112.597103,37.827988]},"properties":{"full_address":"山西省太原市小店区白云小区（不含5号楼）"}},{"type":"Feature","geometry":{"type":"Point","coordinates":[112.570077,37.952826]},"properties":{"full_address":"山西省太原市尖草坪区新店小区二期（3、4、5号楼）"}},{"type":"Feature","geometry":{"type":"Point","coordinates":[112.567307,37.953909]},"properties":{"full_address":"山西省太原市尖草坪区新店村"}},{"type":"Feature","geometry":{"type":"Point","coordinates":[112.547732,37.967843]},"properties":{"full_address":"山西省太原市尖草坪区荣兴天顺小区1号楼"}},{"type":"Feature","geometry":{"type":"Point","coordinates":[112.535818,37.951594]},"properties":{"full_address":"山西省太原市尖草坪区太钢青楼宿舍（12、13、14、15、16、17、18、19、20号楼及社区食堂）"}},{"type":"Feature","geometry":{"type":"Point","coordinates":[112.5164,37.82637]},"properties":{"full_address":"山西省太原市万柏林区融创长风壹号小区"}},{"type":"Feature","geometry":{"type":"Point","coordinates":[112.497141,37.859454]},"properties":{"full_address":"山西省太原市万柏林区华清苑-东区"}},{"type":"Feature","geometry":{"type":"Point","coordinates":[112.51402,37.823326]},"properties":{"full_address":"山西省太原市万柏林区南上庄西街小区"}},{"type":"Feature","geometry":{"type":"Point","coordinates":[112.49018,37.78044]},"properties":{"full_address":"山西省太原市晋源区德恒世府苑小区"}},{"type":"Feature","geometry":{"type":"Point","coordinates":[112.50806,37.81446]},"properties":{"full_address":"山西省太原市晋源区东至晋源区与万柏林区交界，南至长兴南街，西至西中环路，北至义井南三巷新光六小区北界"}},{"type":"Feature","geometry":{"type":"Point","coordinates":[112.521793,37.804889]},"properties":{"full_address":"山西省太原市晋源区东至晋源区与万柏林区交界，南至长兴南街，西至晋源区与万柏林区交界，北至晋源区与万柏林区交界"}},{"type":"Feature","geometry":{"type":"Point","coordinates":[113.612496,40.040156]},"properties":{"full_address":"山西省大同市云州区云州区云州第三小学附近平房出租屋"}},{"type":"Feature","geometry":{"type":"Point","coordinates":[113.61015,40.044508]},"properties":{"full_address":"山西省大同市云州区西坪镇东梁平房66排3号院"}},{"type":"Feature","geometry":{"type":"Point","coordinates":[113.606001,40.045048]},"properties":{"full_address":"山西省大同市云州区西坪镇水头村及附近平房"}},{"type":"Feature","geometry":{"type":"Point","coordinates":[113.612496,40.040156]},"properties":{"full_address":"山西省大同市云州区星光商场"}},{"type":"Feature","geometry":{"type":"Point","coordinates":[113.613149,40.042811]},"properties":{"full_address":"山西省大同市云州区城镇小学"}},{"type":"Feature","geometry":{"type":"Point","coordinates":[112.43226,39.298977]},"properties":{"full_address":"山西省朔州市朔城区清华园小区全域"}},{"type":"Feature","geometry":{"type":"Point","coordinates":[112.470691,39.332834]},"properties":{"full_address":"山西省朔州市朔城区七里河村全域"}},{"type":"Feature","geometry":{"type":"Point","coordinates":[112.409103,39.312408]},"properties":{"full_address":"山西省朔州市朔城区家和苑中心社区所辖区域"}},{"type":"Feature","geometry":{"type":"Point","coordinates":[112.414,39.311935]},"properties":{"full_address":"山西省朔州市朔城区西关街中心社区所辖区域"}},{"type":"Feature","geometry":{"type":"Point","coordinates":[112.403376,39.321192]},"properties":{"full_address":"山西省朔州市朔城区怡家苑小区全域"}},{"type":"Feature","geometry":{"type":"Point","coordinates":[112.42215,39.305061]},"properties":{"full_address":"山西省朔州市朔城区城南中心社区、南关村所辖区域"}},{"type":"Feature","geometry":{"type":"Point","coordinates":[112.398351,37.316384]},"properties":{"full_address":"山西省晋中市祁县除下古县村外的古县镇全域"}},{"type":"Feature","geometry":{"type":"Point","coordinates":[112.331611,37.379279]},"properties":{"full_address":"山西省晋中市祁县昭馀镇丰泽村（含金半苑小区）"}},{"type":"Feature","geometry":{"type":"Point","coordinates":[112.341316,37.356289]},"properties":{"full_address":"山西省晋中市祁县县城区昌源路社区南酒厂宿舍小区"}},{"type":"Feature","geometry":{"type":"Point","coordinates":[112.317096,39.013056]},"properties":{"full_address":"山西省忻州市宁武县龙凤公馆除C座以外的其他区域（含门面房）"}},{"type":"Feature","geometry":{"type":"Point","coordinates":[112.304722,39.001524]},"properties":{"full_address":"山西省忻州市宁武县宁武县教科局办公楼"}},{"type":"Feature","geometry":{"type":"Point","coordinates":[112.313771,39.007458]},"properties":{"full_address":"山西省忻州市宁武县北大英语培训机构（县财政局对面）"}},{"type":"Feature","geometry":{"type":"Point","coordinates":[112.306017,38.998557]},"properties":{"full_address":"山西省忻州市宁武县张秀清西内诊所"}},{"type":"Feature","geometry":{"type":"Point","coordinates":[112.307303,39.002892]},"properties":{"full_address":"山西省忻州市宁武县黑鸭卤味斋"}},{"type":"Feature","geometry":{"type":"Point","coordinates":[111.084123,39.020519]},"properties":{"full_address":"山西省忻州市保德县保德县东关镇康乐社区"}},{"type":"Feature","geometry":{"type":"Point","coordinates":[111.06282,39.018075]},"properties":{"full_address":"山西省忻州市保德县保德县东关镇马家滩村"}},{"type":"Feature","geometry":{"type":"Point","coordinates":[111.077015,39.02065]},"properties":{"full_address":"山西省忻州市保德县保德县东关镇前湾社区"}},{"type":"Feature","geometry":{"type":"Point","coordinates":[111.143126,37.524813]},"properties":{"full_address":"山西省吕梁市离石区滨河街道市人民医院家属院"}},{"type":"Feature","geometry":{"type":"Point","coordinates":[111.133667,37.51265]},"properties":{"full_address":"山西省吕梁市离石区滨河街道市人民医院西侧小公园"}},{"type":"Feature","geometry":{"type":"Point","coordinates":[111.140214,37.525129]},"properties":{"full_address":"山西省吕梁市离石区凤山街道市水利局及市水利局家属院"}},{"type":"Feature","geometry":{"type":"Point","coordinates":[111.639143,40.848443]},"properties":{"full_address":"内蒙古自治区呼和浩特市回民区塔布板村（除塔布板住宅小区外的其他区域）"}},{"type":"Feature","geometry":{"type":"Point","coordinates":[111.730701,40.818926]},"properties":{"full_address":"内蒙古自治区呼和浩特市赛罕区丰泽园小区"}},{"type":"Feature","geometry":{"type":"Point","coordinates":[111.388417,40.145674]},"properties":{"full_address":"内蒙古自治区呼和浩特市托克托县西浩赖村"}},{"type":"Feature","geometry":{"type":"Point","coordinates":[110.042042,40.593826]},"properties":{"full_address":"内蒙古自治区包头市东河区福瑞瓦东瓦西小区（含瓦窑沟路）北至小区北端，南至东门大街路口"}},{"type":"Feature","geometry":{"type":"Point","coordinates":[109.819377,40.656732]},"properties":{"full_address":"内蒙古自治区包头市昆都仑区阿尔丁大街街道青七社区苏宁雅悦A座、B座及和悦公寓"}},{"type":"Feature","geometry":{"type":"Point","coordinates":[109.820207,40.624883]},"properties":{"full_address":"内蒙古自治区包头市昆都仑区黄河西路街道金帝社区帝景小区6号楼"}},{"type":"Feature","geometry":{"type":"Point","coordinates":[109.872398,40.674324]},"properties":{"full_address":"内蒙古自治区包头市青山区富强路街道4号街坊"}},{"type":"Feature","geometry":{"type":"Point","coordinates":[109.860981,40.665164]},"properties":{"full_address":"内蒙古自治区包头市青山区富强路街道9号街坊二委院"}},{"type":"Feature","geometry":{"type":"Point","coordinates":[109.881192,40.644714]},"properties":{"full_address":"内蒙古自治区包头市青山区万青路街道安泰华庭小区和相邻的赛汗郡庭小区及周边商铺"}},{"type":"Feature","geometry":{"type":"Point","coordinates":[110.52003,40.57364]},"properties":{"full_address":"内蒙古自治区包头市土默特右旗萨拉齐镇绿苑小区西区13号楼、15号楼、17号楼"}},{"type":"Feature","geometry":{"type":"Point","coordinates":[110.532882,40.573233]},"properties":{"full_address":"内蒙古自治区包头市土默特右旗萨拉齐镇花苑园三区23号楼、25号楼、27号楼"}},{"type":"Feature","geometry":{"type":"Point","coordinates":[110.556914,40.585464]},"properties":{"full_address":"内蒙古自治区包头市土默特右旗沟门镇北只图村昌昊宾馆"}},{"type":"Feature","geometry":{"type":"Point","coordinates":[110.55022,40.58651]},"properties":{"full_address":"内蒙古自治区包头市土默特右旗沟门镇北只图村逸达宾馆"}},{"type":"Feature","geometry":{"type":"Point","coordinates":[118.927184,42.323939]},"properties":{"full_address":"内蒙古自治区赤峰市红山区朝阳路以西、万商街以北、火花北路以东、查干沐伦大街以南（除朝阳路65号外）所有区域"}},{"type":"Feature","geometry":{"type":"Point","coordinates":[118.941948,42.314403]},"properties":{"full_address":"内蒙古自治区赤峰市红山区赤峰商贸物流服务园区朝阳路26号楼"}},{"type":"Feature","geometry":{"type":"Point","coordinates":[118.934253,42.328694]},"properties":{"full_address":"内蒙古自治区赤峰市红山区赤峰商贸物流服务园区万商街东段金融物流港K区1号楼"}},{"type":"Feature","geometry":{"type":"Point","coordinates":[118.936737,42.28458]},"properties":{"full_address":"内蒙古自治区赤峰市松山区向阳街道天和朗苑小区"}},{"type":"Feature","geometry":{"type":"Point","coordinates":[120.071705,43.870001]},"properties":{"full_address":"内蒙古自治区赤峰市阿鲁科尔沁旗天元小区四期（21号楼除外）"}},{"type":"Feature","geometry":{"type":"Point","coordinates":[120.296266,44.322129]},"properties":{"full_address":"内蒙古自治区赤峰市阿鲁科尔沁旗赛罕塔拉苏木查干花嘎查"}},{"type":"Feature","geometry":{"type":"Point","coordinates":[118.061508,43.608667]},"properties":{"full_address":"内蒙古自治区赤峰市林西县冷山街以南、饶州大街以北、林西大道以东、兴林路以西（尚品天成小区除外）"}},{"type":"Feature","geometry":{"type":"Point","coordinates":[118.05545,43.61812]},"properties":{"full_address":"内蒙古自治区赤峰市林西县农行小区"}},{"type":"Feature","geometry":{"type":"Point","coordinates":[118.05305,43.59329]},"properties":{"full_address":"内蒙古自治区赤峰市林西县城南街道学府社区学府花园小区除高风险区域外其他区域"}},{"type":"Feature","geometry":{"type":"Point","coordinates":[118.055654,43.607366]},"properties":{"full_address":"内蒙古自治区赤峰市林西县城北街道北街社区百合园小区"}},{"type":"Feature","geometry":{"type":"Point","coordinates":[118.083444,43.611492]},"properties":{"full_address":"内蒙古自治区赤峰市林西县林西镇东风村东风十组"}},{"type":"Feature","geometry":{"type":"Point","coordinates":[118.041814,43.619528]},"properties":{"full_address":"内蒙古自治区赤峰市林西县林西大道以东、新兴街以南、兴林路以西、金城公司以北所在区域范围"}},{"type":"Feature","geometry":{"type":"Point","coordinates":[118.498183,41.834931]},"properties":{"full_address":"内蒙古自治区赤峰市喀喇沁旗王爷府镇大庙村1组"}},{"type":"Feature","geometry":{"type":"Point","coordinates":[118.507824,41.839027]},"properties":{"full_address":"内蒙古自治区赤峰市喀喇沁旗王爷府镇王爷府村4组"}},{"type":"Feature","geometry":{"type":"Point","coordinates":[109.984973,39.81422]},"properties":{"full_address":"内蒙古自治区鄂尔多斯市东胜区交通街道辖区颐和小区6号楼"}},{"type":"Feature","geometry":{"type":"Point","coordinates":[109.973516,39.809286]},"properties":{"full_address":"内蒙古自治区鄂尔多斯市东胜区天骄街道辖区响沙弘源盛宴酒店（鄂尔多斯旅游大厦）整栋楼"}},{"type":"Feature","geometry":{"type":"Point","coordinates":[110.049571,40.405601]},"properties":{"full_address":"内蒙古自治区鄂尔多斯市达拉特旗锡尼街道长胜社区恒悦酒店"}},{"type":"Feature","geometry":{"type":"Point","coordinates":[110.011173,40.396885]},"properties":{"full_address":"内蒙古自治区鄂尔多斯市达拉特旗白塔街道白塔社区金帝牵手音乐会所（牵手KTV）"}},{"type":"Feature","geometry":{"type":"Point","coordinates":[109.755318,39.582256]},"properties":{"full_address":"内蒙古自治区鄂尔多斯市伊金霍洛旗阿勒腾席热镇景宏天清酒店"}},{"type":"Feature","geometry":{"type":"Point","coordinates":[109.757744,39.565461]},"properties":{"full_address":"内蒙古自治区鄂尔多斯市伊金霍洛旗太阳城V—show KTV"}},{"type":"Feature","geometry":{"type":"Point","coordinates":[110.100979,39.441849]},"properties":{"full_address":"内蒙古自治区鄂尔多斯市伊金霍洛旗乌兰木伦镇乌兰木伦社区老干区第三栋第四排1、2、3、4号房"}},{"type":"Feature","geometry":{"type":"Point","coordinates":[110.100979,39.441849]},"properties":{"full_address":"内蒙古自治区鄂尔多斯市伊金霍洛旗乌兰木伦镇乌兰木伦社区老干区第三栋第五排1、2、3号房"}},{"type":"Feature","geometry":{"type":"Point","coordinates":[110.100979,39.441849]},"properties":{"full_address":"内蒙古自治区鄂尔多斯市伊金霍洛旗乌兰木伦镇乌兰木伦社区老干区第三栋第六排1、2、3、4号房"}},{"type":"Feature","geometry":{"type":"Point","coordinates":[110.100979,39.441849]},"properties":{"full_address":"内蒙古自治区鄂尔多斯市伊金霍洛旗乌兰木伦社区老干区第三栋第七排1、2、3号房"}},{"type":"Feature","geometry":{"type":"Point","coordinates":[117.451623,49.576365]},"properties":{"full_address":"内蒙古自治区呼伦贝尔市满洲里市满城新世界A区（不包含31号楼）"}},{"type":"Feature","geometry":{"type":"Point","coordinates":[112.349978,43.228509]},"properties":{"full_address":"内蒙古自治区锡林郭勒盟二连浩特市格日勒敖都苏木呼格吉勒图雅嘎查35号"}},{"type":"Feature","geometry":{"type":"Point","coordinates":[122.448757,40.969433]},"properties":{"full_address":"辽宁省鞍山市海城市西四镇（除高风险区以外其他区域）"}},{"type":"Feature","geometry":{"type":"Point","coordinates":[122.536227,40.948704]},"properties":{"full_address":"辽宁省鞍山市海城市牛庄镇（除高风险区以外其他区域）"}},{"type":"Feature","geometry":{"type":"Point","coordinates":[119.426407,41.242356]},"properties":{"full_address":"辽宁省朝阳市凌源市东城街道颐安家园小区（除高风险区外）其他区域"}},{"type":"Feature","geometry":{"type":"Point","coordinates":[119.393634,41.240369]},"properties":{"full_address":"辽宁省朝阳市凌源市北街街道（凌源市妇女儿童医院）"}},{"type":"Feature","geometry":{"type":"Point","coordinates":[130.261502,47.282211]},"properties":{"full_address":"黑龙江省鹤岗市兴安区光宇小区环宇路以东，安兴街以南，安国街以西，安中街以北，合围区域(除光宇小区C8号楼外)"}},{"type":"Feature","geometry":{"type":"Point","coordinates":[125.197974,46.450017]},"properties":{"full_address":"黑龙江省大庆市龙凤区乙烯一区1-18号楼、1-19号楼、1-20号楼、1-22号楼、1-23号楼、1-44号楼、1-45号楼、1-46号楼"}},{"type":"Feature","geometry":{"type":"Point","coordinates":[130.364488,46.803734]},"properties":{"full_address":"黑龙江省佳木斯市向阳区杏湖嘉苑"}},{"type":"Feature","geometry":{"type":"Point","coordinates":[130.361901,46.805448]},"properties":{"full_address":"黑龙江省佳木斯市向阳区世水花园一期至三期"}},{"type":"Feature","geometry":{"type":"Point","coordinates":[130.361178,46.810688]},"properties":{"full_address":"黑龙江省佳木斯市向阳区幸福家园独栋楼"}},{"type":"Feature","geometry":{"type":"Point","coordinates":[130.362871,46.801909]},"properties":{"full_address":"黑龙江省佳木斯市向阳区杏湖壹品小区"}},{"type":"Feature","geometry":{"type":"Point","coordinates":[130.362088,46.809364]},"properties":{"full_address":"黑龙江省佳木斯市向阳区志兴社区林业5号楼"}},{"type":"Feature","geometry":{"type":"Point","coordinates":[130.370926,46.802545]},"properties":{"full_address":"黑龙江省佳木斯市向阳区圣泰嘉苑A楼"}},{"type":"Feature","geometry":{"type":"Point","coordinates":[130.361444,46.81203]},"properties":{"full_address":"黑龙江省佳木斯市向阳区万达公寓B座"}},{"type":"Feature","geometry":{"type":"Point","coordinates":[130.339112,46.810647]},"properties":{"full_address":"黑龙江省佳木斯市向阳区九洲社区16委综合楼"}},{"type":"Feature","geometry":{"type":"Point","coordinates":[130.37282,46.789723]},"properties":{"full_address":"黑龙江省佳木斯市向阳区天启公寓"}},{"type":"Feature","geometry":{"type":"Point","coordinates":[130.375909,46.787097]},"properties":{"full_address":"黑龙江省佳木斯市向阳区佳大尚都三角地I栋"}},{"type":"Feature","geometry":{"type":"Point","coordinates":[130.366821,46.81225]},"properties":{"full_address":"黑龙江省佳木斯市向阳区育才社区干警楼"}},{"type":"Feature","geometry":{"type":"Point","coordinates":[130.367927,46.811683]},"properties":{"full_address":"黑龙江省佳木斯市向阳区万达华府一期3号楼"}},{"type":"Feature","geometry":{"type":"Point","coordinates":[130.360553,46.79095]},"properties":{"full_address":"黑龙江省佳木斯市向阳区学府嘉园F栋"}},{"type":"Feature","geometry":{"type":"Point","coordinates":[130.358181,46.757541]},"properties":{"full_address":"黑龙江省佳木斯市向阳区四丰湖小镇 8号楼"}},{"type":"Feature","geometry":{"type":"Point","coordinates":[130.374282,46.791514]},"properties":{"full_address":"黑龙江省佳木斯市向阳区佳大尚都九栋洋房G栋"}},{"type":"Feature","geometry":{"type":"Point","coordinates":[130.361504,46.813472]},"properties":{"full_address":"黑龙江省佳木斯市向阳区新宜社区公企1号楼（老文化大楼后面）"}},{"type":"Feature","geometry":{"type":"Point","coordinates":[130.355122,46.802668]},"properties":{"full_address":"黑龙江省佳木斯市向阳区群英社区佳西24号楼"}},{"type":"Feature","geometry":{"type":"Point","coordinates":[130.398843,46.816862]},"properties":{"full_address":"黑龙江省佳木斯市东风区阳光绿洲F栋"}},{"type":"Feature","geometry":{"type":"Point","coordinates":[130.328536,46.804932]},"properties":{"full_address":"黑龙江省佳木斯市郊区英伦尚城D区12C栋"}},{"type":"Feature","geometry":{"type":"Point","coordinates":[130.321997,46.804018]},"properties":{"full_address":"黑龙江省佳木斯市郊区荷兰城风车4号楼"}},{"type":"Feature","geometry":{"type":"Point","coordinates":[130.336172,46.803211]},"properties":{"full_address":"黑龙江省佳木斯市郊区长安新城30栋"}},{"type":"Feature","geometry":{"type":"Point","coordinates":[130.320609,46.803399]},"properties":{"full_address":"黑龙江省佳木斯市郊区荷兰城观湖29号楼"}},{"type":"Feature","geometry":{"type":"Point","coordinates":[130.329663,46.788699]},"properties":{"full_address":"黑龙江省佳木斯市郊区胜利华城J13栋"}},{"type":"Feature","geometry":{"type":"Point","coordinates":[130.314739,46.814641]},"properties":{"full_address":"黑龙江省佳木斯市郊区江南雅居12号楼"}},{"type":"Feature","geometry":{"type":"Point","coordinates":[130.365386,46.812909]},"properties":{"full_address":"黑龙江省佳木斯市郊区物价小区B座"}},{"type":"Feature","geometry":{"type":"Point","coordinates":[132.033289,47.258872]},"properties":{"full_address":"黑龙江省佳木斯市富锦市临江社区江畔小区"}},{"type":"Feature","geometry":{"type":"Point","coordinates":[132.033943,47.252416]},"properties":{"full_address":"黑龙江省佳木斯市富锦市新开社区世纪家园A区7号楼门市"}},{"type":"Feature","geometry":{"type":"Point","coordinates":[132.043967,47.256459]},"properties":{"full_address":"黑龙江省佳木斯市富锦市向阳社区星语新苑C区6号楼门市"}},{"type":"Feature","geometry":{"type":"Point","coordinates":[132.028412,47.243538]},"properties":{"full_address":"黑龙江省佳木斯市富锦市富锦市幸福社区时代鑫城小区"}},{"type":"Feature","geometry":{"type":"Point","coordinates":[132.050198,47.254354]},"properties":{"full_address":"黑龙江省佳木斯市富锦市富锦市文化社区东平小区1号楼"}},{"type":"Feature","geometry":{"type":"Point","coordinates":[130.563659,45.747325]},"properties":{"full_address":"黑龙江省七台河市勃利县城西街润育华庭小区内3栋、7栋楼以外区域"}},{"type":"Feature","geometry":{"type":"Point","coordinates":[130.571243,45.749897]},"properties":{"full_address":"黑龙江省七台河市勃利县勃利桥以东，转盘道（由西至东方向）以北，学府路以西，转盘道（由东至西方向）以南，合围区域（无症状感染者的工作区域）"}},{"type":"Feature","geometry":{"type":"Point","coordinates":[127.490219,50.246223]},"properties":{"full_address":"黑龙江省黑河市爱辉区海兰街道温馨社区供销社家属楼3单元"}},{"type":"Feature","geometry":{"type":"Point","coordinates":[127.478895,50.244896]},"properties":{"full_address":"黑龙江省黑河市爱辉区海兰街道温馨社区北国明珠小区7号楼1单元及1单元附属车库、18号楼2单元及2单元附属车库"}},{"type":"Feature","geometry":{"type":"Point","coordinates":[127.489122,50.246789]},"properties":{"full_address":"黑龙江省黑河市爱辉区海兰街道鹿源春社区金达之家小区民航家属楼6单元及6单元附属门市、国际公司改造楼2单元及2单元附属门市"}},{"type":"Feature","geometry":{"type":"Point","coordinates":[127.501834,50.238791]},"properties":{"full_address":"黑龙江省黑河市爱辉区花园街道长海社区龙滨嘉苑小区1号楼、2号楼（不含1单元及1单元附属门市）、4号楼（不含1单元及1单元楼下车库）、8号楼"}},{"type":"Feature","geometry":{"type":"Point","coordinates":[127.505825,50.233663]},"properties":{"full_address":"黑龙江省黑河市爱辉区花园街道长海社区国税小区1号楼及附属门市（不含4单元及4单元附属门市）、2号楼"}},{"type":"Feature","geometry":{"type":"Point","coordinates":[127.489122,50.246789]},"properties":{"full_address":"黑龙江省黑河市爱辉区海兰街道鹿源春社区金达之家小区及附属门市（不含民航家属楼6单元及6单元附属门市、国际公司改造楼2单元及2单元附属门市）"}},{"type":"Feature","geometry":{"type":"Point","coordinates":[127.505825,50.233663]},"properties":{"full_address":"黑龙江省黑河市爱辉区花园街道长海社区国税小区1号楼4单元及4单元附属门市"}},{"type":"Feature","geometry":{"type":"Point","coordinates":[127.503723,50.239185]},"properties":{"full_address":"黑龙江省黑河市爱辉区花园街道长海社区龙滨嘉苑小区3号楼"}},{"type":"Feature","geometry":{"type":"Point","coordinates":[127.489956,50.249542]},"properties":{"full_address":"黑龙江省黑河市爱辉区西兴街道福龙社区益民二区17区11号楼6单元及6单元附属车库"}},{"type":"Feature","geometry":{"type":"Point","coordinates":[127.489956,50.249542]},"properties":{"full_address":"黑龙江省黑河市爱辉区西兴街道福龙社区益民二区17区9号楼及附属车库和门市、10号楼及附属车库、11号楼及附属车库（不含6单元及6单元附属车库）"}},{"type":"Feature","geometry":{"type":"Point","coordinates":[127.504605,50.238491]},"properties":{"full_address":"黑龙江省黑河市爱辉区花园街道长海社区龙滨嘉苑小区6号楼及附属车库（不含2单元及2单元附属车库）"}},{"type":"Feature","geometry":{"type":"Point","coordinates":[127.520241,50.242368]},"properties":{"full_address":"黑龙江省黑河市爱辉区花园街道金兰社区路桥小区路桥楼及附属车库"}},{"type":"Feature","geometry":{"type":"Point","coordinates":[127.497957,50.252053]},"properties":{"full_address":"黑龙江省黑河市爱辉区海兰街道鹿源春社区江滨楼及附属门市车库"}},{"type":"Feature","geometry":{"type":"Point","coordinates":[127.530011,50.239083]},"properties":{"full_address":"黑龙江省黑河市爱辉区花园街道武庙屯社区大公馆小区7号楼2单元及2单元附属门市"}},{"type":"Feature","geometry":{"type":"Point","coordinates":[127.482375,50.256592]},"properties":{"full_address":"黑龙江省黑河市爱辉区西兴街道人保财险社区水岸华府小区1号楼及附属门市、2号楼及附属门市（不含1单元及1单元附属门市）、3号楼及附属门市、4号楼及附属门市车库、5号楼及附属门市车库"}},{"type":"Feature","geometry":{"type":"Point","coordinates":[127.498237,50.239974]},"properties":{"full_address":"黑龙江省黑河市爱辉区花园街道长海社区天丝小区及附属门市（不含D座8号楼及附属门市）"}},{"type":"Feature","geometry":{"type":"Point","coordinates":[127.506147,50.2332]},"properties":{"full_address":"黑龙江省黑河市爱辉区花园街道长海社区国税小区2号楼1单元"}},{"type":"Feature","geometry":{"type":"Point","coordinates":[127.518173,50.240237]},"properties":{"full_address":"黑龙江省黑河市爱辉区花园街道长海社区社保集资楼小区3号楼及附属门市"}},{"type":"Feature","geometry":{"type":"Point","coordinates":[127.499882,50.236724]},"properties":{"full_address":"黑龙江省黑河市爱辉区兴安街道热电社区惠民11号地小区6号楼及附属门市车库"}},{"type":"Feature","geometry":{"type":"Point","coordinates":[127.526622,50.233326]},"properties":{"full_address":"黑龙江省黑河市爱辉区花园街道喇嘛台社区荣耀世纪小区6号楼及附属车库门市、10号楼及附属车库门市、11号楼及附属车库门市（不含5单元及5单元附属车库）、12号楼及附属车库门市"}},{"type":"Feature","geometry":{"type":"Point","coordinates":[127.506147,50.2332]},"properties":{"full_address":"黑龙江省黑河市爱辉区花园街道长海社区国税小区2号楼（不含1单元）"}},{"type":"Feature","geometry":{"type":"Point","coordinates":[127.499882,50.236724]},"properties":{"full_address":"黑龙江省黑河市爱辉区兴安街道热电社区铁路家属楼小区及附属门市（不含1号楼及附属门市）"}},{"type":"Feature","geometry":{"type":"Point","coordinates":[127.491541,50.244766]},"properties":{"full_address":"黑龙江省黑河市爱辉区兴安街道热电社区和谐家园小区及附属门市（不含1号楼及附属门市）"}},{"type":"Feature","geometry":{"type":"Point","coordinates":[127.481801,50.238572]},"properties":{"full_address":"黑龙江省黑河市爱辉区兴安街道热电社区阳光家园小区及附属门市（不含8号楼及附属门市）"}},{"type":"Feature","geometry":{"type":"Point","coordinates":[127.473538,50.25155]},"properties":{"full_address":"黑龙江省黑河市爱辉区西兴街道向阳社区幸福佳苑小区及附属门市车库（不含4号楼及附属车库）"}},{"type":"Feature","geometry":{"type":"Point","coordinates":[127.503036,50.238649]},"properties":{"full_address":"黑龙江省黑河市爱辉区花园街道长海社区龙滨嘉苑小区8号楼及附属车库"}},{"type":"Feature","geometry":{"type":"Point","coordinates":[127.499882,50.236724]},"properties":{"full_address":"黑龙江省黑河市爱辉区兴安街道热电社区惠民11号地小区1号楼及附属门市"}},{"type":"Feature","geometry":{"type":"Point","coordinates":[125.221192,49.185766]},"properties":{"full_address":"黑龙江省黑河市嫩江市老国税家属楼"}},{"type":"Feature","geometry":{"type":"Point","coordinates":[126.660137,51.733517]},"properties":{"full_address":"黑龙江省大兴安岭地区呼玛县龙腾小区1号、2号、3号楼"}},{"type":"Feature","geometry":{"type":"Point","coordinates":[126.660137,51.733517]},"properties":{"full_address":"黑龙江省大兴安岭地区呼玛县龙腾小区4号、5号、6号楼"}},{"type":"Feature","geometry":{"type":"Point","coordinates":[126.665319,51.725637]},"properties":{"full_address":"黑龙江省大兴安岭地区呼玛县电业小区"}},{"type":"Feature","geometry":{"type":"Point","coordinates":[126.665319,51.725637]},"properties":{"full_address":"黑龙江省大兴安岭地区呼玛县新市场"}},{"type":"Feature","geometry":{"type":"Point","coordinates":[121.436683,31.217415]},"properties":{"full_address":"上海市上海市长宁区江苏路街道延安西路488号"}},{"type":"Feature","geometry":{"type":"Point","coordinates":[121.423613,31.209653]},"properties":{"full_address":"上海市上海市长宁区新华路街道定西路以西、延安西路以南、安顺路以北、凯旋路以东的区域"}},{"type":"Feature","geometry":{"type":"Point","coordinates":[121.49936,31.25216]},"properties":{"full_address":"上海市上海市虹口区北外滩街道旅顺路66号"}},{"type":"Feature","geometry":{"type":"Point","coordinates":[121.434737,31.018084]},"properties":{"full_address":"上海市上海市闵行区江川路街道东川路811弄35号盒子空间酒店（上海交大店）"}},{"type":"Feature","geometry":{"type":"Point","coordinates":[121.388482,31.320961]},"properties":{"full_address":"上海市上海市宝山区大场镇锦秋路743号智尚酒店"}},{"type":"Feature","geometry":{"type":"Point","coordinates":[121.309013,31.237155]},"properties":{"full_address":"上海市上海市嘉定区江桥镇金耀南路299弄绿地新江桥城西区"}},{"type":"Feature","geometry":{"type":"Point","coordinates":[121.317605,31.241474]},"properties":{"full_address":"上海市上海市嘉定区江桥镇金园一路1359弄缘圆宝邸北区（37号-63号）"}},{"type":"Feature","geometry":{"type":"Point","coordinates":[121.593735,31.041226]},"properties":{"full_address":"上海市上海市浦东新区航头镇沪南公路5298号浦航5298文创园"}},{"type":"Feature","geometry":{"type":"Point","coordinates":[121.51869,31.209266]},"properties":{"full_address":"上海市上海市浦东新区塘桥街道浦建路38号"}},{"type":"Feature","geometry":{"type":"Point","coordinates":[121.583173,31.275461]},"properties":{"full_address":"上海市上海市浦东新区川沙新镇东河浜路10号26栋自在居酒店式服务公寓"}},{"type":"Feature","geometry":{"type":"Point","coordinates":[121.583173,31.275461]},"properties":{"full_address":"上海市上海市浦东新区北蔡镇沪南路1097号如家精选酒店"}},{"type":"Feature","geometry":{"type":"Point","coordinates":[121.55988,31.249668]},"properties":{"full_address":"上海市上海市浦东新区金杨新村街道罗山四村南区（德平路76弄、德平路80弄、博山东路81弄、万德路51弄、万德路67弄）"}},{"type":"Feature","geometry":{"type":"Point","coordinates":[121.588139,31.243889]},"properties":{"full_address":"上海市上海市浦东新区金桥镇红枫路108弄3-9号"}},{"type":"Feature","geometry":{"type":"Point","coordinates":[121.506659,30.827765]},"properties":{"full_address":"上海市上海市奉贤区海湾旅游区奉柘公路以南、海湾路以东、海泉路以南、南海公路以东、海思路以北、奉炮公路以西的区域（不包括海尚墅林苑小区、泰禾海上院子）"}},{"type":"Feature","geometry":{"type":"Point","coordinates":[118.860082,31.968827]},"properties":{"full_address":"江苏省南京市江宁区东山街道景祥佳园"}},{"type":"Feature","geometry":{"type":"Point","coordinates":[118.860355,31.970488]},"properties":{"full_address":"江苏省南京市江宁区东山街道安和家园"}},{"type":"Feature","geometry":{"type":"Point","coordinates":[117.967813,34.30139]},"properties":{"full_address":"江苏省徐州市邳州市运河街道向阳社区月亮湾小区（三岔河路211号）"}},{"type":"Feature","geometry":{"type":"Point","coordinates":[117.964966,34.307569]},"properties":{"full_address":"江苏省徐州市邳州市“在水一方”浴室（青年东路25号）"}},{"type":"Feature","geometry":{"type":"Point","coordinates":[117.967531,34.330278]},"properties":{"full_address":"江苏省徐州市邳州市天鸿金陵大酒店（世纪大道888号）"}},{"type":"Feature","geometry":{"type":"Point","coordinates":[119.155685,34.839447]},"properties":{"full_address":"江苏省连云港市赣榆区青口镇飞尔世纪花园其他区域"}},{"type":"Feature","geometry":{"type":"Point","coordinates":[118.963738,34.78946]},"properties":{"full_address":"江苏省连云港市赣榆区城头镇季瓦沟村"}},{"type":"Feature","geometry":{"type":"Point","coordinates":[119.47007,32.368572]},"properties":{"full_address":"江苏省扬州市广陵区江苏亚联农副产品有限公司（广陵区连运东路59号）"}},{"type":"Feature","geometry":{"type":"Point","coordinates":[119.471087,32.372848]},"properties":{"full_address":"江苏省扬州市广陵区万程连锁酒店（广陵区开发东路1号）"}},{"type":"Feature","geometry":{"type":"Point","coordinates":[119.462873,32.363313]},"properties":{"full_address":"江苏省扬州市广陵区百家购生活连锁购物超市（广陵区汤汪花园梅花苑13幢）"}},{"type":"Feature","geometry":{"type":"Point","coordinates":[119.454945,32.395314]},"properties":{"full_address":"江苏省扬州市广陵区清香园中国兰州拉面店（广陵区解放南路119号）"}},{"type":"Feature","geometry":{"type":"Point","coordinates":[119.447719,32.364688]},"properties":{"full_address":"江苏省扬州市广陵区兰州拉面连运店（广陵区渡江南路杉湾东苑146号）"}},{"type":"Feature","geometry":{"type":"Point","coordinates":[114.927449,25.37874]},"properties":{"full_address":"江西省赣州市信丰县县城北起建设路、南至南山西路、东起阳明路、西至迎宾大道合围区域"}},{"type":"Feature","geometry":{"type":"Point","coordinates":[114.915734,25.351907]},"properties":{"full_address":"江西省赣州市信丰县嘉定镇游州村游州大酒店"}},{"type":"Feature","geometry":{"type":"Point","coordinates":[114.929459,25.172877]},"properties":{"full_address":"江西省赣州市信丰县铁石口镇除高风险外的其他区域"}},{"type":"Feature","geometry":{"type":"Point","coordinates":[116.993531,36.695961]},"properties":{"full_address":"山东省济南市天桥区宝华街道宝华街26-12号包子客"}},{"type":"Feature","geometry":{"type":"Point","coordinates":[116.98261,36.671823]},"properties":{"full_address":"山东省济南市天桥区宝华街道宝华街36-5号田园果超市"}},{"type":"Feature","geometry":{"type":"Point","coordinates":[116.991413,36.670795]},"properties":{"full_address":"山东省济南市天桥区宝华街道宝华街36-1号可好便利店"}},{"type":"Feature","geometry":{"type":"Point","coordinates":[116.984377,36.670875]},"properties":{"full_address":"山东省济南市天桥区宝华街道宝华街36-8号康成花园菜鸟驿站"}},{"type":"Feature","geometry":{"type":"Point","coordinates":[116.98153,36.675346]},"properties":{"full_address":"山东省济南市天桥区宝华街道堤口路80号A-49-1蜜雪冰城"}},{"type":"Feature","geometry":{"type":"Point","coordinates":[116.98072,36.67426]},"properties":{"full_address":"山东省济南市天桥区宝华街道堤口路80号A-50-1杨铭宇黄焖鸡"}},{"type":"Feature","geometry":{"type":"Point","coordinates":[120.455236,36.105231]},"properties":{"full_address":"山东省青岛市崂山区海尔路180号青岛盈海医院"}},{"type":"Feature","geometry":{"type":"Point","coordinates":[120.467774,36.137662]},"properties":{"full_address":"山东省青岛市崂山区青岛州信医学影像诊断中心"}},{"type":"Feature","geometry":{"type":"Point","coordinates":[120.436753,36.101271]},"properties":{"full_address":"山东省青岛市崂山区崂山区银川东路1号鲁信长春花园小区34-39号楼"}},{"type":"Feature","geometry":{"type":"Point","coordinates":[118.636998,37.437952]},"properties":{"full_address":"山东省东营市东营区金盾大道1号（东至金盾大道，西至胜大星创农业综合体东界，南至油井生产路，北至广蒲路）"}},{"type":"Feature","geometry":{"type":"Point","coordinates":[118.534942,37.450611]},"properties":{"full_address":"山东省东营市东营区宁阳路257号新区维也纳酒店"}},{"type":"Feature","geometry":{"type":"Point","coordinates":[118.600688,37.239428]},"properties":{"full_address":"山东省东营市山东省黄河三角洲农业高新技术产业示范区丁庄街道首集市场合围区域（北至丁庄街道育英路，南至清河路，西至昂坤城市广场中心路，东至聚财路）"}},{"type":"Feature","geometry":{"type":"Point","coordinates":[118.641276,37.428834]},"properties":{"full_address":"山东省东营市经济技术开发区东城街道运河路663号融创V公馆片区除高风险区以外的其他楼宇"}},{"type":"Feature","geometry":{"type":"Point","coordinates":[116.589143,35.440544]},"properties":{"full_address":"山东省济宁市任城区李营街道培文社区苗营西区片区（东起建设路，西至片区西墙，南起苗营棚改区南墙，北至任城大道）除高风险区以外的其他区域"}},{"type":"Feature","geometry":{"type":"Point","coordinates":[116.580785,35.404176]},"properties":{"full_address":"山东省济宁市任城区观音阁街道长城工业园片区（东起洸府河，西至火炬路东200米，南起海南东路，北至深圳东路）"}},{"type":"Feature","geometry":{"type":"Point","coordinates":[116.585153,35.399996]},"properties":{"full_address":"山东省济宁市任城区越河街道望湖小区（东起武胜桥南街，西至小区内南北主通道，南起越河北岸，北至武胜桥街）"}},{"type":"Feature","geometry":{"type":"Point","coordinates":[116.597158,35.433934]},"properties":{"full_address":"山东省济宁市任城区李营街道苗营东区片区（北至机电一路，南至金宇中心路，西至建设路，东至沿建设路各小区、院落东墙）"}},{"type":"Feature","geometry":{"type":"Point","coordinates":[116.580785,35.404176]},"properties":{"full_address":"山东省济宁市任城区长沟镇蔡前村片区（包含：蔡前村、蔡北村、李北村、季庙村）"}},{"type":"Feature","geometry":{"type":"Point","coordinates":[116.575073,35.414836]},"properties":{"full_address":"山东省济宁市任城区南张街道经典院子项目工地（南至中海城北墙，西至瀚香名邸东墙，北至红星西路北沿街商铺（包含），东至电化厂路东沿街商铺（包含））"}},{"type":"Feature","geometry":{"type":"Point","coordinates":[114.267633,30.576609]},"properties":{"full_address":"湖北省武汉市硚口区宝丰街道利济北路利北社区244号"}},{"type":"Feature","geometry":{"type":"Point","coordinates":[114.419743,30.600179]},"properties":{"full_address":"湖北省武汉市洪山区和平街道白马馨居1期东区16栋"}},{"type":"Feature","geometry":{"type":"Point","coordinates":[112.836924,28.314617]},"properties":{"full_address":"湖南省长沙市望城区白沙洲街道同心花园4栋、5栋"}},{"type":"Feature","geometry":{"type":"Point","coordinates":[113.009046,27.904568]},"properties":{"full_address":"湖南省湘潭市岳塘区荷塘街道金阳城大酒店"}},{"type":"Feature","geometry":{"type":"Point","coordinates":[112.632265,27.404976]},"properties":{"full_address":"湖南省衡阳市衡山县白果镇楚南桥社区河西区域"}},{"type":"Feature","geometry":{"type":"Point","coordinates":[112.635943,29.187345]},"properties":{"full_address":"湖南省益阳市大通湖区河坝镇常信广场1栋2单元和3单元"}},{"type":"Feature","geometry":{"type":"Point","coordinates":[112.644718,29.185056]},"properties":{"full_address":"湖南省益阳市大通湖区河坝镇喜洋洋洗车行"}},{"type":"Feature","geometry":{"type":"Point","coordinates":[112.644718,29.185056]},"properties":{"full_address":"湖南省益阳市大通湖区河坝镇辉哥家菜馆"}},{"type":"Feature","geometry":{"type":"Point","coordinates":[112.644718,29.185056]},"properties":{"full_address":"湖南省益阳市大通湖区河坝镇云云生活超市"}},{"type":"Feature","geometry":{"type":"Point","coordinates":[112.644718,29.185056]},"properties":{"full_address":"湖南省益阳市大通湖区河坝镇君临天下酒店"}},{"type":"Feature","geometry":{"type":"Point","coordinates":[111.289129,26.401849]},"properties":{"full_address":"湖南省永州市东安县鹿马桥镇泉水社区"}},{"type":"Feature","geometry":{"type":"Point","coordinates":[109.619157,27.942654]},"properties":{"full_address":"湖南省湘西土家族苗族自治州凤凰县沱江镇杜田村雾桥以东、棉寨大桥及棉寨村以西、棉寨大道两侧以南、凤木路两侧以北合围区域"}},{"type":"Feature","geometry":{"type":"Point","coordinates":[113.522071,24.756736]},"properties":{"full_address":"广东省韶关市武江区西联镇恒大城2期（除38、39栋外）"}},{"type":"Feature","geometry":{"type":"Point","coordinates":[113.58777,24.772831]},"properties":{"full_address":"广东省韶关市浈江区乐园镇北江中路68号三江紫园车库入口南侧汇景苑及沙梨园224号住宅楼"}},{"type":"Feature","geometry":{"type":"Point","coordinates":[113.58429,24.7596]},"properties":{"full_address":"广东省韶关市浈江区乐园镇北江中路33号南枫碧水园东区K3-K10、K12"}},{"type":"Feature","geometry":{"type":"Point","coordinates":[113.5276,24.672285]},"properties":{"full_address":"广东省韶关市曲江区白土镇白土大桥往北至友联新苑至城口新村路口至白土路口(除白土镇财政所、曲江经济开发区管委会)"}},{"type":"Feature","geometry":{"type":"Point","coordinates":[114.145887,22.54816]},"properties":{"full_address":"广东省深圳市罗湖区黄贝街道新秀社区新秀村北区7栋"}},{"type":"Feature","geometry":{"type":"Point","coordinates":[114.137671,22.566016]},"properties":{"full_address":"广东省深圳市罗湖区翠竹街道新村社区水库新村统建楼7栋、8栋，水库新村340号、341号、345号围合区域（除高风险区外）"}},{"type":"Feature","geometry":{"type":"Point","coordinates":[114.141735,22.578256]},"properties":{"full_address":"广东省深圳市罗湖区东湖街道翠湖社区布心花园三区4栋1单元"}},{"type":"Feature","geometry":{"type":"Point","coordinates":[114.140971,22.570364]},"properties":{"full_address":"广东省深圳市罗湖区东湖街道东乐社区东乐花园44栋"}},{"type":"Feature","geometry":{"type":"Point","coordinates":[114.14672,22.54466]},"properties":{"full_address":"广东省深圳市罗湖区黄贝街道新兴社区靖轩花园2栋2单元（除底商外）"}},{"type":"Feature","geometry":{"type":"Point","coordinates":[114.127871,22.567302]},"properties":{"full_address":"广东省深圳市罗湖区翠竹街道翠锦社区阳光天地明星阁、明月阁（除底商外）"}},{"type":"Feature","geometry":{"type":"Point","coordinates":[114.13559,22.560635]},"properties":{"full_address":"广东省深圳市罗湖区翠竹街道翠竹社区东门北路2075号（29号大院）二栋一单元、二单元"}},{"type":"Feature","geometry":{"type":"Point","coordinates":[114.135849,22.574222]},"properties":{"full_address":"广东省深圳市罗湖区翠竹街道翠达社区布心路2019号宿舍楼4栋3单元"}},{"type":"Feature","geometry":{"type":"Point","coordinates":[114.136266,22.571332]},"properties":{"full_address":"广东省深圳市罗湖区翠竹街道翠达社区东晓综合市场南楼商铺和东晓综合市场北楼"}},{"type":"Feature","geometry":{"type":"Point","coordinates":[114.139204,22.56539]},"properties":{"full_address":"广东省深圳市罗湖区翠竹街道新村社区水库新村全域围合区域（除原中、高风险区，现高风险区，水库新村工业区11栋外）"}},{"type":"Feature","geometry":{"type":"Point","coordinates":[114.117275,22.581032]},"properties":{"full_address":"广东省深圳市罗湖区东晓街道兰花社区布吉农批海鲜市场临时安置区A座75号"}},{"type":"Feature","geometry":{"type":"Point","coordinates":[114.114865,22.583328]},"properties":{"full_address":"广东省深圳市罗湖区清水河街道草埔西社区清水河村108栋C座、D座"}},{"type":"Feature","geometry":{"type":"Point","coordinates":[114.136012,22.573259]},"properties":{"full_address":"广东省深圳市罗湖区翠竹街道翠达社区粤海新村5栋2单元"}},{"type":"Feature","geometry":{"type":"Point","coordinates":[114.13693,22.569094]},"properties":{"full_address":"广东省深圳市罗湖区翠竹街道翠宁社区太宁路145、147号大院2栋2单元"}},{"type":"Feature","geometry":{"type":"Point","coordinates":[114.141584,22.57062]},"properties":{"full_address":"广东省深圳市罗湖区东湖街道东乐社区东乐花园14栋旁附属楼"}},{"type":"Feature","geometry":{"type":"Point","coordinates":[114.138257,22.567587]},"properties":{"full_address":"广东省深圳市罗湖区翠竹街道新村社区水库新村工业区11栋B座"}},{"type":"Feature","geometry":{"type":"Point","coordinates":[114.145642,22.546175]},"properties":{"full_address":"广东省深圳市罗湖区黄贝街道新秀社区新秀村南区5栋1单元"}},{"type":"Feature","geometry":{"type":"Point","coordinates":[114.142833,22.543954]},"properties":{"full_address":"广东省深圳市罗湖区黄贝街道新秀社区新秀工业区内东乐大院2栋4楼"}},{"type":"Feature","geometry":{"type":"Point","coordinates":[114.138264,22.567928]},"properties":{"full_address":"广东省深圳市罗湖区翠竹街道新村社区水库新村工业区11栋"}},{"type":"Feature","geometry":{"type":"Point","coordinates":[114.135792,22.568687]},"properties":{"full_address":"广东省深圳市罗湖区翠竹街道翠岭社区万事达名苑明山阁"}},{"type":"Feature","geometry":{"type":"Point","coordinates":[114.13285,22.56635]},"properties":{"full_address":"广东省深圳市罗湖区翠竹街道翠岭社区美思苑小区1栋"}},{"type":"Feature","geometry":{"type":"Point","coordinates":[114.127942,22.566477]},"properties":{"full_address":"广东省深圳市罗湖区翠竹街道愉天社区愉天小区1栋一单元"}},{"type":"Feature","geometry":{"type":"Point","coordinates":[114.136088,22.571752]},"properties":{"full_address":"广东省深圳市罗湖区翠竹街道翠达社区百仕达花园二期15栋"}},{"type":"Feature","geometry":{"type":"Point","coordinates":[114.115947,22.574401]},"properties":{"full_address":"广东省深圳市罗湖区清水河街道清水河社区金豪花园5栋4单元"}},{"type":"Feature","geometry":{"type":"Point","coordinates":[114.142415,22.587516]},"properties":{"full_address":"广东省深圳市罗湖区东湖街道金湖社区淘金山湖景花园12栋A座、13栋A座、13栋B座"}},{"type":"Feature","geometry":{"type":"Point","coordinates":[114.138497,22.563523]},"properties":{"full_address":"广东省深圳市罗湖区翠竹街道新村社区水库新村124栋"}},{"type":"Feature","geometry":{"type":"Point","coordinates":[114.143283,22.586919]},"properties":{"full_address":"广东省深圳市罗湖区东湖街道金湖社区淘金山湖景花园（除原中、高风险区，现高风险区外）"}},{"type":"Feature","geometry":{"type":"Point","coordinates":[114.167446,22.562098]},"properties":{"full_address":"广东省深圳市罗湖区莲塘街道鹏兴社区鹏兴花园3期围合区域（除高风险区外）"}},{"type":"Feature","geometry":{"type":"Point","coordinates":[114.126292,22.541868]},"properties":{"full_address":"广东省深圳市罗湖区南湖街道向西社区向西村东区10-12栋、22栋-24栋、37-39栋围合区域（除高风险区外）"}},{"type":"Feature","geometry":{"type":"Point","coordinates":[114.118245,22.549722]},"properties":{"full_address":"广东省深圳市罗湖区东门街道（除高风险区外）"}},{"type":"Feature","geometry":{"type":"Point","coordinates":[114.153527,22.541977]},"properties":{"full_address":"广东省深圳市罗湖区黄贝街道罗芳社区安业馨园（除高风险区外）"}},{"type":"Feature","geometry":{"type":"Point","coordinates":[114.136715,22.571395]},"properties":{"full_address":"广东省深圳市罗湖区东湖街道东乐社区东安花园2栋连廊102房、5栋102房、5栋2单元、5栋4单元、6栋4单元"}},{"type":"Feature","geometry":{"type":"Point","coordinates":[114.13986,22.566942]},"properties":{"full_address":"广东省深圳市罗湖区翠竹街道新村社区水库新村统建楼8栋、12栋，水库新村23-26栋、31-32栋、290栋、298栋、13栋、183栋、241栋、346栋，泰宁小区1栋B座、2栋A座1楼"}},{"type":"Feature","geometry":{"type":"Point","coordinates":[114.138328,22.562595]},"properties":{"full_address":"广东省深圳市罗湖区翠竹街道新村社区水库新村91栋、261栋"}},{"type":"Feature","geometry":{"type":"Point","coordinates":[114.053306,22.512658]},"properties":{"full_address":"广东省深圳市福田区福保街道益田村第6栋"}},{"type":"Feature","geometry":{"type":"Point","coordinates":[114.092888,22.537251]},"properties":{"full_address":"广东省深圳市福田区南园街道沙埔头村东第1栋、东第3栋"}},{"type":"Feature","geometry":{"type":"Point","coordinates":[114.057588,22.528034]},"properties":{"full_address":"广东省深圳市福田区福田街道皇都广场B座和裙楼"}},{"type":"Feature","geometry":{"type":"Point","coordinates":[114.09313,22.55479]},"properties":{"full_address":"广东省深圳市福田区园岭街道长城社区长城一花园第1栋-第2栋"}},{"type":"Feature","geometry":{"type":"Point","coordinates":[113.915419,22.519703]},"properties":{"full_address":"广东省深圳市南山区南山街道南园村（除高风险区外）"}},{"type":"Feature","geometry":{"type":"Point","coordinates":[113.92206,22.507545]},"properties":{"full_address":"广东省深圳市南山区南山街道南油第一工业区第108栋"}},{"type":"Feature","geometry":{"type":"Point","coordinates":[113.863708,22.57661]},"properties":{"full_address":"广东省深圳市宝安区西乡街道盐田社区蚝业雅苑C栋"}},{"type":"Feature","geometry":{"type":"Point","coordinates":[114.145791,22.604885]},"properties":{"full_address":"广东省深圳市龙岗区南湾街道南岭村社区南园路21号"}},{"type":"Feature","geometry":{"type":"Point","coordinates":[114.110923,22.610946]},"properties":{"full_address":"广东省深圳市龙岗区吉华街道翠湖社区龙翔花园瑞龙轩二期"}},{"type":"Feature","geometry":{"type":"Point","coordinates":[114.123968,22.630673]},"properties":{"full_address":"广东省深圳市龙岗区吉华街道三联社区浙新工业城宿舍5D栋、5E栋"}},{"type":"Feature","geometry":{"type":"Point","coordinates":[114.164891,22.612284]},"properties":{"full_address":"广东省深圳市龙岗区南湾街道厦村社区国香山翡翠华庭1栋"}},{"type":"Feature","geometry":{"type":"Point","coordinates":[114.118205,22.6101]},"properties":{"full_address":"广东省深圳市龙岗区布吉街道南三社区新三村西区九巷1栋、2栋、9栋，十巷1栋、2栋、3栋、8栋，新民路31号、33号，长吉路40号"}},{"type":"Feature","geometry":{"type":"Point","coordinates":[114.111006,22.598072]},"properties":{"full_address":"广东省深圳市龙岗区布吉街道布吉社区莲花路135号B、C栋"}},{"type":"Feature","geometry":{"type":"Point","coordinates":[114.006795,22.665542]},"properties":{"full_address":"广东省深圳市龙华区大浪街道高峰社区澳华新村第1至13号"}},{"type":"Feature","geometry":{"type":"Point","coordinates":[114.016412,22.635607]},"properties":{"full_address":"广东省深圳市龙华区民治街道龙塘社区盛荟居B栋"}},{"type":"Feature","geometry":{"type":"Point","coordinates":[114.046396,22.671299]},"properties":{"full_address":"广东省深圳市龙华区龙华街道清湖社区清华东路112号"}},{"type":"Feature","geometry":{"type":"Point","coordinates":[114.001919,22.640005]},"properties":{"full_address":"广东省深圳市龙华区大浪街道龙平社区龙军花园A1、A2栋"}},{"type":"Feature","geometry":{"type":"Point","coordinates":[114.038491,22.603585]},"properties":{"full_address":"广东省深圳市龙华区民治街道白石龙社区白石龙一区第9栋"}},{"type":"Feature","geometry":{"type":"Point","coordinates":[113.868309,22.567647]},"properties":{"full_address":"广东省深圳市龙华区福城街道章阁社区综安楼、塘前西区15号、财富大厦、幸福楼"}},{"type":"Feature","geometry":{"type":"Point","coordinates":[114.009144,22.659354]},"properties":{"full_address":"广东省深圳市龙华区大浪街道高峰社区下早新村第48至50号、52号"}},{"type":"Feature","geometry":{"type":"Point","coordinates":[114.531844,22.591801]},"properties":{"full_address":"广东省深圳市大鹏新区大鹏办事处鹏飞路滨海花园32栋"}},{"type":"Feature","geometry":{"type":"Point","coordinates":[114.483392,22.59589]},"properties":{"full_address":"广东省深圳市大鹏新区大鹏办事处朝飞路下沙新村山海苑2栋2单元"}},{"type":"Feature","geometry":{"type":"Point","coordinates":[114.426876,22.6299]},"properties":{"full_address":"广东省深圳市大鹏新区葵涌办事处欧新小区四巷10-12号"}},{"type":"Feature","geometry":{"type":"Point","coordinates":[114.530125,22.5942]},"properties":{"full_address":"广东省深圳市大鹏新区大鹏办事处鹏飞路与李白路交界鹏海小区（除高风险区外）"}},{"type":"Feature","geometry":{"type":"Point","coordinates":[114.472605,22.598918]},"properties":{"full_address":"广东省深圳市大鹏新区大鹏办事处旱塘仔（除高风险区外）"}},{"type":"Feature","geometry":{"type":"Point","coordinates":[114.467074,23.185564]},"properties":{"full_address":"广东省惠州市惠城区广惠高速汝湖出口至东江边以西，三环北路以北，惠博大道至小金河大道以东，广惠高速以南区域（高风险区除外）"}},{"type":"Feature","geometry":{"type":"Point","coordinates":[114.42962,23.073671]},"properties":{"full_address":"广东省惠州市惠城区河南岸街道方直城市时代小区除8栋-9栋以外其他10栋楼宇"}},{"type":"Feature","geometry":{"type":"Point","coordinates":[114.562053,23.101858]},"properties":{"full_address":"广东省惠州市惠城区水口街道三联村及姚村全域（高风险区域除外）"}},{"type":"Feature","geometry":{"type":"Point","coordinates":[114.710413,22.793649]},"properties":{"full_address":"广东省惠州市大亚湾区霞涌街道石化大道东以南，乌山头山脊以东，惠东碧桂园十里银滩以西，小径湾海岸线以北区域（高风险区除外）"}},{"type":"Feature","geometry":{"type":"Point","coordinates":[114.558382,23.127364]},"properties":{"full_address":"广东省惠州市仲恺高新区东江科技园东兴片区赢合工业园周边区域【东锦南路以东，惠泽大道以南，东新大道以西，兴举西路以北】（高风险区域除外）"}},{"type":"Feature","geometry":{"type":"Point","coordinates":[113.78188,23.067417]},"properties":{"full_address":"广东省东莞市东城街道下桥社区银岭街-银竹路-金桥水产市场东侧-陂头巷21-48号合围区域（除高风险区外）"}},{"type":"Feature","geometry":{"type":"Point","coordinates":[116.260895,23.006474]},"properties":{"full_address":"广东省揭阳市惠来县东陇镇东陇村部分区域（东至庆平路，北至南环二路，南至汕汕高铁，西至与石洲村交界）"}},{"type":"Feature","geometry":{"type":"Point","coordinates":[110.198316,20.050137]},"properties":{"full_address":"海南省海口市秀英区滨海新天地一期南区（5-9栋）"}},{"type":"Feature","geometry":{"type":"Point","coordinates":[110.359272,20.019123]},"properties":{"full_address":"海南省海口市美兰区海航国兴城C区"}},{"type":"Feature","geometry":{"type":"Point","coordinates":[110.351316,20.053635]},"properties":{"full_address":"海南省海口市美兰区美兰区和平大道16号银谷苑小区4-8栋"}},{"type":"Feature","geometry":{"type":"Point","coordinates":[110.822888,19.543128]},"properties":{"full_address":"海南省省直辖县级行政单位文昌市文城镇清澜片区的中南森海湾小区"}},{"type":"Feature","geometry":{"type":"Point","coordinates":[110.823322,19.544501]},"properties":{"full_address":"海南省省直辖县级行政单位文昌市椰海尚品小区（东至旅游大道椰海尚品围墙、西至逸龙东路、南至高隆湾海边带沙滩，北至疏港路中南森海湾围墙"}},{"type":"Feature","geometry":{"type":"Point","coordinates":[109.004452,28.452727]},"properties":{"full_address":"重庆市重庆市秀山土家族苗族自治县中和街道宜景花园（除18栋的区域）"}},{"type":"Feature","geometry":{"type":"Point","coordinates":[108.987989,28.447558]},"properties":{"full_address":"重庆市重庆市秀山土家族苗族自治县中和街道花灯广场“海澜之家”"}},{"type":"Feature","geometry":{"type":"Point","coordinates":[108.993402,28.446036]},"properties":{"full_address":"重庆市重庆市秀山土家族苗族自治县中和街道鼎厨坊清汤羊肉粉馆（永辉超市对面）"}},{"type":"Feature","geometry":{"type":"Point","coordinates":[109.005311,28.466016]},"properties":{"full_address":"重庆市重庆市秀山土家族苗族自治县中和街道权哥木制品有限公司（顺发驾校旁）"}},{"type":"Feature","geometry":{"type":"Point","coordinates":[105.438724,28.90023]},"properties":{"full_address":"四川省泸州市龙马潭区小市街道银盘山庄小区（含南区、北区）"}},{"type":"Feature","geometry":{"type":"Point","coordinates":[105.483856,28.867969]},"properties":{"full_address":"四川省泸州市龙马潭区小市街道蓝天商城（含蓝天公寓）整栋、回龙街7栋（1、2单元）、9栋（含7栋、9栋底楼商铺）、一环路回龙街120-146偶数号商铺"}},{"type":"Feature","geometry":{"type":"Point","coordinates":[104.743643,31.456912]},"properties":{"full_address":"四川省绵阳市涪城区涪城区石塘街道长兴望江苑小区"}},{"type":"Feature","geometry":{"type":"Point","coordinates":[104.610033,31.55653]},"properties":{"full_address":"四川省绵阳市安州区安州区花荄镇红武村"}},{"type":"Feature","geometry":{"type":"Point","coordinates":[105.565238,30.526857]},"properties":{"full_address":"四川省遂宁市船山区秀水街山力苑小区、秀水街计生委宿舍以及再生资源宿舍全部区域"}},{"type":"Feature","geometry":{"type":"Point","coordinates":[105.56716,30.531478]},"properties":{"full_address":"四川省遂宁市船山区飞虹街6号"}},{"type":"Feature","geometry":{"type":"Point","coordinates":[105.568199,30.533183]},"properties":{"full_address":"四川省遂宁市船山区飞虹街55栋"}},{"type":"Feature","geometry":{"type":"Point","coordinates":[105.587806,30.497116]},"properties":{"full_address":"四川省遂宁市船山区凯东路凯南一巷9栋、10栋、14栋和凯南二巷11号、12号、13号所在楼栋以及凯南二巷2栋"}},{"type":"Feature","geometry":{"type":"Point","coordinates":[104.924892,28.575689]},"properties":{"full_address":"四川省宜宾市长宁县长宁镇"}},{"type":"Feature","geometry":{"type":"Point","coordinates":[105.168768,28.128916]},"properties":{"full_address":"四川省宜宾市兴文县大坝苗族乡除高风险区外其余区域"}},{"type":"Feature","geometry":{"type":"Point","coordinates":[104.663663,28.779591]},"properties":{"full_address":"四川省宜宾市三江新区白沙湾街道洗马池社区"}},{"type":"Feature","geometry":{"type":"Point","coordinates":[102.217506,31.901859]},"properties":{"full_address":"四川省阿坝藏族羌族自治州马尔康市马尔康镇绕城路3号（州级周转房3期，1期1栋、2栋、3栋）"}},{"type":"Feature","geometry":{"type":"Point","coordinates":[102.219379,31.901669]},"properties":{"full_address":"四川省阿坝藏族羌族自治州马尔康市马尔康镇团结街225号（州级机关幼儿园教学楼、宿舍楼、综合大楼在建工地）"}},{"type":"Feature","geometry":{"type":"Point","coordinates":[102.220387,31.899747]},"properties":{"full_address":"四川省阿坝藏族羌族自治州马尔康市马尔康镇嘉绒文化美食街62号（绒兴家苑1栋及商铺、2栋及商铺、马尔康镇综合市场靠绒兴家苑一楼商铺）"}},{"type":"Feature","geometry":{"type":"Point","coordinates":[105.506629,27.202786]},"properties":{"full_address":"贵州省毕节市七星关区双山镇高坪村"}},{"type":"Feature","geometry":{"type":"Point","coordinates":[106.036966,27.024166]},"properties":{"full_address":"贵州省毕节市七星关区市东街道香山郦居小区11栋"}},{"type":"Feature","geometry":{"type":"Point","coordinates":[105.277665,27.309232]},"properties":{"full_address":"贵州省毕节市七星关区以福音堂为起点，沿松山路至环城北路，沿环城北路至草海大道至茶亭枢纽到毕节绕城高速，以绕城高速为界，至文笔路合围区域"}},{"type":"Feature","geometry":{"type":"Point","coordinates":[105.331402,27.289674]},"properties":{"full_address":"贵州省毕节市七星关区万晟阳光城A区2栋"}},{"type":"Feature","geometry":{"type":"Point","coordinates":[105.285756,27.298525]},"properties":{"full_address":"贵州省毕节市七星关区阳山隧道与草海大道交叉处，沿草海大道、翠屏路、威宁路、桂花路至原老公安处合围区域"}},{"type":"Feature","geometry":{"type":"Point","coordinates":[105.28686,27.289254]},"properties":{"full_address":"贵州省毕节市七星关区从洪山路垭口开始，沿南环路至毕节市信访局，向南沿百里杜鹃路至观邸小区，向西顺碧阳大道至毕节市生态环保局，向北沿洪山路至南环路口合围区域（不含其中的中国石化加油站、消防一中队南环东路中队、毕节市第三人民医院）"}},{"type":"Feature","geometry":{"type":"Point","coordinates":[105.293693,27.286797]},"properties":{"full_address":"贵州省毕节市七星关区碧阳街道滨湖小区愉景华庭H栋"}},{"type":"Feature","geometry":{"type":"Point","coordinates":[106.020944,26.985378]},"properties":{"full_address":"贵州省毕节市黔西市莲城街道八块田社区6、7网格"}},{"type":"Feature","geometry":{"type":"Point","coordinates":[105.417941,26.762909]},"properties":{"full_address":"贵州省毕节市纳雍县珙桐街道白水河社区纳雍一中、思源实验学校、香域蓝湾与瑞府财富天街合围区域"}},{"type":"Feature","geometry":{"type":"Point","coordinates":[102.832279,23.624656]},"properties":{"full_address":"云南省红河哈尼族彝族自治州建水县五龙商场片区"}},{"type":"Feature","geometry":{"type":"Point","coordinates":[103.958777,22.517596]},"properties":{"full_address":"云南省红河哈尼族彝族自治州河口瑶族自治县河口镇北山社区阮氏桂货运站"}},{"type":"Feature","geometry":{"type":"Point","coordinates":[103.96056,22.509593]},"properties":{"full_address":"云南省红河哈尼族彝族自治州河口瑶族自治县河口吉星广告装饰部周边区域"}},{"type":"Feature","geometry":{"type":"Point","coordinates":[103.934228,22.527097]},"properties":{"full_address":"云南省红河哈尼族彝族自治州河口瑶族自治县和谐小区"}},{"type":"Feature","geometry":{"type":"Point","coordinates":[103.960353,22.524773]},"properties":{"full_address":"云南省红河哈尼族彝族自治州河口瑶族自治县曼章社区迎辉小区"}},{"type":"Feature","geometry":{"type":"Point","coordinates":[103.961549,22.525248]},"properties":{"full_address":"云南省红河哈尼族彝族自治州河口瑶族自治县德胜花园小区"}},{"type":"Feature","geometry":{"type":"Point","coordinates":[100.821339,22.00716]},"properties":{"full_address":"云南省西双版纳傣族自治州景洪市告庄西双景除高风险区以外的其他区域"}},{"type":"Feature","geometry":{"type":"Point","coordinates":[100.796253,21.996394]},"properties":{"full_address":"云南省西双版纳傣族自治州景洪市景洪港及曼斗居民小组景洪港片区"}},{"type":"Feature","geometry":{"type":"Point","coordinates":[100.817374,22.014918]},"properties":{"full_address":"云南省西双版纳傣族自治州景洪市山水社区铜矿住宿区（宣慰大道—澜沧江路—曼泐路合围片区）"}},{"type":"Feature","geometry":{"type":"Point","coordinates":[100.796253,21.996394]},"properties":{"full_address":"云南省西双版纳傣族自治州景洪市曼斗水上世界片区（景亮路—宣慰大道—曼泐路—澜沧江路—港口路合围片区）"}},{"type":"Feature","geometry":{"type":"Point","coordinates":[100.734155,22.031765]},"properties":{"full_address":"云南省西双版纳傣族自治州景洪市西双版纳景洪工业园区曼沙社区曼柳村"}},{"type":"Feature","geometry":{"type":"Point","coordinates":[100.051737,21.696587]},"properties":{"full_address":"云南省西双版纳傣族自治州勐海县打洛镇打洛村曼卖本村民小组"}},{"type":"Feature","geometry":{"type":"Point","coordinates":[100.051737,21.696587]},"properties":{"full_address":"云南省西双版纳傣族自治州勐海县打洛镇除高风险以外地区"}},{"type":"Feature","geometry":{"type":"Point","coordinates":[100.260387,21.998095]},"properties":{"full_address":"云南省西双版纳傣族自治州勐海县黎明农场象塚社区"}},{"type":"Feature","geometry":{"type":"Point","coordinates":[98.06534,24.077361]},"properties":{"full_address":"云南省德宏傣族景颇族自治州瑞丽市畹町镇国防街社区和民主街社区除高风险区外的区域，以及建设路社区部分区域"}},{"type":"Feature","geometry":{"type":"Point","coordinates":[97.827503,23.979255]},"properties":{"full_address":"云南省德宏傣族景颇族自治州瑞丽市勐卯街道姐东村委会大等贺村民小组04网格37号、38号、40号、42号、43号、138号、162号、170号、223号、248号"}},{"type":"Feature","geometry":{"type":"Point","coordinates":[97.700523,23.916392]},"properties":{"full_address":"云南省德宏傣族景颇族自治州瑞丽市姐相镇俄罗村委会弄相村民小组65号至70号"}},{"type":"Feature","geometry":{"type":"Point","coordinates":[98.101472,24.097536]},"properties":{"full_address":"云南省德宏傣族景颇族自治州瑞丽市畹町镇芒棒村委会芒棒村民小组除高风险区以外区域"}},{"type":"Feature","geometry":{"type":"Point","coordinates":[97.890538,23.979522]},"properties":{"full_address":"云南省德宏傣族景颇族自治州瑞丽市姐告国门社区除高风险区以外的区域"}},{"type":"Feature","geometry":{"type":"Point","coordinates":[97.89029,24.024491]},"properties":{"full_address":"云南省德宏傣族景颇族自治州瑞丽市勐卯街道姐勒村委会桂平物流城除高风险区以外的区域（不含桂平物流酒店），以及桂平物流城西侧道路对面商铺（德冠恒隆家具城至骏驰汽修店）"}},{"type":"Feature","geometry":{"type":"Point","coordinates":[97.856741,23.993484]},"properties":{"full_address":"云南省德宏傣族景颇族自治州瑞丽市勐卯街道卯相社区奥星世纪小区一期、二期除高风险区以外的区域"}},{"type":"Feature","geometry":{"type":"Point","coordinates":[97.817482,23.975523]},"properties":{"full_address":"云南省德宏傣族景颇族自治州瑞丽市勐卯街道姐东村委会丙午村民小组除高风险区以外的区域"}},{"type":"Feature","geometry":{"type":"Point","coordinates":[97.570053,24.721537]},"properties":{"full_address":"云南省德宏傣族景颇族自治州盈江县那邦镇那邦村芒那路上田坝岔口起至桥头村民小组扎图拱便道止所涉区域"}},{"type":"Feature","geometry":{"type":"Point","coordinates":[91.135594,29.675344]},"properties":{"full_address":"西藏自治区拉萨市城关区色拉北路圣城花园"}},{"type":"Feature","geometry":{"type":"Point","coordinates":[91.121675,29.671719]},"properties":{"full_address":"西藏自治区拉萨市城关区娘热路幸福新村"}},{"type":"Feature","geometry":{"type":"Point","coordinates":[91.147544,29.673285]},"properties":{"full_address":"西藏自治区拉萨市城关区扎细街道尼卓林社区琅赛9区北区"}},{"type":"Feature","geometry":{"type":"Point","coordinates":[91.102348,29.661771]},"properties":{"full_address":"西藏自治区拉萨市城关区功德林街道拉鲁社区（除国土温馨苑、中国联通城关区天海路基地营业厅、自治区规划院、市自然资源局、自治区能源中心、央广西藏记者站、自治区文物局）"}},{"type":"Feature","geometry":{"type":"Point","coordinates":[91.091377,29.654461]},"properties":{"full_address":"西藏自治区拉萨市城关区功德林街道加措社区（除伊成检测站、箭达岗公寓、审计厅生活区、西藏革命纪念馆工地、自治区血液中心、拉萨七中、卫健委办公区、拉萨海关、中国石油（当热路）、自治区卫健委、旅游大厦、南方公司、诺迪康药业、自治区科技厅、文居苑（二区）、回族林卡、拉萨消防、西藏银行、自治区编译局、鸿运家具城、财政厅、西藏银行、中国银行、老鱼庄、西藏税务、十三幼儿园、自来水公司、中国人保财险、中国石化、哈达工地、巨龙铜业、生态环境厅、泰和国际、金珠路14号（国保支队）、丰田4S店、110便民支队、第三安居苑、财经学院、农银大学、圣州加气站、锦江之星酒店、自治区卫校、拉萨市农行退休基地、财康青年旅社、甘丹寺招待所、西藏自治区疾控中心第二工作区、拉萨市运管局、尼泊尔领事馆、加措社区居委会、金陵酒店、泽当饭店、环球大厦、区工人疗养院、交警总队、银都宾馆、自治区藏剧团、自治区话剧团、乐视公寓、旅游汽车公司北、旅游汽车公司南、人大退休基地、自治区民政厅、自治区文联、拉萨饭店、自治区统计局、拉萨市特警支队生活区、市交通局、西农集团、罗布林卡南路2号、自治区藏医药管理局、自治区移动公司、机电小区、第四安居园续建公寓、格吉园小区、拉萨饭店生活区、自治区档案馆、西藏宾馆、新华书店北京西路店、罗布林卡、安全文明小区、吉祥苑、自治区交通勘察设计研究院、拉鲁湿地小区、民政厅小区、加措二组、加措棚户区改造二期工地、罗布林卡南支路快修市场、自治区福利印刷厂、格拉丹东酒店、中国建设银行（西藏自治区分行）及生活区、加措棚户1期、金穗小区、西藏宾馆生活区、康宁小区）"}},{"type":"Feature","geometry":{"type":"Point","coordinates":[91.137567,29.682533]},"properties":{"full_address":"西藏自治区拉萨市城关区夺底街道桑伊社区（除党群服务中心、煜宸公寓、北城新天地广场、圣地天然矿泉水公司、中行退休基地（夺底北路）、凯旋盛世（社区）、拉康小区、生药厂生活区、粮食仓库、那曲发改委退休基地、米琼日山脚仓库、拉萨市就业中心、御品世家、昌都交通局退休基地、金属小区、自治区畜科所、东尊名城、天海仓库、拉萨电信城北分局、高争民爆物资公司生活区、拉萨啤酒厂、拉萨啤酒厂生活区、西农小区、阿里交通退休基地、小十安居苑、自治区司法厅、天路分公司小区、北郊花园、警校路出租房、天海A区（大修厂）、天海B区小区、二建司、慈松塘路第十安居苑、第六安居苑、司法小区、第四安居园、拉萨吉曲工贸综合市场、圣城牡丹苑）"}},{"type":"Feature","geometry":{"type":"Point","coordinates":[91.123908,29.672027]},"properties":{"full_address":"西藏自治区拉萨市城关区功德林街道幸福社区（除娘热南路15号国豪商务宾馆、卓玛医院、布达拉宫退休基地、博物馆退休基地、审计厅办公区、彩泉福利学校、自治区医保局、自治区妇联、宣传部退休基地、自治区药监局、自治区林草局、扎西热旦小区、自治区住建厅及生活区、市统计局、藏医院对面七天酒店及周边商业、拉鲁桥斜对面宜尚酒店及周边商业、自治区人民出版社、自治区佛协、自治区人民检察院、自治区政协、汽车五队小区（周转房2、4栋、北区2、3、5、6、9、12、13、26、27栋，南区6栋）、市环境保护局生活区、明圣酒店及周边商业、自治区畜牧总站生活区、二号院、二号院巷道散户、中国石油交通加油站及周边商业、六号公馆、西藏岷山饭店、千禧会所、雅美生态家园、自治区实验幼儿园、住建厅北侧大楼、康桑苑、幸福新村一组、拉萨市建设局四建司退休工人基地、自治区检察院退休基地、自治区林业厅退休基地、曲米路自治区统战部退休基地、赵氏出租房、中国人民银行拉萨中心支行职工住宅区、区政府二基地、自治区实验幼儿园生活区）"}},{"type":"Feature","geometry":{"type":"Point","coordinates":[91.127477,29.661292]},"properties":{"full_address":"西藏自治区拉萨市城关区扎细街道团结新村社区（除拉萨市第三小学、拉萨市规划设计院、自治区国资委、自治区藏医院、自治区疾控中心、阜康医院住院部、纳木措宾馆、自治区设计院、农投商贸有限公司、香嘎小区、北郊自来水厂、幸福苑、林廓北路19号国家电网、那曲办事处、政府第三退休基地、自治区地震局及生活区、自治区国资委退休基地、西藏雪域天堂大酒店、团结新村社区东区、南三区）"}},{"type":"Feature","geometry":{"type":"Point","coordinates":[91.134077,29.667659]},"properties":{"full_address":"西藏自治区拉萨市城关区扎细街道扎细社区（除自治区水利厅、机修厂、军械厂、扎细社区合作社、自治区司法医院、自治区税务周转房、自治区民宗委退休基地、西藏日报社新闻苑、司法厅退休基地、扎基寺，自治区监狱退休基地，咖啡之翼（烟草周转房、农行北郊支行、自治区公积金管理中心），羊湖集团出租房、宏盛二期、自治区矿业发展总公司机修厂退休基地、自治区水利厅退休基地、夺底路53号、夺底路49号）"}},{"type":"Feature","geometry":{"type":"Point","coordinates":[91.057399,29.660478]},"properties":{"full_address":"西藏自治区拉萨市城关区金珠西路街道当巴社区（除北京西路39号西藏自治区烟草公司拉萨市公司、经信厅、文君苑十区、简约公寓、顺通小区、窝家大院、玄鹤公寓、崔宗华出租房、阮氏公寓、志华出租房、鹏曦公寓、德布出租房、文君苑9区、勇耀公寓、西藏自治区人力资源与社会保障厅、人大退休基地、西藏自治区交通综合执法总队、广电032台、镖局集团、拉鲁湿地管理局、天成矿业片区、鲁定小区、青藏公路退休基地、丽都片区、荣信片区、安禾之家、交通安居苑、顺通城市花园、协和片区、电杆厂、吉日仓库、吉日商贸、哲蚌寺集体经济地、地勘实验中心、雷达团、展览馆退休基地、美朵林卡小区、九州片区、人保退休基地、天顺小区、尼威小区、蓝天路云沃庄园（乌孜林片区）、兴悦公寓片区、当巴社区居民三组（沿街商铺）、西苑、当巴四组南面吉日山脚居民四组（那曲建设安居苑）、苹果苑小区、宏发西城安居苑、海关退休基地片区、变电站工地、变电站周转房、新概念汽修片区）"}},{"type":"Feature","geometry":{"type":"Point","coordinates":[91.178559,29.661954]},"properties":{"full_address":"西藏自治区拉萨市城关区纳金街道纳如社区（除未来城小区、城关花园D区、城祥苑、纳如社区安全厅训练基地、纳如社区城投垃圾转运站、纳如社区钢管厂、拉萨市林草局、东城一品、江苏援藏指挥部、纳如老木材市场、纳如社区宏发汽车检测中心、纳如社区奇正藏药用地、纳如综合楼、乐居苑、城关花园F区、乐业苑、尼盛峰誉小区、尼霞苑A区、德仁出租房，西藏嘎玛物流，纳如社区居委会，嘎吉六区，天峰祥和苑（除4栋2单元、5栋1单元、3栋1单元），城投14号地、拉萨碧桂园）"}},{"type":"Feature","geometry":{"type":"Point","coordinates":[91.051117,29.637032]},"properties":{"full_address":"西藏自治区拉萨市城关区金珠西路街道八一社区（除格桑美域小区、世邦城市花园小区、金藏林卡小区、藏游坛城、春天花园小区、解甲园小区、鲲祥苑、八一农场小区、世邦金色时代、城发商厦、鲲泰建设大厦、平安小区、金典大厦、自治区商务厅、红十字会、八一校、老刘出租房、云水谣、城发大厦、当巴小学、城投大厦、藏药博物馆、八一菜市场、厚兰医院、林草局、应急救援中心、自治区农行、拉萨印象、国际花园、藏大西苑、自治区高法、自治区人力资源市场管理服务中心、马蓉出租房、岗培中心、一建司、岗旋出租房、中兴加油站、圣城锦苑、城西交警支队、国家开发银行西藏自治区分行、金珠西路派出所、民航退休基地、农垦大厦、中国邮政储蓄银行（拉萨支行）、中国建设银行金珠西路支行、金珠花苑、西藏职业技术学院、城西旅社出租房、哈达滨河花园西区（除二排四栋16、17单元、三排二栋6单元、三排三栋11单元、四排一栋1、2单元、四排二栋活动中心外）、哈达滨河花园东区（除一排一栋2、3单元、四排二栋1、5单元、临街一栋2、3单元、商业楼外）、北京现代西藏万融专营店、环水新村、湘辉公寓、东翔公寓、西粮公寓、哈达滨河花园（除东区4排2栋5单元，西区4排1栋1、2单元，4排2栋活动中心）、商业区（矿业小区外围商户））"}},{"type":"Feature","geometry":{"type":"Point","coordinates":[91.13227,29.668685]},"properties":{"full_address":"西藏自治区拉萨市城关区扎细街道扎细新村社区（除娘热路农行、区直工委退休基地、边防小区、拉萨市城市管理局、中央粮食储备库、自治区运管局、国网拉萨供电公司、拉萨市养护处、科技厅生活区、政府一号退休基地、国网西藏超高压公司、一江两河退休基地、城北工商、拉萨市净土、圣美家超市、哈达购物广场、北郊客运站，象雄小区，自治区政法委，自治区组发退休基地，羊八井地热发电公司及退休基地，藏医药大学及附属学院，邓小林出租房，自治区市场监督管理局生活区，设计院生活小区，拉萨市图书馆，藏胞接待办，永丰出租屋，扶贫办退休基地，公安厅退休基地，农牧厅散户，农牧厅退休基地，农牧学院退休基地，粮食局退休基地，畜科所安居小区，游乐园幼儿园，地面卫星站，王恩强出租房，国平公寓1、2号，天海家具市场，第十安居住宅小区，电建小区，市疾控中心及生活区，天路康桑，顺心小区，邮政小区、甘露大厦、五洲医院、万兴公寓、国平公寓3号、志远公寓、哈达幸福花园三区、吉祥花园A区、杜勇公寓）"}},{"type":"Feature","geometry":{"type":"Point","coordinates":[91.133779,29.679983]},"properties":{"full_address":"西藏自治区拉萨市城关区娘热街道慈松塘社区（除惠华公寓、达杰园林、慈松塘扶贫出租房、山河堂、新华印刷厂、水上公园、自治区残疾人康复中心、自治区游泳馆、顺通公司、师范附小、城北消防大队、矿业发展总公司、西藏自治区广播电视局031台、西藏自治区地勘局第二地质大队、西藏自治区工业物资运销公司退休基地、色拉北路37号、沃诺仓大厦、顺通小区、巴尔库大厦、城北暖心公司、矿业生活小区、拉萨市环卫局、顺通大厦、自治区体校、拉萨院子、西藏东红农机销售有限公司、国税局生活基地、康缘小区、赛马场、西藏地勘局北郊退休安居苑、市安居公安局小区、园林小区、拉萨地质花园小区、娘热北路新华苑、西藏自治区第三建筑公司住宅小区、圣城丽都苑、慈松塘小区、拉萨市房地产总公司第三期城北安居园、奇正家园、康德林小区、雪域明珠园、教师新村）"}},{"type":"Feature","geometry":{"type":"Point","coordinates":[91.134077,29.667659]},"properties":{"full_address":"西藏自治区拉萨市城关区扎细街道雄嘎社区（除自治区乡村振兴局、自治区外事办、童嘎语言学校、拉萨市人社局、自治区电力科学研究院、拉萨支队生活区、众创空间、自治区银监局、拉萨市禁毒支队、一号网格二组、藏家宴、高原宾馆、琅赛青年公寓、雄嘎三组居民区、阳光海岸、外事办退休基地、雄嘎一组居民区、自治区水土保持局、光明出租房，城关区地毯厂，雄嘎二号网格二组，扎西满斋小区，通源小区，自治区社会科学院，林廓北路8号，拉萨市实验小区，电影花园小区，农机公司（西农集团拉萨分公司），雄嘎九、十组、夺底南路25号水电设计院小区、虫草大厦后农行职工宿舍）"}},{"type":"Feature","geometry":{"type":"Point","coordinates":[91.122576,29.680664]},"properties":{"full_address":"西藏自治区拉萨市城关区娘热街道仁钦蔡村（除三机站、曲米路公园、西藏民族大学教学实践基地、江苏中学、山南老干部活动中心、吐蕃大酒店、疆觉曲美林卡、曲米康桑小区、中国西藏广播电影藏语节目译制中心、体工队、强桑出租房、阿里地区行署驻拉萨办事处、城北交警大队、扶贫汽修厂、交警大队旁出租房（马宝川出租房、红宝林出租房、曲洋出租房、东侧出租房）、那曲退休基地、杨威出租房、自治区藏医院制剂室（藏药厂）、喜马拉雅登山向导学校、工商联小区、娘热乡派出所（娘热中路13号）、自治区广播电影电视局031台、曲米路三十六号小区、同舟苑、雍忠城北综合市场、汇源汽修厂、宜家乐公寓、光明幼儿园、渝鹏出租房、桑海小区、拉东库、电力小区（除8栋3单元、1栋3单元、5栋4单元）、宏盛一期小区（除C、D区，3单元）、阿里退休基地（除一区、五区、六区、十四区、服务站东区、公寓楼79号院）、仁钦蔡2组仓库群、日喀则办事处、嘎吉康萨2期）"}},{"type":"Feature","geometry":{"type":"Point","coordinates":[91.152596,29.671034]},"properties":{"full_address":"西藏自治区拉萨市城关区纳金街道加荣社区（除自治区宣教中心、加荣社区居委会、琅赛四区、琅赛八区、琅赛三区、气象阳光苑、天路车队北侧、藏热北路门面及自建房、当热北路门面及自建房、德吉康居园（除1至15栋）、琅赛六区、琅赛五区、加荣路加荣村巴桑出租房、加荣路加荣村琅赛六区外围自建门面）"}},{"type":"Feature","geometry":{"type":"Point","coordinates":[108.940238,34.248963]},"properties":{"full_address":"陕西省西安市碑林区长安路街道朱北社区大学东路22号院（除1号楼）"}},{"type":"Feature","geometry":{"type":"Point","coordinates":[108.947932,34.28525]},"properties":{"full_address":"陕西省西安市莲湖区北关街道北稍门东社区北关正街41号院（除三联大厦）"}},{"type":"Feature","geometry":{"type":"Point","coordinates":[108.946168,34.262667]},"properties":{"full_address":"陕西省西安市莲湖区北院门街道社会路社区宏府嘉会B座405、406室"}},{"type":"Feature","geometry":{"type":"Point","coordinates":[108.846227,34.283286]},"properties":{"full_address":"陕西省西安市未央区草滩街道草一社区雅荷盛世名城小区3号楼"}},{"type":"Feature","geometry":{"type":"Point","coordinates":[108.949336,34.205364]},"properties":{"full_address":"陕西省西安市雁塔区长延堡街道师大路1号家属院6号楼"}},{"type":"Feature","geometry":{"type":"Point","coordinates":[108.887502,34.22302]},"properties":{"full_address":"陕西省西安市西咸新区空港新城底张街道绿地国宝21城2期"}},{"type":"Feature","geometry":{"type":"Point","coordinates":[109.001625,34.387513]},"properties":{"full_address":"陕西省西安市浐灞生态区湿地产业园华远辰悦东区（除11号楼）"}},{"type":"Feature","geometry":{"type":"Point","coordinates":[107.756281,34.268344]},"properties":{"full_address":"陕西省宝鸡市眉县首善镇昌隆路以西，群众路以东，美阳街以南，金地广场步行街以北合围区域（不含眉县安达汽车站及附属门市、金盛元宾馆）"}},{"type":"Feature","geometry":{"type":"Point","coordinates":[107.752938,34.274784]},"properties":{"full_address":"陕西省宝鸡市眉县首善镇荣华路明润物流园金老四手抓羊肉店"}},{"type":"Feature","geometry":{"type":"Point","coordinates":[107.755678,34.264359]},"properties":{"full_address":"陕西省宝鸡市眉县首善街办经典庄园小区（除9号楼）"}},{"type":"Feature","geometry":{"type":"Point","coordinates":[107.751963,34.272344]},"properties":{"full_address":"陕西省宝鸡市眉县首善街办二道巷中国黄金店"}},{"type":"Feature","geometry":{"type":"Point","coordinates":[107.751171,34.272855]},"properties":{"full_address":"陕西省宝鸡市眉县首善街办金谷世界城"}},{"type":"Feature","geometry":{"type":"Point","coordinates":[107.964964,34.194171]},"properties":{"full_address":"陕西省宝鸡市眉县首善街办二道巷饮食市场"}},{"type":"Feature","geometry":{"type":"Point","coordinates":[108.722057,34.357404]},"properties":{"full_address":"陕西省咸阳市渭城区纬中路以西、杜家堡路以北、新兴北路以东、文林路以南区域[不含中铁二十局基地家属院（东西院）、美林佳苑、咸阳市第一军干所等3个小区]"}},{"type":"Feature","geometry":{"type":"Point","coordinates":[108.240493,34.523349]},"properties":{"full_address":"陕西省咸阳市乾县城关镇南大街习鑫镶牙所"}},{"type":"Feature","geometry":{"type":"Point","coordinates":[108.248965,34.53111]},"properties":{"full_address":"陕西省咸阳市乾县城关镇大市场商贸街"}},{"type":"Feature","geometry":{"type":"Point","coordinates":[108.225374,34.607247]},"properties":{"full_address":"陕西省咸阳市乾县阳洪镇街道312国道以北、镇政府以南东西沿街楼栋"}},{"type":"Feature","geometry":{"type":"Point","coordinates":[109.654972,34.898613]},"properties":{"full_address":"陕西省渭南市蒲城县紫荆街道办韩家村（不包括1组、2组）"}},{"type":"Feature","geometry":{"type":"Point","coordinates":[109.609977,34.887815]},"properties":{"full_address":"陕西省渭南市蒲城县陈庄镇派出所北邻蒙家羊肉馆"}},{"type":"Feature","geometry":{"type":"Point","coordinates":[109.608493,34.897835]},"properties":{"full_address":"陕西省渭南市蒲城县陈庄镇世豪饭店"}},{"type":"Feature","geometry":{"type":"Point","coordinates":[109.581262,34.960351]},"properties":{"full_address":"陕西省渭南市蒲城县尧山路和青年路十字口Happy Time运动休闲娱乐广场"}},{"type":"Feature","geometry":{"type":"Point","coordinates":[110.405093,35.377286]},"properties":{"full_address":"陕西省渭南市韩城市芝川镇论功村一、二组（马陵自然村）"}},{"type":"Feature","geometry":{"type":"Point","coordinates":[110.14555,34.088069]},"properties":{"full_address":"陕西省商洛市洛南县城关街道办事处西新街与华阳路交叉路口东南角安旗蛋糕店"}},{"type":"Feature","geometry":{"type":"Point","coordinates":[110.154998,34.089952]},"properties":{"full_address":"陕西省商洛市洛南县城关街道办事处中甫街与东新街交叉十字西南角千里香馄饨店"}},{"type":"Feature","geometry":{"type":"Point","coordinates":[110.159563,34.0959]},"properties":{"full_address":"陕西省商洛市洛南县城关街道办事处黄洛路北侧东郊汽修厂西隔壁微笑盈小吃店"}},{"type":"Feature","geometry":{"type":"Point","coordinates":[109.933159,33.866333]},"properties":{"full_address":"陕西省商洛市洛南县城关街道办事处刘涧社区信合小区除一单元之外的其他区域"}},{"type":"Feature","geometry":{"type":"Point","coordinates":[109.715631,33.602952]},"properties":{"full_address":"陕西省商洛市山阳县小河口镇东坪村张家湾组"}},{"type":"Feature","geometry":{"type":"Point","coordinates":[109.715631,33.602952]},"properties":{"full_address":"陕西省商洛市山阳县小河口镇东坪村西沟口组"}},{"type":"Feature","geometry":{"type":"Point","coordinates":[109.720434,33.650966]},"properties":{"full_address":"陕西省商洛市山阳县小河口镇刘家街村卫家湾组"}},{"type":"Feature","geometry":{"type":"Point","coordinates":[109.720434,33.650966]},"properties":{"full_address":"陕西省商洛市山阳县小河口镇刘家街村刘家街组"}},{"type":"Feature","geometry":{"type":"Point","coordinates":[109.74474,33.497621]},"properties":{"full_address":"陕西省商洛市山阳县色河铺镇赵垣村白岩组"}},{"type":"Feature","geometry":{"type":"Point","coordinates":[104.120582,36.543917]},"properties":{"full_address":"甘肃省白银市白银区京怡家园4号楼"}},{"type":"Feature","geometry":{"type":"Point","coordinates":[104.175013,36.523645]},"properties":{"full_address":"甘肃省白银市白银区王岘小区除27号楼以外区域"}},{"type":"Feature","geometry":{"type":"Point","coordinates":[104.038101,37.412271]},"properties":{"full_address":"甘肃省白银市白银区八方土蔬菜粮油店"}},{"type":"Feature","geometry":{"type":"Point","coordinates":[104.992558,37.01016]},"properties":{"full_address":"甘肃省白银市靖远县东升镇唐庄村"}},{"type":"Feature","geometry":{"type":"Point","coordinates":[104.979752,37.017239]},"properties":{"full_address":"甘肃省白银市靖远县东升镇东兴村"}},{"type":"Feature","geometry":{"type":"Point","coordinates":[105.035182,36.986949]},"properties":{"full_address":"甘肃省白银市靖远县东升镇柴辛村全域"}},{"type":"Feature","geometry":{"type":"Point","coordinates":[94.915586,36.406731]},"properties":{"full_address":"青海省海西蒙古族藏族自治州格尔木市星龙小区一期片区（江源路以东、金峰路以南、泰山路以西、八一路以北，除星龙大厦）"}},{"type":"Feature","geometry":{"type":"Point","coordinates":[94.916697,36.404523]},"properties":{"full_address":"青海省海西蒙古族藏族自治州格尔木市江河龙市场片区（通宁路以东、八一路以南、泰山路以西、建兴巷以北，除泰山路加油站）"}},{"type":"Feature","geometry":{"type":"Point","coordinates":[94.915916,36.406521]},"properties":{"full_address":"青海省海西蒙古族藏族自治州格尔木市星龙小区二期"}},{"type":"Feature","geometry":{"type":"Point","coordinates":[94.915684,36.403264]},"properties":{"full_address":"青海省海西蒙古族藏族自治州格尔木市宁靓小区及沿街商铺"}},{"type":"Feature","geometry":{"type":"Point","coordinates":[106.13646,38.47528]},"properties":{"full_address":"宁夏回族自治区银川市西夏区和佳居小区南区（1、2号居民楼）"}},{"type":"Feature","geometry":{"type":"Point","coordinates":[106.194163,37.978648]},"properties":{"full_address":"宁夏回族自治区吴忠市利通区上桥镇福宁苑小区"}},{"type":"Feature","geometry":{"type":"Point","coordinates":[106.270155,37.949595]},"properties":{"full_address":"宁夏回族自治区吴忠市利通区金银滩镇东沟湾村"}},{"type":"Feature","geometry":{"type":"Point","coordinates":[106.272418,37.912393]},"properties":{"full_address":"宁夏回族自治区吴忠市利通区金银滩镇良繁场"}},{"type":"Feature","geometry":{"type":"Point","coordinates":[106.201871,37.983304]},"properties":{"full_address":"宁夏回族自治区吴忠市利通区金银滩镇新渠小区"}},{"type":"Feature","geometry":{"type":"Point","coordinates":[106.271703,37.815511]},"properties":{"full_address":"宁夏回族自治区吴忠市利通区扁担沟镇渠口村"}},{"type":"Feature","geometry":{"type":"Point","coordinates":[106.141949,37.973474]},"properties":{"full_address":"宁夏回族自治区吴忠市利通区板桥乡洼渠村"}},{"type":"Feature","geometry":{"type":"Point","coordinates":[106.165739,37.956396]},"properties":{"full_address":"宁夏回族自治区吴忠市利通区板桥乡观湖名邸小区"}},{"type":"Feature","geometry":{"type":"Point","coordinates":[106.186435,37.993872]},"properties":{"full_address":"宁夏回族自治区吴忠市利通区古城镇滨河新村"}},{"type":"Feature","geometry":{"type":"Point","coordinates":[106.162058,38.000363]},"properties":{"full_address":"宁夏回族自治区吴忠市利通区古城镇恒大名都"}},{"type":"Feature","geometry":{"type":"Point","coordinates":[106.188024,37.989808]},"properties":{"full_address":"宁夏回族自治区吴忠市利通区金星镇状元府"}},{"type":"Feature","geometry":{"type":"Point","coordinates":[106.202301,37.981412]},"properties":{"full_address":"宁夏回族自治区吴忠市利通区胜利镇朝阳小区"}},{"type":"Feature","geometry":{"type":"Point","coordinates":[106.28888,37.483812]},"properties":{"full_address":"宁夏回族自治区吴忠市红寺堡区柳泉乡豹子滩村"}},{"type":"Feature","geometry":{"type":"Point","coordinates":[106.166878,37.263361]},"properties":{"full_address":"宁夏回族自治区吴忠市红寺堡区新庄集乡洪沟滩村"}},{"type":"Feature","geometry":{"type":"Point","coordinates":[106.07213,38.019166]},"properties":{"full_address":"宁夏回族自治区吴忠市青铜峡市裕民街道光明小区"}},{"type":"Feature","geometry":{"type":"Point","coordinates":[106.085969,38.013031]},"properties":{"full_address":"宁夏回族自治区吴忠市青铜峡市裕民街道龙海花园小区"}},{"type":"Feature","geometry":{"type":"Point","coordinates":[106.101379,38.012355]},"properties":{"full_address":"宁夏回族自治区吴忠市青铜峡市裕民街道东港华庭小区"}},{"type":"Feature","geometry":{"type":"Point","coordinates":[106.163955,38.061703]},"properties":{"full_address":"宁夏回族自治区吴忠市青铜峡市陈袁滩镇沙坝湾村"}},{"type":"Feature","geometry":{"type":"Point","coordinates":[105.401655,37.470609]},"properties":{"full_address":"宁夏回族自治区中卫市沙坡头区宣和镇羚羊村"}},{"type":"Feature","geometry":{"type":"Point","coordinates":[105.449046,37.421036]},"properties":{"full_address":"宁夏回族自治区中卫市沙坡头区宣和镇丹阳村"}},{"type":"Feature","geometry":{"type":"Point","coordinates":[105.386071,37.418673]},"properties":{"full_address":"宁夏回族自治区中卫市沙坡头区宣和镇兴海村"}},{"type":"Feature","geometry":{"type":"Point","coordinates":[105.52243,37.488342]},"properties":{"full_address":"宁夏回族自治区中卫市沙坡头区宣和镇马滩村"}},{"type":"Feature","geometry":{"type":"Point","coordinates":[105.601733,37.487525]},"properties":{"full_address":"宁夏回族自治区中卫市中宁县舟塔乡孔滩村"}},{"type":"Feature","geometry":{"type":"Point","coordinates":[105.717467,37.499618]},"properties":{"full_address":"宁夏回族自治区中卫市中宁县宁安镇东华村"}},{"type":"Feature","geometry":{"type":"Point","coordinates":[105.6781,37.482849]},"properties":{"full_address":"宁夏回族自治区中卫市中宁县宁安镇绿苑小区"}},{"type":"Feature","geometry":{"type":"Point","coordinates":[105.675012,37.484531]},"properties":{"full_address":"宁夏回族自治区中卫市中宁县宁安镇朱营小康村"}},{"type":"Feature","geometry":{"type":"Point","coordinates":[105.672244,37.483178]},"properties":{"full_address":"宁夏回族自治区中卫市中宁县宁安镇朱营社区"}},{"type":"Feature","geometry":{"type":"Point","coordinates":[105.627146,37.486211]},"properties":{"full_address":"宁夏回族自治区中卫市中宁县舟塔乡靳崖村"}},{"type":"Feature","geometry":{"type":"Point","coordinates":[105.615331,37.502107]},"properties":{"full_address":"宁夏回族自治区中卫市中宁县舟塔乡田滩村"}},{"type":"Feature","geometry":{"type":"Point","coordinates":[105.808936,37.51293]},"properties":{"full_address":"宁夏回族自治区中卫市中宁县恩和镇朱台村"}},{"type":"Feature","geometry":{"type":"Point","coordinates":[105.804797,37.602389]},"properties":{"full_address":"宁夏回族自治区中卫市中宁县石空镇高山寺村"}},{"type":"Feature","geometry":{"type":"Point","coordinates":[105.667861,37.488796]},"properties":{"full_address":"宁夏回族自治区中卫市中宁县宁安镇北街农业银行综合楼"}},{"type":"Feature","geometry":{"type":"Point","coordinates":[105.65213,37.460381]},"properties":{"full_address":"宁夏回族自治区中卫市中宁县宁安镇古城村"}},{"type":"Feature","geometry":{"type":"Point","coordinates":[105.68921,37.492146]},"properties":{"full_address":"宁夏回族自治区中卫市中宁县宁安镇红宝平安家园"}},{"type":"Feature","geometry":{"type":"Point","coordinates":[105.658444,37.504977]},"properties":{"full_address":"宁夏回族自治区中卫市中宁县宁安镇黄滨新居"}},{"type":"Feature","geometry":{"type":"Point","coordinates":[105.672386,37.495212]},"properties":{"full_address":"宁夏回族自治区中卫市中宁县宁安镇水文小区"}},{"type":"Feature","geometry":{"type":"Point","coordinates":[105.680874,37.50134]},"properties":{"full_address":"宁夏回族自治区中卫市中宁县宁安镇殷庄村"}},{"type":"Feature","geometry":{"type":"Point","coordinates":[105.671585,37.497886]},"properties":{"full_address":"宁夏回族自治区中卫市中宁县宁安镇永寿堂快捷宾馆"}},{"type":"Feature","geometry":{"type":"Point","coordinates":[105.68014,37.492631]},"properties":{"full_address":"宁夏回族自治区中卫市中宁县宁安镇育才东苑"}},{"type":"Feature","geometry":{"type":"Point","coordinates":[105.700546,37.494622]},"properties":{"full_address":"宁夏回族自治区中卫市中宁县宁安镇洼路村"}},{"type":"Feature","geometry":{"type":"Point","coordinates":[105.783877,37.504642]},"properties":{"full_address":"宁夏回族自治区中卫市中宁县恩和镇刘桥村"}},{"type":"Feature","geometry":{"type":"Point","coordinates":[105.755687,37.487569]},"properties":{"full_address":"宁夏回族自治区中卫市中宁县恩和镇秦庄村"}},{"type":"Feature","geometry":{"type":"Point","coordinates":[105.590228,37.447552]},"properties":{"full_address":"宁夏回族自治区中卫市中宁县舟塔乡轿子山林场"}},{"type":"Feature","geometry":{"type":"Point","coordinates":[105.896248,37.580879]},"properties":{"full_address":"宁夏回族自治区中卫市中宁县鸣沙镇五道渠村"}},{"type":"Feature","geometry":{"type":"Point","coordinates":[105.845977,37.56297]},"properties":{"full_address":"宁夏回族自治区中卫市中宁县鸣沙镇长鸣村"}},{"type":"Feature","geometry":{"type":"Point","coordinates":[105.681297,37.487522]},"properties":{"full_address":"宁夏回族自治区中卫市中宁县宁安镇育才南苑"}},{"type":"Feature","geometry":{"type":"Point","coordinates":[105.668164,37.510277]},"properties":{"full_address":"宁夏回族自治区中卫市中宁县中瀛御景A区"}},{"type":"Feature","geometry":{"type":"Point","coordinates":[105.553785,37.386658]},"properties":{"full_address":"宁夏回族自治区中卫市中宁县大战场镇元丰村"}},{"type":"Feature","geometry":{"type":"Point","coordinates":[105.705118,37.562355]},"properties":{"full_address":"宁夏回族自治区中卫市中宁县石空镇新桥村"}},{"type":"Feature","geometry":{"type":"Point","coordinates":[105.69272,37.49068]},"properties":{"full_address":"宁夏回族自治区中卫市中宁县宁安镇红宝花园"}},{"type":"Feature","geometry":{"type":"Point","coordinates":[105.676551,37.485401]},"properties":{"full_address":"宁夏回族自治区中卫市中宁县宁安镇开元新居"}},{"type":"Feature","geometry":{"type":"Point","coordinates":[105.608169,37.352365]},"properties":{"full_address":"宁夏回族自治区中卫市中宁县大战场镇长山头村"}},{"type":"Feature","geometry":{"type":"Point","coordinates":[105.680442,37.483691]},"properties":{"full_address":"宁夏回族自治区中卫市中宁县宁安镇县人民医院家属院"}},{"type":"Feature","geometry":{"type":"Point","coordinates":[105.658033,37.51781]},"properties":{"full_address":"宁夏回族自治区中卫市中宁县宁安镇枸杞交易中心"}},{"type":"Feature","geometry":{"type":"Point","coordinates":[105.661589,37.512805]},"properties":{"full_address":"宁夏回族自治区中卫市中宁县宁安镇枸杞加工城"}},{"type":"Feature","geometry":{"type":"Point","coordinates":[105.6603,37.519288]},"properties":{"full_address":"宁夏回族自治区中卫市中宁县宁安镇江景公寓"}},{"type":"Feature","geometry":{"type":"Point","coordinates":[105.67733,37.497104]},"properties":{"full_address":"宁夏回族自治区中卫市中宁县宁安镇县枸杞花园西苑"}},{"type":"Feature","geometry":{"type":"Point","coordinates":[105.669661,37.485647]},"properties":{"full_address":"宁夏回族自治区中卫市中宁县宁安镇天仁六区"}},{"type":"Feature","geometry":{"type":"Point","coordinates":[105.673973,37.491611]},"properties":{"full_address":"宁夏回族自治区中卫市中宁县中医院"}},{"type":"Feature","geometry":{"type":"Point","coordinates":[105.68675,37.480698]},"properties":{"full_address":"宁夏回族自治区中卫市中宁县新堡镇世芳豪庭"}},{"type":"Feature","geometry":{"type":"Point","coordinates":[105.690388,37.474277]},"properties":{"full_address":"宁夏回族自治区中卫市中宁县新堡镇大唐金宸"}},{"type":"Feature","geometry":{"type":"Point","coordinates":[106.164649,36.573119]},"properties":{"full_address":"宁夏回族自治区中卫市海原县七营镇高崖村"}},{"type":"Feature","geometry":{"type":"Point","coordinates":[106.143727,36.473404]},"properties":{"full_address":"宁夏回族自治区中卫市海原县七营镇马莲村"}},{"type":"Feature","geometry":{"type":"Point","coordinates":[87.647385,43.763741]},"properties":{"full_address":"新疆维吾尔自治区乌鲁木齐市天山区延安路街道西域轻工社区"}},{"type":"Feature","geometry":{"type":"Point","coordinates":[87.613959,43.779373]},"properties":{"full_address":"新疆维吾尔自治区乌鲁木齐市天山区二道桥街道福寿巷社区除民政厅家属院、经贸厅家属院其他区域"}},{"type":"Feature","geometry":{"type":"Point","coordinates":[87.650056,43.763139]},"properties":{"full_address":"新疆维吾尔自治区乌鲁木齐市天山区红雁街道东大梁社区东大梁和顺三期C区、D区"}},{"type":"Feature","geometry":{"type":"Point","coordinates":[87.627979,43.778191]},"properties":{"full_address":"新疆维吾尔自治区乌鲁木齐市天山区团结路街道后泉路社区后泉路170号家属院"}},{"type":"Feature","geometry":{"type":"Point","coordinates":[87.631479,43.771346]},"properties":{"full_address":"新疆维吾尔自治区乌鲁木齐市天山区南湾街街道波斯坦巷社区波斯坦巷145号波斯坦小区"}},{"type":"Feature","geometry":{"type":"Point","coordinates":[87.61941,43.77687]},"properties":{"full_address":"新疆维吾尔自治区乌鲁木齐市天山区团结路街道团结社区团结路410号十九小家属院"}},{"type":"Feature","geometry":{"type":"Point","coordinates":[87.62019,43.788334]},"properties":{"full_address":"新疆维吾尔自治区乌鲁木齐市天山区解放南路街道建中社区建中路87号高层宝亨商务港"}},{"type":"Feature","geometry":{"type":"Point","coordinates":[87.64333,43.8106]},"properties":{"full_address":"新疆维吾尔自治区乌鲁木齐市天山区碱泉街道青年路东社区青年路北二巷2号优诗美地二期"}},{"type":"Feature","geometry":{"type":"Point","coordinates":[87.637712,43.785507]},"properties":{"full_address":"新疆维吾尔自治区乌鲁木齐市天山区和平路街道康泰社区除高风险外其他区域"}},{"type":"Feature","geometry":{"type":"Point","coordinates":[87.61895,43.78524]},"properties":{"full_address":"新疆维吾尔自治区乌鲁木齐市天山区大巴扎街道新市路南社区除高风险外其他区域"}},{"type":"Feature","geometry":{"type":"Point","coordinates":[87.624723,43.784527]},"properties":{"full_address":"新疆维吾尔自治区乌鲁木齐市天山区二道桥街道药王庙社区除高风险外其他区域"}},{"type":"Feature","geometry":{"type":"Point","coordinates":[87.621217,43.784783]},"properties":{"full_address":"新疆维吾尔自治区乌鲁木齐市天山区二道桥街道二道桥社区除高风险外其他区域"}},{"type":"Feature","geometry":{"type":"Point","coordinates":[87.610586,43.775405]},"properties":{"full_address":"新疆维吾尔自治区乌鲁木齐市天山区新华南街道团结西路社区除高风险外其他区域"}},{"type":"Feature","geometry":{"type":"Point","coordinates":[87.639319,43.773653]},"properties":{"full_address":"新疆维吾尔自治区乌鲁木齐市天山区黑甲山街道富康街社区除高风险外其他区域"}},{"type":"Feature","geometry":{"type":"Point","coordinates":[87.647426,43.763734]},"properties":{"full_address":"新疆维吾尔自治区乌鲁木齐市天山区延安路街道中湾街南社区除高风险外其他区域"}},{"type":"Feature","geometry":{"type":"Point","coordinates":[87.6127,43.772384]},"properties":{"full_address":"新疆维吾尔自治区乌鲁木齐市天山区胜利路街道河坝社区除高风险外其他区域"}},{"type":"Feature","geometry":{"type":"Point","coordinates":[87.622448,43.769352]},"properties":{"full_address":"新疆维吾尔自治区乌鲁木齐市天山区胜利路街道新东街社区除高风险外其他区域"}},{"type":"Feature","geometry":{"type":"Point","coordinates":[87.634995,43.769478]},"properties":{"full_address":"新疆维吾尔自治区乌鲁木齐市天山区南湾街街道昌乐园社区除高风险外其他区域"}},{"type":"Feature","geometry":{"type":"Point","coordinates":[87.641103,43.75232]},"properties":{"full_address":"新疆维吾尔自治区乌鲁木齐市天山区大湾街道延安东路社区除高风险外其他区域"}},{"type":"Feature","geometry":{"type":"Point","coordinates":[87.620805,43.780361]},"properties":{"full_address":"新疆维吾尔自治区乌鲁木齐市天山区二道桥街道固原巷社区除高风险外其他区域"}},{"type":"Feature","geometry":{"type":"Point","coordinates":[87.654522,43.770705]},"properties":{"full_address":"新疆维吾尔自治区乌鲁木齐市天山区延安路街道富北社区除高风险外其他区域"}},{"type":"Feature","geometry":{"type":"Point","coordinates":[87.613296,43.771345]},"properties":{"full_address":"新疆维吾尔自治区乌鲁木齐市天山区胜利路街道南梁社区除高风险外其他区域"}},{"type":"Feature","geometry":{"type":"Point","coordinates":[87.620378,43.765391]},"properties":{"full_address":"新疆维吾尔自治区乌鲁木齐市天山区胜利路街道新大社区除高风险外其他区域"}},{"type":"Feature","geometry":{"type":"Point","coordinates":[87.594788,43.771563]},"properties":{"full_address":"新疆维吾尔自治区乌鲁木齐市沙依巴克区炉院街街道炉院街社区金粮源小区"}},{"type":"Feature","geometry":{"type":"Point","coordinates":[87.601278,43.79925]},"properties":{"full_address":"新疆维吾尔自治区乌鲁木齐市沙依巴克区扬子江街道新华社区公园北街19号新华印刷厂家属院"}},{"type":"Feature","geometry":{"type":"Point","coordinates":[87.553708,43.826311]},"properties":{"full_address":"新疆维吾尔自治区乌鲁木齐市沙依巴克区平顶山街道克西路社区宜品家春秋小区"}},{"type":"Feature","geometry":{"type":"Point","coordinates":[87.57585,43.8561]},"properties":{"full_address":"新疆维吾尔自治区乌鲁木齐市新市区鲤鱼山街道野马生态园"}},{"type":"Feature","geometry":{"type":"Point","coordinates":[87.594755,43.912997]},"properties":{"full_address":"新疆维吾尔自治区乌鲁木齐市新市区正扬路街道冬融街社区"}},{"type":"Feature","geometry":{"type":"Point","coordinates":[87.592215,43.937276]},"properties":{"full_address":"新疆维吾尔自治区乌鲁木齐市新市区正扬路街道正扬社区"}},{"type":"Feature","geometry":{"type":"Point","coordinates":[87.603421,43.834497]},"properties":{"full_address":"新疆维吾尔自治区乌鲁木齐市新市区正扬路街道东站北社区"}},{"type":"Feature","geometry":{"type":"Point","coordinates":[87.589997,43.969079]},"properties":{"full_address":"新疆维吾尔自治区乌鲁木齐市新市区正扬路街道金藤社区"}},{"type":"Feature","geometry":{"type":"Point","coordinates":[87.591861,43.919315]},"properties":{"full_address":"新疆维吾尔自治区乌鲁木齐市新市区正扬路街道抚顺街社区"}},{"type":"Feature","geometry":{"type":"Point","coordinates":[87.592162,43.900988]},"properties":{"full_address":"新疆维吾尔自治区乌鲁木齐市新市区北京路以东、长春中路以西、喀什路以北、上沙河路以南区域"}},{"type":"Feature","geometry":{"type":"Point","coordinates":[87.594736,43.841307]},"properties":{"full_address":"新疆维吾尔自治区乌鲁木齐市新市区银川路街道天山花园社区天山花园小区"}},{"type":"Feature","geometry":{"type":"Point","coordinates":[87.544108,43.861021]},"properties":{"full_address":"新疆维吾尔自治区乌鲁木齐市新市区石油新村街道阿勒泰路社区天汇世纪花园小区"}},{"type":"Feature","geometry":{"type":"Point","coordinates":[87.573996,43.877442]},"properties":{"full_address":"新疆维吾尔自治区乌鲁木齐市新市区喀什东路街道京疆路社区"}},{"type":"Feature","geometry":{"type":"Point","coordinates":[87.598868,43.894143]},"properties":{"full_address":"新疆维吾尔自治区乌鲁木齐市新市区喀什东路街道铁桥社区紫煜臻城小区"}},{"type":"Feature","geometry":{"type":"Point","coordinates":[87.583921,43.878977]},"properties":{"full_address":"新疆维吾尔自治区乌鲁木齐市新市区长春中路街道锦秀社区领秀新城小区"}},{"type":"Feature","geometry":{"type":"Point","coordinates":[87.574013,43.884605]},"properties":{"full_address":"新疆维吾尔自治区乌鲁木齐市新市区长春中路街道新盛社区康城果岭小区"}},{"type":"Feature","geometry":{"type":"Point","coordinates":[87.590098,43.88359]},"properties":{"full_address":"新疆维吾尔自治区乌鲁木齐市新市区长春中路街道锦程社区"}},{"type":"Feature","geometry":{"type":"Point","coordinates":[87.58924,43.887567]},"properties":{"full_address":"新疆维吾尔自治区乌鲁木齐市新市区长春中路街道长春北路社区"}},{"type":"Feature","geometry":{"type":"Point","coordinates":[87.509602,43.966756]},"properties":{"full_address":"新疆维吾尔自治区乌鲁木齐市新市区安宁渠镇宁华社区君威景苑小区"}},{"type":"Feature","geometry":{"type":"Point","coordinates":[87.588507,43.863176]},"properties":{"full_address":"新疆维吾尔自治区乌鲁木齐市新市区八家户街道新慧社区美伦环球港小区"}},{"type":"Feature","geometry":{"type":"Point","coordinates":[87.598211,43.86359]},"properties":{"full_address":"新疆维吾尔自治区乌鲁木齐市新市区八家户街道河滩北路西社区"}},{"type":"Feature","geometry":{"type":"Point","coordinates":[87.59897,43.882818]},"properties":{"full_address":"新疆维吾尔自治区乌鲁木齐市新市区八家户街道鸿阳社区"}},{"type":"Feature","geometry":{"type":"Point","coordinates":[87.601155,43.840283]},"properties":{"full_address":"新疆维吾尔自治区乌鲁木齐市水磨沟区振安街街道鸿园南路东社区鸿和苑小区"}},{"type":"Feature","geometry":{"type":"Point","coordinates":[87.619165,43.923605]},"properties":{"full_address":"新疆维吾尔自治区乌鲁木齐市米东区永祥街片区华丰社区新华凌市场土产区"}},{"type":"Feature","geometry":{"type":"Point","coordinates":[87.629911,43.914593]},"properties":{"full_address":"新疆维吾尔自治区乌鲁木齐市米东区卡子湾片区创业社区弘业路3598号书香雅地小区"}},{"type":"Feature","geometry":{"type":"Point","coordinates":[87.702952,43.991612]},"properties":{"full_address":"新疆维吾尔自治区乌鲁木齐市米东区古牧地镇东工村"}},{"type":"Feature","geometry":{"type":"Point","coordinates":[87.650536,43.941551]},"properties":{"full_address":"新疆维吾尔自治区乌鲁木齐市米东区南路街道十三户社区除高风险外其他区域"}},{"type":"Feature","geometry":{"type":"Point","coordinates":[87.623902,43.951035]},"properties":{"full_address":"新疆维吾尔自治区乌鲁木齐市米东区西路街道西营社区除高风险外其他区域"}},{"type":"Feature","geometry":{"type":"Point","coordinates":[87.690964,43.954196]},"properties":{"full_address":"新疆维吾尔自治区乌鲁木齐市米东区石化街道安和社区除高风险外其他区域"}},{"type":"Feature","geometry":{"type":"Point","coordinates":[87.620674,43.91206]},"properties":{"full_address":"新疆维吾尔自治区乌鲁木齐市米东区卡子湾街道象新社区除高风险外其他区域"}},{"type":"Feature","geometry":{"type":"Point","coordinates":[87.631672,43.908611]},"properties":{"full_address":"新疆维吾尔自治区乌鲁木齐市米东区卡子湾街道利民社区除高风险外其他区域"}},{"type":"Feature","geometry":{"type":"Point","coordinates":[89.152378,42.962281]},"properties":{"full_address":"新疆维吾尔自治区吐鲁番市高昌区新城片区克孜勒吐尔社区"}},{"type":"Feature","geometry":{"type":"Point","coordinates":[89.179647,42.956609]},"properties":{"full_address":"新疆维吾尔自治区吐鲁番市高昌区南门社区南门小区"}},{"type":"Feature","geometry":{"type":"Point","coordinates":[89.189148,42.944941]},"properties":{"full_address":"新疆维吾尔自治区吐鲁番市高昌区高昌路街道王府里小区"}},{"type":"Feature","geometry":{"type":"Point","coordinates":[86.151581,41.752032]},"properties":{"full_address":"新疆维吾尔自治区巴音郭楞蒙古自治州库尔勒市朝阳街道丰源社区凯旋公馆A区"}},{"type":"Feature","geometry":{"type":"Point","coordinates":[86.16763,41.73811]},"properties":{"full_address":"新疆维吾尔自治区巴音郭楞蒙古自治州库尔勒市朝阳街道华夏名门社区塔河明城小区"}},{"type":"Feature","geometry":{"type":"Point","coordinates":[81.332234,43.911243]},"properties":{"full_address":"新疆维吾尔自治区伊犁哈萨克自治州伊宁市都来提巴格街道托甫其社区"}},{"type":"Feature","geometry":{"type":"Point","coordinates":[81.355915,43.91914]},"properties":{"full_address":"新疆维吾尔自治区伊犁哈萨克自治州伊宁市琼科瑞克街道努尔勒克社区"}},{"type":"Feature","geometry":{"type":"Point","coordinates":[81.362272,43.918751]},"properties":{"full_address":"新疆维吾尔自治区伊犁哈萨克自治州伊宁市琼科瑞克街道喀尔墩社区"}},{"type":"Feature","geometry":{"type":"Point","coordinates":[81.319387,43.888063]},"properties":{"full_address":"新疆维吾尔自治区伊犁哈萨克自治州伊宁市塔什科瑞克乡科克其力克村"}},{"type":"Feature","geometry":{"type":"Point","coordinates":[81.325134,43.895626]},"properties":{"full_address":"新疆维吾尔自治区伊犁哈萨克自治州伊宁市塔什科瑞克乡英买里村"}},{"type":"Feature","geometry":{"type":"Point","coordinates":[81.367621,43.900273]},"properties":{"full_address":"新疆维吾尔自治区伊犁哈萨克自治州伊宁市喀尔墩乡花果山社区"}},{"type":"Feature","geometry":{"type":"Point","coordinates":[81.333394,43.913199]},"properties":{"full_address":"新疆维吾尔自治区伊犁哈萨克自治州伊宁市新华东路苏碧怡大厦"}},{"type":"Feature","geometry":{"type":"Point","coordinates":[81.333288,43.908538]},"properties":{"full_address":"新疆维吾尔自治区伊犁哈萨克自治州伊宁市都来提巴格街道托特科瑞克社区"}},{"type":"Feature","geometry":{"type":"Point","coordinates":[81.335118,43.91886]},"properties":{"full_address":"新疆维吾尔自治区伊犁哈萨克自治州伊宁市琼科瑞克街道英阿亚提社区"}},{"type":"Feature","geometry":{"type":"Point","coordinates":[81.354947,43.907946]},"properties":{"full_address":"新疆维吾尔自治区伊犁哈萨克自治州伊宁市琼科瑞克街道东梁社区"}},{"type":"Feature","geometry":{"type":"Point","coordinates":[81.319387,43.888063]},"properties":{"full_address":"新疆维吾尔自治区伊犁哈萨克自治州伊宁市塔什科瑞克乡吉格迪力克村"}},{"type":"Feature","geometry":{"type":"Point","coordinates":[81.348873,43.895799]},"properties":{"full_address":"新疆维吾尔自治区伊犁哈萨克自治州伊宁市塔什科瑞克乡英买里村新路街中9巷附8巷"}},{"type":"Feature","geometry":{"type":"Point","coordinates":[81.647593,43.878493]},"properties":{"full_address":"新疆维吾尔自治区伊犁哈萨克自治州伊宁县愉群翁回族乡斯拉木于孜村"}},{"type":"Feature","geometry":{"type":"Point","coordinates":[84.742482,44.398894]},"properties":{"full_address":"新疆维吾尔自治区塔城地区乌苏市奎河街道金穗园小区"}},{"type":"Feature","geometry":{"type":"Point","coordinates":[84.712838,44.442869]},"properties":{"full_address":"新疆维吾尔自治区塔城地区乌苏市八十四户乡"}},{"type":"Feature","geometry":{"type":"Point","coordinates":[84.677572,44.442438]},"properties":{"full_address":"新疆维吾尔自治区塔城地区乌苏市虹桥街道94号院、96号院、幸福小区、博雅小区、和平花园、解放路社区平房区、明珠小区、新华小区、美丽园小区、和谐小区、和平小区、华鑫小区、林场家属楼<含虹桥雅苑>、博馨苑小区、人民医院家属楼、虹桥小区、金盾小区、老政府家属院、水榭名苑小区、水榭名苑小区廉租房、老市委家属楼、宜居小区、团结路社区平房区2区、飞云楼"}},{"type":"Feature","geometry":{"type":"Point","coordinates":[84.675201,44.420238]},"properties":{"full_address":"新疆维吾尔自治区塔城地区乌苏市南苑街道安达倾城片区、捷特小区、清华园小区、路园小区、电北小区、春晖巷、城建小区、房管局小区、园丁小区、万森花园、监狱及物资局平房区、家和小区、文心巷、电力南院小区、育才巷"}},{"type":"Feature","geometry":{"type":"Point","coordinates":[84.677845,44.436931]},"properties":{"full_address":"新疆维吾尔自治区塔城地区乌苏市虹桥街道阳光小区3号楼"}},{"type":"Feature","geometry":{"type":"Point","coordinates":[84.711605,44.417203]},"properties":{"full_address":"新疆维吾尔自治区塔城地区乌苏市新市区街道文林小区22号楼"}},{"type":"Feature","geometry":{"type":"Point","coordinates":[84.669853,44.418637]},"properties":{"full_address":"新疆维吾尔自治区塔城地区乌苏市南苑街道电信小区2号楼"}},{"type":"Feature","geometry":{"type":"Point","coordinates":[84.685809,44.419234]},"properties":{"full_address":"新疆维吾尔自治区塔城地区乌苏市南苑街道兰亭雅苑小区6号楼"}},{"type":"Feature","geometry":{"type":"Point","coordinates":[84.713736,44.418887]},"properties":{"full_address":"新疆维吾尔自治区塔城地区乌苏市联硕新型建材有限公司"}},{"type":"Feature","geometry":{"type":"Point","coordinates":[84.705654,44.422135]},"properties":{"full_address":"新疆维吾尔自治区塔城地区乌苏市新市区街道文泽苑小区22号楼除高风险单元外的其他单元"}},{"type":"Feature","geometry":{"type":"Point","coordinates":[84.724996,44.415779]},"properties":{"full_address":"新疆维吾尔自治区塔城地区乌苏市新市区街道汇枫小区11号楼除高风险单元外的其他单元"}},{"type":"Feature","geometry":{"type":"Point","coordinates":[84.678118,44.430663]},"properties":{"full_address":"新疆维吾尔自治区塔城地区乌苏市南苑街道怡景小区9号楼除高风险单元外的其他单元"}},{"type":"Feature","geometry":{"type":"Point","coordinates":[84.678118,44.430663]},"properties":{"full_address":"新疆维吾尔自治区塔城地区乌苏市南苑街道怡景小区13号楼除高风险单元外的其他单元"}}]}