{"type":"FeatureCollection","features":[{"type":"Feature","geometry":{"type":"Point","coordinates":[116.456238,39.887459]},"properties":{"province":"北京市","city":"朝阳区","county":"双井街道","community":"垂杨柳南里9号楼","full_address":"北京市朝阳区双井街道垂杨柳南里9号楼","info":""}},{"type":"Feature","geometry":{"type":"Point","coordinates":[116.464610724,39.895466465]},"properties":{"province":"北京市","city":"朝阳区","county":"双井街道","community":"百子湾南二路76号院6号楼","full_address":"北京市朝阳区双井街道百子湾南二路76号院6号楼","info":""}},{"type":"Feature","geometry":{"type":"Point","coordinates":[116.610638,39.922061]},"properties":{"province":"北京市","city":"朝阳区","county":"管庄（地区）乡","community":"常营南路45号院2号楼2单元","full_address":"北京市朝阳区管庄（地区）乡常营南路45号院2号楼2单元","info":""}},{"type":"Feature","geometry":{"type":"Point","coordinates":[116.588631,39.915712]},"properties":{"province":"北京市","city":"朝阳区","county":"管庄（地区）乡","community":"管庄西里16号楼","full_address":"北京市朝阳区管庄（地区）乡管庄西里16号楼","info":""}},{"type":"Feature","geometry":{"type":"Point","coordinates":[116.583911775,39.914589391]},"properties":{"province":"北京市","city":"朝阳区","county":"管庄（地区）乡","community":"管庄西里22号楼","full_address":"北京市朝阳区管庄（地区）乡管庄西里22号楼","info":""}},{"type":"Feature","geometry":{"type":"Point","coordinates":[116.420959,39.982929]},"properties":{"province":"北京市","city":"朝阳区","county":"小关街道","community":"惠新西里2区1号楼","full_address":"北京市朝阳区小关街道惠新西里2区1号楼","info":""}},{"type":"Feature","geometry":{"type":"Point","coordinates":[116.407304407,39.982551818]},"properties":{"province":"北京市","city":"朝阳区","county":"小关街道","community":"安苑东里一区8号楼","full_address":"北京市朝阳区小关街道安苑东里一区8号楼","info":""}},{"type":"Feature","geometry":{"type":"Point","coordinates":[116.501251,39.965679]},"properties":{"province":"北京市","city":"朝阳区","county":"酒仙桥街道","community":"驼房营西里小区4号楼东塔","full_address":"北京市朝阳区酒仙桥街道驼房营西里小区4号楼东塔","info":""}},{"type":"Feature","geometry":{"type":"Point","coordinates":[116.486719,39.981466]},"properties":{"province":"北京市","city":"朝阳区","county":"酒仙桥街道","community":"大山子南里15号楼","full_address":"北京市朝阳区酒仙桥街道大山子南里15号楼","info":""}},{"type":"Feature","geometry":{"type":"Point","coordinates":[116.507477,39.91861]},"properties":{"province":"北京市","city":"朝阳区","county":"八里庄街道","community":"十里堡东里113号楼","full_address":"北京市朝阳区八里庄街道十里堡东里113号楼","info":""}},{"type":"Feature","geometry":{"type":"Point","coordinates":[116.39574,39.9724]},"properties":{"province":"北京市","city":"朝阳区","county":"安贞街道","community":"安贞西里二区23号楼","full_address":"北京市朝阳区安贞街道安贞西里二区23号楼","info":""}},{"type":"Feature","geometry":{"type":"Point","coordinates":[116.39997,39.96251]},"properties":{"province":"北京市","city":"朝阳区","county":"安贞街道","community":"外馆斜街6号院1号楼","full_address":"北京市朝阳区安贞街道外馆斜街6号院1号楼","info":""}},{"type":"Feature","geometry":{"type":"Point","coordinates":[116.40238,39.97513]},"properties":{"province":"北京市","city":"朝阳区","county":"安贞街道","community":"安贞里1区29号楼","full_address":"北京市朝阳区安贞街道安贞里1区29号楼","info":""}},{"type":"Feature","geometry":{"type":"Point","coordinates":[116.40387,39.9636]},"properties":{"province":"北京市","city":"朝阳区","county":"安贞街道","community":"安华里五区8号楼","full_address":"北京市朝阳区安贞街道安华里五区8号楼","info":""}},{"type":"Feature","geometry":{"type":"Point","coordinates":[116.39776,39.96711]},"properties":{"province":"北京市","city":"朝阳区","county":"安贞街道","community":"安华西里一区20号楼、22号楼、25号楼","full_address":"北京市朝阳区安贞街道安华西里一区20号楼、22号楼、25号楼","info":""}},{"type":"Feature","geometry":{"type":"Point","coordinates":[116.40284,39.96718]},"properties":{"province":"北京市","city":"朝阳区","county":"安贞街道","community":"安华里二区2号楼","full_address":"北京市朝阳区安贞街道安华里二区2号楼","info":""}},{"type":"Feature","geometry":{"type":"Point","coordinates":[116.3982,39.96338]},"properties":{"province":"北京市","city":"朝阳区","county":"安贞街道","community":"安华西里二区10号楼、5号楼、6号楼、15号楼、17号楼、7号楼、1号楼、外馆西街2号楼","full_address":"北京市朝阳区安贞街道安华西里二区10号楼、5号楼、6号楼、15号楼、17号楼、7号楼、1号楼、外馆西街2号楼","info":""}},{"type":"Feature","geometry":{"type":"Point","coordinates":[116.3986,39.96701]},"properties":{"province":"北京市","city":"朝阳区","county":"安贞街道","community":"安华西里一区18号楼","full_address":"北京市朝阳区安贞街道安华西里一区18号楼","info":""}},{"type":"Feature","geometry":{"type":"Point","coordinates":[116.397682,39.966591]},"properties":{"province":"北京市","city":"朝阳区","county":"安贞街道","community":"安贞街道外馆社区（黄寺大街）甲3号院5号楼、3号楼","full_address":"北京市朝阳区安贞街道安贞街道外馆社区（黄寺大街）甲3号院5号楼、3号楼","info":""}},{"type":"Feature","geometry":{"type":"Point","coordinates":[116.39767,39.96337]},"properties":{"province":"北京市","city":"朝阳区","county":"安贞街道","community":"外馆斜街1号楼（外馆西街1号楼）","full_address":"北京市朝阳区安贞街道外馆斜街1号楼（外馆西街1号楼）","info":""}},{"type":"Feature","geometry":{"type":"Point","coordinates":[116.457033,40.00126]},"properties":{"province":"北京市","city":"朝阳区","county":"望京街道","community":"世安家园104号楼","full_address":"北京市朝阳区望京街道世安家园104号楼","info":""}},{"type":"Feature","geometry":{"type":"Point","coordinates":[116.45643,39.99829]},"properties":{"province":"北京市","city":"朝阳区","county":"望京街道","community":"银领国际小区128号楼","full_address":"北京市朝阳区望京街道银领国际小区128号楼","info":""}},{"type":"Feature","geometry":{"type":"Point","coordinates":[116.409081,39.984646]},"properties":{"province":"北京市","city":"朝阳区","county":"亚运村街道","community":"安苑北里14、15、16、17、18、19号楼","full_address":"北京市朝阳区亚运村街道安苑北里14、15、16、17、18、19号楼","info":""}},{"type":"Feature","geometry":{"type":"Point","coordinates":[116.41359,39.99259]},"properties":{"province":"北京市","city":"朝阳区","county":"亚运村街道","community":"安慧里一区21号楼","full_address":"北京市朝阳区亚运村街道安慧里一区21号楼","info":""}},{"type":"Feature","geometry":{"type":"Point","coordinates":[116.409081,39.984646]},"properties":{"province":"北京市","city":"朝阳区","county":"亚运村街道","community":"安苑北里11号楼","full_address":"北京市朝阳区亚运村街道安苑北里11号楼","info":""}},{"type":"Feature","geometry":{"type":"Point","coordinates":[116.476242,39.932529]},"properties":{"province":"北京市","city":"朝阳区","county":"六里屯街道","community":"六里屯北里12号楼","full_address":"北京市朝阳区六里屯街道六里屯北里12号楼","info":""}},{"type":"Feature","geometry":{"type":"Point","coordinates":[116.540924,39.922401]},"properties":{"province":"北京市","city":"朝阳区","county":"高碑店（地区）乡","community":"大黄庄9号","full_address":"北京市朝阳区高碑店（地区）乡大黄庄9号","info":""}},{"type":"Feature","geometry":{"type":"Point","coordinates":[116.47644,39.839001]},"properties":{"province":"北京市","city":"朝阳区","county":"十八里店（地区）乡","community":"后祁庄68号院及周边67号院、69号院、70号院、71号院","full_address":"北京市朝阳区十八里店（地区）乡后祁庄68号院及周边67号院、69号院、70号院、71号院","info":""}},{"type":"Feature","geometry":{"type":"Point","coordinates":[116.474808,39.837284]},"properties":{"province":"北京市","city":"朝阳区","county":"十八里店（地区）乡","community":"前祁庄163号院","full_address":"北京市朝阳区十八里店（地区）乡前祁庄163号院","info":""}},{"type":"Feature","geometry":{"type":"Point","coordinates":[116.53663,39.96587]},"properties":{"province":"北京市","city":"朝阳区","county":"东坝（地区）乡","community":"东坝中街11号院42号楼","full_address":"北京市朝阳区东坝（地区）乡东坝中街11号院42号楼","info":""}},{"type":"Feature","geometry":{"type":"Point","coordinates":[116.55837,39.96035]},"properties":{"province":"北京市","city":"朝阳区","county":"东坝（地区）乡","community":"东泽园1号院1号楼","full_address":"北京市朝阳区东坝（地区）乡东泽园1号院1号楼","info":""}},{"type":"Feature","geometry":{"type":"Point","coordinates":[116.55701,39.96039]},"properties":{"province":"北京市","city":"朝阳区","county":"东坝（地区）乡","community":"东泽园1号院2号楼2单元","full_address":"北京市朝阳区东坝（地区）乡东泽园1号院2号楼2单元","info":""}},{"type":"Feature","geometry":{"type":"Point","coordinates":[116.55765,39.96]},"properties":{"province":"北京市","city":"朝阳区","county":"东坝（地区）乡","community":"东泽园1号院4号楼、8号楼","full_address":"北京市朝阳区东坝（地区）乡东泽园1号院4号楼、8号楼","info":""}},{"type":"Feature","geometry":{"type":"Point","coordinates":[116.55833,39.95893]},"properties":{"province":"北京市","city":"朝阳区","county":"东坝（地区）乡","community":"东泽园1号院7号楼","full_address":"北京市朝阳区东坝（地区）乡东泽园1号院7号楼","info":""}},{"type":"Feature","geometry":{"type":"Point","coordinates":[116.55765,39.96]},"properties":{"province":"北京市","city":"朝阳区","county":"东坝（地区）乡","community":"东泽园1区4号楼","full_address":"北京市朝阳区东坝（地区）乡东泽园1区4号楼","info":""}},{"type":"Feature","geometry":{"type":"Point","coordinates":[116.559616,39.959766]},"properties":{"province":"北京市","city":"朝阳区","county":"东坝（地区）乡","community":"东泽园2号院","full_address":"北京市朝阳区东坝（地区）乡东泽园2号院","info":""}},{"type":"Feature","geometry":{"type":"Point","coordinates":[116.54644,39.957409]},"properties":{"province":"北京市","city":"朝阳区","county":"东坝（地区）乡","community":"高杨树北里平房1-5排","full_address":"北京市朝阳区东坝（地区）乡高杨树北里平房1-5排","info":""}},{"type":"Feature","geometry":{"type":"Point","coordinates":[116.56884,39.963017]},"properties":{"province":"北京市","city":"朝阳区","county":"东坝（地区）乡","community":"华瀚福园A区6号楼","full_address":"北京市朝阳区东坝（地区）乡华瀚福园A区6号楼","info":""}},{"type":"Feature","geometry":{"type":"Point","coordinates":[116.573402,39.958839]},"properties":{"province":"北京市","city":"朝阳区","county":"东坝（地区）乡","community":"华瀚福园D区421、424、432号","full_address":"北京市朝阳区东坝（地区）乡华瀚福园D区421、424、432号","info":""}},{"type":"Feature","geometry":{"type":"Point","coordinates":[116.54644,39.957409]},"properties":{"province":"北京市","city":"朝阳区","county":"东坝（地区）乡","community":"郊野公园北门西侧甲6号","full_address":"北京市朝阳区东坝（地区）乡郊野公园北门西侧甲6号","info":""}},{"type":"Feature","geometry":{"type":"Point","coordinates":[116.56829,39.95934]},"properties":{"province":"北京市","city":"朝阳区","county":"东坝（地区）乡","community":"金驹家园F区209号楼1单元、F区205号楼、207号楼","full_address":"北京市朝阳区东坝（地区）乡金驹家园F区209号楼1单元、F区205号楼、207号楼","info":""}},{"type":"Feature","geometry":{"type":"Point","coordinates":[116.55057,39.95519]},"properties":{"province":"北京市","city":"朝阳区","county":"东坝（地区）乡","community":"金泰丽富30号院8号楼","full_address":"北京市朝阳区东坝（地区）乡金泰丽富30号院8号楼","info":""}},{"type":"Feature","geometry":{"type":"Point","coordinates":[116.607971,39.92614]},"properties":{"province":"北京市","city":"朝阳区","county":"东坝（地区）乡","community":"锦安家园1区2号楼","full_address":"北京市朝阳区东坝（地区）乡锦安家园1区2号楼","info":""}},{"type":"Feature","geometry":{"type":"Point","coordinates":[116.58744,39.945507]},"properties":{"province":"北京市","city":"朝阳区","county":"东坝（地区）乡","community":"鑫方盛五金建材（朝阳分公司）","full_address":"北京市朝阳区东坝（地区）乡鑫方盛五金建材（朝阳分公司）","info":""}},{"type":"Feature","geometry":{"type":"Point","coordinates":[116.563866,39.955082]},"properties":{"province":"北京市","city":"朝阳区","county":"金盏（地区）乡","community":"金泽家园A区2号楼、5号楼、1号楼、7号楼、8号楼","full_address":"北京市朝阳区金盏（地区）乡金泽家园A区2号楼、5号楼、1号楼、7号楼、8号楼","info":""}},{"type":"Feature","geometry":{"type":"Point","coordinates":[116.563362,39.957333]},"properties":{"province":"北京市","city":"朝阳区","county":"金盏（地区）乡","community":"金泽家园B区6号楼、7号楼","full_address":"北京市朝阳区金盏（地区）乡金泽家园B区6号楼、7号楼","info":""}},{"type":"Feature","geometry":{"type":"Point","coordinates":[116.563728,39.959663]},"properties":{"province":"北京市","city":"朝阳区","county":"金盏（地区）乡","community":"金泽家园C区1号楼、8号楼、9号楼、5号楼（即308号楼）","full_address":"北京市朝阳区金盏（地区）乡金泽家园C区1号楼、8号楼、9号楼、5号楼（即308号楼）","info":""}},{"type":"Feature","geometry":{"type":"Point","coordinates":[116.56174,40.00889]},"properties":{"province":"北京市","city":"朝阳区","county":"金盏（地区）乡","community":"金盏嘉园A区9号楼","full_address":"北京市朝阳区金盏（地区）乡金盏嘉园A区9号楼","info":""}},{"type":"Feature","geometry":{"type":"Point","coordinates":[116.631912,39.973774]},"properties":{"province":"北京市","city":"朝阳区","county":"金盏（地区）乡","community":"黎各庄村1号院、109号院、255号院","full_address":"北京市朝阳区金盏（地区）乡黎各庄村1号院、109号院、255号院","info":""}},{"type":"Feature","geometry":{"type":"Point","coordinates":[116.56871,40.011551]},"properties":{"province":"北京市","city":"朝阳区","county":"金盏（地区）乡","community":"小店村网格5区全域、网格8区231号、网格6区194号","full_address":"北京市朝阳区金盏（地区）乡小店村网格5区全域、网格8区231号、网格6区194号","info":""}},{"type":"Feature","geometry":{"type":"Point","coordinates":[116.46616,39.95744]},"properties":{"province":"北京市","city":"朝阳区","county":"太阳宫（地区）乡","community":"华远九都汇小区7号楼","full_address":"北京市朝阳区太阳宫（地区）乡华远九都汇小区7号楼","info":""}},{"type":"Feature","geometry":{"type":"Point","coordinates":[116.40656,40.00695]},"properties":{"province":"北京市","city":"朝阳区","county":"大屯街道","community":"慧忠北里东片108号楼","full_address":"北京市朝阳区大屯街道慧忠北里东片108号楼","info":""}},{"type":"Feature","geometry":{"type":"Point","coordinates":[116.416031,39.999199]},"properties":{"province":"北京市","city":"朝阳区","county":"大屯街道","community":"安慧北里逸园10号楼","full_address":"北京市朝阳区大屯街道安慧北里逸园10号楼","info":""}},{"type":"Feature","geometry":{"type":"Point","coordinates":[116.42172,40.03878]},"properties":{"province":"北京市","city":"朝阳区","county":"来广营（地区）乡","community":"北苑6号院2号楼","full_address":"北京市朝阳区来广营（地区）乡北苑6号院2号楼","info":""}},{"type":"Feature","geometry":{"type":"Point","coordinates":[116.41848,40.02943]},"properties":{"province":"北京市","city":"朝阳区","county":"来广营（地区）乡","community":"北苑路4号院物业南小楼","full_address":"北京市朝阳区来广营（地区）乡北苑路4号院物业南小楼","info":""}},{"type":"Feature","geometry":{"type":"Point","coordinates":[116.41015,40.05413]},"properties":{"province":"北京市","city":"朝阳区","county":"来广营（地区）乡","community":"立水桥奥北中心南区2号楼","full_address":"北京市朝阳区来广营（地区）乡立水桥奥北中心南区2号楼","info":""}},{"type":"Feature","geometry":{"type":"Point","coordinates":[116.424728,40.010792]},"properties":{"province":"北京市","city":"朝阳区","county":"崔各庄（地区）乡","community":"东辛店村224号","full_address":"北京市朝阳区崔各庄（地区）乡东辛店村224号","info":""}},{"type":"Feature","geometry":{"type":"Point","coordinates":[116.607201,39.887901]},"properties":{"province":"北京市","city":"朝阳区","county":"黑庄户（地区）乡","community":"双桥温泉东里小区6号楼","full_address":"北京市朝阳区黑庄户（地区）乡双桥温泉东里小区6号楼","info":""}},{"type":"Feature","geometry":{"type":"Point","coordinates":[116.604263,39.882179]},"properties":{"province":"北京市","city":"朝阳区","county":"黑庄户（地区）乡","community":"双桥嘉园1号楼","full_address":"北京市朝阳区黑庄户（地区）乡双桥嘉园1号楼","info":""}},{"type":"Feature","geometry":{"type":"Point","coordinates":[116.552895,39.91346]},"properties":{"province":"北京市","city":"朝阳区","county":"三间房（地区）乡","community":"定福庄西里1号院15号楼","full_address":"北京市朝阳区三间房（地区）乡定福庄西里1号院15号楼","info":""}},{"type":"Feature","geometry":{"type":"Point","coordinates":[116.58513,39.9056]},"properties":{"province":"北京市","city":"朝阳区","county":"三间房（地区）乡","community":"康惠园1号院8号楼","full_address":"北京市朝阳区三间房（地区）乡康惠园1号院8号楼","info":""}},{"type":"Feature","geometry":{"type":"Point","coordinates":[116.569321,39.916313]},"properties":{"province":"北京市","city":"朝阳区","county":"三间房（地区）乡","community":"双柳巷小区9号楼","full_address":"北京市朝阳区三间房（地区）乡双柳巷小区9号楼","info":""}},{"type":"Feature","geometry":{"type":"Point","coordinates":[116.53994,40.032742]},"properties":{"province":"北京市","city":"朝阳区","county":"孙河（地区）乡","community":"康营家园17区4号楼","full_address":"北京市朝阳区孙河（地区）乡康营家园17区4号楼","info":""}},{"type":"Feature","geometry":{"type":"Point","coordinates":[116.540604,40.050842]},"properties":{"province":"北京市","city":"朝阳区","county":"孙河（地区）乡","community":"康营家园23期1号楼","full_address":"北京市朝阳区孙河（地区）乡康营家园23期1号楼","info":""}},{"type":"Feature","geometry":{"type":"Point","coordinates":[116.463469,40.004569]},"properties":{"province":"北京市","city":"朝阳区","county":"东湖街道","community":"南湖东园一区107号楼","full_address":"北京市朝阳区东湖街道南湖东园一区107号楼","info":""}},{"type":"Feature","geometry":{"type":"Point","coordinates":[116.31942,39.882641]},"properties":{"province":"北京市","city":"丰台区","county":"太平桥街道","community":"精图雅苑","full_address":"北京市丰台区太平桥街道精图雅苑","info":""}},{"type":"Feature","geometry":{"type":"Point","coordinates":[116.23744,39.89806]},"properties":{"province":"北京市","city":"石景山区","county":"八宝山街道","community":"远洋山水南区38号楼6单元","full_address":"北京市石景山区八宝山街道远洋山水南区38号楼6单元","info":""}},{"type":"Feature","geometry":{"type":"Point","coordinates":[116.19184,39.93275]},"properties":{"province":"北京市","city":"石景山区","county":"苹果园街道","community":"海特花园57号楼1、2单元","full_address":"北京市石景山区苹果园街道海特花园57号楼1、2单元","info":""}},{"type":"Feature","geometry":{"type":"Point","coordinates":[116.20554,39.93628]},"properties":{"province":"北京市","city":"石景山区","county":"苹果园街道","community":"西黄新村北里2号楼","full_address":"北京市石景山区苹果园街道西黄新村北里2号楼","info":""}},{"type":"Feature","geometry":{"type":"Point","coordinates":[116.226387,39.90255]},"properties":{"province":"北京市","city":"石景山区","county":"鲁谷街道","community":"永乐西区20号楼","full_address":"北京市石景山区鲁谷街道永乐西区20号楼","info":""}},{"type":"Feature","geometry":{"type":"Point","coordinates":[116.553642,39.766441]},"properties":{"province":"北京市","city":"通州区","county":"马驹桥镇","community":"北门口村77--81号，104、105、109、110、111、116号","full_address":"北京市通州区马驹桥镇北门口村77--81号，104、105、109、110、111、116号","info":""}},{"type":"Feature","geometry":{"type":"Point","coordinates":[116.56759,39.79974]},"properties":{"province":"北京市","city":"通州区","county":"台湖镇","community":"定海园二里13号楼2单元","full_address":"北京市通州区台湖镇定海园二里13号楼2单元","info":""}},{"type":"Feature","geometry":{"type":"Point","coordinates":[116.68455,39.89681]},"properties":{"province":"北京市","city":"通州区","county":"玉桥街道","community":"乔庄北区13号楼、14号楼、15号楼","full_address":"北京市通州区玉桥街道乔庄北区13号楼、14号楼、15号楼","info":""}},{"type":"Feature","geometry":{"type":"Point","coordinates":[116.69751,39.873653]},"properties":{"province":"北京市","city":"通州区","county":"临河里街道","community":"金隅花石匠小区二期东区117号楼","full_address":"北京市通州区临河里街道金隅花石匠小区二期东区117号楼","info":""}},{"type":"Feature","geometry":{"type":"Point","coordinates":[116.689472,39.935166]},"properties":{"province":"北京市","city":"通州区","county":"潞邑街道","community":"通瑞嘉苑小区14号楼","full_address":"北京市通州区潞邑街道通瑞嘉苑小区14号楼","info":""}},{"type":"Feature","geometry":{"type":"Point","coordinates":[116.24085,40.21152]},"properties":{"province":"北京市","city":"昌平区","county":"城北街道","community":"创新路2号院6号楼","full_address":"北京市昌平区城北街道创新路2号院6号楼","info":""}},{"type":"Feature","geometry":{"type":"Point","coordinates":[116.311752,40.141922]},"properties":{"province":"北京市","city":"昌平区","county":"沙河（地区）镇","community":"沙河镇辛力屯老村东至辉煌街与兴辉街交叉口，南至南四街，西至北六街西街，北至金利源超市同排宅基地（含文化馆及东侧四户）","full_address":"北京市昌平区沙河（地区）镇沙河镇辛力屯老村东至辉煌街与兴辉街交叉口，南至南四街，西至北六街西街，北至金利源超市同排宅基地（含文化馆及东侧四户）","info":""}},{"type":"Feature","geometry":{"type":"Point","coordinates":[116.309395,40.098526]},"properties":{"province":"北京市","city":"昌平区","county":"史各庄街道","community":"朱辛庄小区南区3号楼和10号楼","full_address":"北京市昌平区史各庄街道朱辛庄小区南区3号楼和10号楼","info":""}},{"type":"Feature","geometry":{"type":"Point","coordinates":[116.30874,39.62662]},"properties":{"province":"北京市","city":"大兴区","county":"庞各庄镇","community":"龙景湾丁区123号楼","full_address":"北京市大兴区庞各庄镇龙景湾丁区123号楼","info":""}},{"type":"Feature","geometry":{"type":"Point","coordinates":[116.43657,39.81693]},"properties":{"province":"北京市","city":"大兴区","county":"旧宫（地区）镇","community":"成和园小区6号楼2单元","full_address":"北京市大兴区旧宫（地区）镇成和园小区6号楼2单元","info":""}},{"type":"Feature","geometry":{"type":"Point","coordinates":[116.454895,39.793217]},"properties":{"province":"北京市","city":"大兴区","county":"旧宫（地区）镇","community":"东亚五环国际小区1-11号楼","full_address":"北京市大兴区旧宫（地区）镇东亚五环国际小区1-11号楼","info":""}},{"type":"Feature","geometry":{"type":"Point","coordinates":[116.515198,39.819313]},"properties":{"province":"北京市","city":"大兴区","county":"亦庄（地区）镇","community":"三羊里小区11-31号楼","full_address":"北京市大兴区亦庄（地区）镇三羊里小区11-31号楼","info":""}},{"type":"Feature","geometry":{"type":"Point","coordinates":[116.357918,39.739983]},"properties":{"province":"北京市","city":"大兴区","county":"观音寺街道","community":"新居里小区9、18-24、26-32楼及物业院","full_address":"北京市大兴区观音寺街道新居里小区9、18-24、26-32楼及物业院","info":""}},{"type":"Feature","geometry":{"type":"Point","coordinates":[116.364632,39.747295]},"properties":{"province":"北京市","city":"大兴区","county":"观音寺街道","community":"首座御园一里社区10号楼","full_address":"北京市大兴区观音寺街道首座御园一里社区10号楼","info":""}},{"type":"Feature","geometry":{"type":"Point","coordinates":[117.089493,40.135983]},"properties":{"province":"北京市","city":"平谷区","county":"平谷（渔阳地区）镇","community":"仁和家园2号楼","full_address":"北京市平谷区平谷（渔阳地区）镇仁和家园2号楼","info":""}},{"type":"Feature","geometry":{"type":"Point","coordinates":[117.093178,40.147789]},"properties":{"province":"北京市","city":"平谷区","county":"平谷（渔阳地区）镇","community":"万德福东区2号楼","full_address":"北京市平谷区平谷（渔阳地区）镇万德福东区2号楼","info":""}},{"type":"Feature","geometry":{"type":"Point","coordinates":[117.104935,40.173641]},"properties":{"province":"北京市","city":"平谷区","county":"王辛庄镇","community":"王辛庄中路以东，王辛庄村南界以北，树林路以西，村委会南门前街以南","full_address":"北京市平谷区王辛庄镇王辛庄中路以东，王辛庄村南界以北，树林路以西，村委会南门前街以南","info":""}},{"type":"Feature","geometry":{"type":"Point","coordinates":[117.118027,40.157619]},"properties":{"province":"北京市","city":"平谷区","county":"兴谷街道","community":"燕谷嘉苑1号楼","full_address":"北京市平谷区兴谷街道燕谷嘉苑1号楼","info":""}},{"type":"Feature","geometry":{"type":"Point","coordinates":[117.11206,40.15776]},"properties":{"province":"北京市","city":"平谷区","county":"兴谷街道","community":"腾龙源城小区1号楼","full_address":"北京市平谷区兴谷街道腾龙源城小区1号楼","info":""}},{"type":"Feature","geometry":{"type":"Point","coordinates":[116.83243,40.37546]},"properties":{"province":"北京市","city":"密云区","county":"果园街道","community":"果园新里北区19号楼","full_address":"北京市密云区果园街道果园新里北区19号楼","info":""}},{"type":"Feature","geometry":{"type":"Point","coordinates":[116.82715,40.3741]},"properties":{"province":"北京市","city":"密云区","county":"果园街道","community":"果园西里甲12号楼","full_address":"北京市密云区果园街道果园西里甲12号楼","info":""}},{"type":"Feature","geometry":{"type":"Point","coordinates":[115.888077,40.372952]},"properties":{"province":"北京市","city":"延庆区","county":"康庄镇","community":"康庄镇榆林堡新村","full_address":"北京市延庆区康庄镇康庄镇榆林堡新村","info":""}},{"type":"Feature","geometry":{"type":"Point","coordinates":[117.240098,39.091652]},"properties":{"province":"天津市","city":"天津市","county":"河西区","community":"挂甲寺街海景雅苑8号楼","full_address":"天津市天津市河西区挂甲寺街海景雅苑8号楼","info":""}},{"type":"Feature","geometry":{"type":"Point","coordinates":[117.323559,39.103043]},"properties":{"province":"天津市","city":"天津市","county":"东丽区","community":"新立街贵环花园小区6号楼旁平房区","full_address":"天津市天津市东丽区新立街贵环花园小区6号楼旁平房区","info":""}},{"type":"Feature","geometry":{"type":"Point","coordinates":[117.038712,39.128029]},"properties":{"province":"天津市","city":"天津市","county":"西青区","community":"中北镇兴苑别墅公寓楼1号楼、兴苑别墅一区22号楼","full_address":"天津市天津市西青区中北镇兴苑别墅公寓楼1号楼、兴苑别墅一区22号楼","info":""}},{"type":"Feature","geometry":{"type":"Point","coordinates":[117.056358,39.149281]},"properties":{"province":"天津市","city":"天津市","county":"西青区","community":"美乐福多多超市（奥森物流A区南门左侧80米)","full_address":"天津市天津市西青区美乐福多多超市（奥森物流A区南门左侧80米)","info":""}},{"type":"Feature","geometry":{"type":"Point","coordinates":[117.12188,39.05029]},"properties":{"province":"天津市","city":"天津市","county":"西青区","community":"精武镇荣水里6号楼","full_address":"天津市天津市西青区精武镇荣水里6号楼","info":""}},{"type":"Feature","geometry":{"type":"Point","coordinates":[117.088562,39.14465]},"properties":{"province":"天津市","city":"天津市","county":"西青区","community":"中北镇云锦世家澜锦园13号楼","full_address":"天津市天津市西青区中北镇云锦世家澜锦园13号楼","info":""}},{"type":"Feature","geometry":{"type":"Point","coordinates":[117.062752,39.134155]},"properties":{"province":"天津市","city":"天津市","county":"西青区","community":"中北镇御宏家园2号楼2门、4号楼1门","full_address":"天津市天津市西青区中北镇御宏家园2号楼2门、4号楼1门","info":""}},{"type":"Feature","geometry":{"type":"Point","coordinates":[117.062752,39.134155]},"properties":{"province":"天津市","city":"天津市","county":"西青区","community":"中北镇御宏家园6号楼1楼门","full_address":"天津市天津市西青区中北镇御宏家园6号楼1楼门","info":""}},{"type":"Feature","geometry":{"type":"Point","coordinates":[117.068436,39.124123]},"properties":{"province":"天津市","city":"天津市","county":"西青区","community":"中北镇溪悦园17号楼1门","full_address":"天津市天津市西青区中北镇溪悦园17号楼1门","info":""}},{"type":"Feature","geometry":{"type":"Point","coordinates":[117.035822,39.062648]},"properties":{"province":"天津市","city":"天津市","county":"西青区","community":"张家窝镇人祥北里13号楼1门","full_address":"天津市天津市西青区张家窝镇人祥北里13号楼1门","info":""}},{"type":"Feature","geometry":{"type":"Point","coordinates":[117.024799,39.119563]},"properties":{"province":"天津市","city":"天津市","county":"西青区","community":"杨柳青镇美泉苑11号楼3门","full_address":"天津市天津市西青区杨柳青镇美泉苑11号楼3门","info":""}},{"type":"Feature","geometry":{"type":"Point","coordinates":[117.022672,39.137151]},"properties":{"province":"天津市","city":"天津市","county":"西青区","community":"杨柳青镇星河湾花苑18号楼1门","full_address":"天津市天津市西青区杨柳青镇星河湾花苑18号楼1门","info":""}},{"type":"Feature","geometry":{"type":"Point","coordinates":[117.026807,39.1403]},"properties":{"province":"天津市","city":"天津市","county":"西青区","community":"杨柳青镇青馨园15号楼2门","full_address":"天津市天津市西青区杨柳青镇青馨园15号楼2门","info":""}},{"type":"Feature","geometry":{"type":"Point","coordinates":[117.033615,39.141357]},"properties":{"province":"天津市","city":"天津市","county":"西青区","community":"杨柳青镇建业里一条、建业里二条四号、五号","full_address":"天津市天津市西青区杨柳青镇建业里一条、建业里二条四号、五号","info":""}},{"type":"Feature","geometry":{"type":"Point","coordinates":[117.2135,39.05959]},"properties":{"province":"天津市","city":"天津市","county":"西青区","community":"津门湖街海逸长洲瀚景园1号楼2门","full_address":"天津市天津市西青区津门湖街海逸长洲瀚景园1号楼2门","info":""}},{"type":"Feature","geometry":{"type":"Point","coordinates":[117.040184,39.162941]},"properties":{"province":"天津市","city":"天津市","county":"北辰区","community":"青光镇铁锅店村良友胡同1-5号，致成道1号，兴旺胡同2号","full_address":"天津市天津市北辰区青光镇铁锅店村良友胡同1-5号，致成道1号，兴旺胡同2号","info":""}},{"type":"Feature","geometry":{"type":"Point","coordinates":[117.454695,38.859145]},"properties":{"province":"天津市","city":"天津市","county":"滨海新区","community":"大港街道地球村南区28号楼","full_address":"天津市天津市滨海新区大港街道地球村南区28号楼","info":""}},{"type":"Feature","geometry":{"type":"Point","coordinates":[117.742661,39.110325]},"properties":{"province":"天津市","city":"天津市","county":"滨海新区","community":"中新天津生态城鲲玺园5号楼","full_address":"天津市天津市滨海新区中新天津生态城鲲玺园5号楼","info":""}},{"type":"Feature","geometry":{"type":"Point","coordinates":[117.819885,39.259033]},"properties":{"province":"天津市","city":"天津市","county":"滨海新区","community":"汉沽街道学仕府15号楼","full_address":"天津市天津市滨海新区汉沽街道学仕府15号楼","info":""}},{"type":"Feature","geometry":{"type":"Point","coordinates":[117.985252,39.273132]},"properties":{"province":"天津市","city":"天津市","county":"滨海新区","community":"杨家泊镇高庄村文明街（29-34排）、中华街（22、26、29-32排）","full_address":"天津市天津市滨海新区杨家泊镇高庄村文明街（29-34排）、中华街（22、26、29-32排）","info":""}},{"type":"Feature","geometry":{"type":"Point","coordinates":[117.6693,39.03293]},"properties":{"province":"天津市","city":"天津市","county":"滨海新区","community":"杭州道街道韶山北里2号楼","full_address":"天津市天津市滨海新区杭州道街道韶山北里2号楼","info":""}},{"type":"Feature","geometry":{"type":"Point","coordinates":[116.788109,39.02813]},"properties":{"province":"天津市","city":"天津市","county":"静海区","community":"台头镇建设村东至郝润海胡同、南至村北二号路、西至郝文强胡同、北至新村委路合围区域；建设村东至梁台路、南至刘金树胡同、西至二号坑塘、北至郝家霞胡同合围区域；和平村东至和至巷、南至清河古道北岸、和吉巷、西至和意巷、北至明星路合围区域","full_address":"天津市天津市静海区台头镇建设村东至郝润海胡同、南至村北二号路、西至郝文强胡同、北至新村委路合围区域；建设村东至梁台路、南至刘金树胡同、西至二号坑塘、北至郝家霞胡同合围区域；和平村东至和至巷、南至清河古道北岸、和吉巷、西至和意巷、北至明星路合围区域","info":""}},{"type":"Feature","geometry":{"type":"Point","coordinates":[116.920616,38.93206]},"properties":{"province":"天津市","city":"天津市","county":"静海区","community":"静海镇古韵阳光家园4号楼","full_address":"天津市天津市静海区静海镇古韵阳光家园4号楼","info":""}},{"type":"Feature","geometry":{"type":"Point","coordinates":[116.788109,39.02813]},"properties":{"province":"天津市","city":"天津市","county":"静海区","community":"台头镇和平村东至章士道、南至明星路、西至和至巷、北至兴企路合围区域；建设村东至老东街水泥路、南至郝家祠堂南侧水泥路、西至和平三号胡同、北至三号巷王德龙房后合围区域；义和村东至利民道西端、南至义和针织厂、西至中心大街、北至义新道合围区域","full_address":"天津市天津市静海区台头镇和平村东至章士道、南至明星路、西至和至巷、北至兴企路合围区域；建设村东至老东街水泥路、南至郝家祠堂南侧水泥路、西至和平三号胡同、北至三号巷王德龙房后合围区域；义和村东至利民道西端、南至义和针织厂、西至中心大街、北至义新道合围区域","info":""}},{"type":"Feature","geometry":{"type":"Point","coordinates":[117.236443,40.013683]},"properties":{"province":"天津市","city":"天津市","county":"蓟州区","community":"白涧镇田吉素村一区5排8-10号、12号、14号、15号，6排8-16号，7排8-12号、15号、16号、24号，8排5-14号，9排6-12号，10排5号、6号、8-10号、13号","full_address":"天津市天津市蓟州区白涧镇田吉素村一区5排8-10号、12号、14号、15号，6排8-16号，7排8-12号、15号、16号、24号，8排5-14号，9排6-12号，10排5号、6号、8-10号、13号","info":""}},{"type":"Feature","geometry":{"type":"Point","coordinates":[117.265488,39.998463]},"properties":{"province":"天津市","city":"天津市","county":"蓟州区","community":"邦均镇王胜明停车场（邦均镇宝平路信忠管业对面）","full_address":"天津市天津市蓟州区邦均镇王胜明停车场（邦均镇宝平路信忠管业对面）","info":""}},{"type":"Feature","geometry":{"type":"Point","coordinates":[117.236443,40.013683]},"properties":{"province":"天津市","city":"天津市","county":"蓟州区","community":"白涧镇田吉素村1区1排7-8号、11-15号、18号、30号，2排8-12号、14-16号、22号，3排7-16号，4排8-17号，8排1-3号，8排4号（天启佳副食百货），4区1排16号","full_address":"天津市天津市蓟州区白涧镇田吉素村1区1排7-8号、11-15号、18号、30号，2排8-12号、14-16号、22号，3排7-16号，4排8-17号，8排1-3号，8排4号（天启佳副食百货），4区1排16号","info":""}},{"type":"Feature","geometry":{"type":"Point","coordinates":[114.556061,38.061291]},"properties":{"province":"河北省","city":"石家庄市","county":"长安区","community":"长丰街道紫晶悦城小区","full_address":"河北省石家庄市长安区长丰街道紫晶悦城小区","info":""}},{"type":"Feature","geometry":{"type":"Point","coordinates":[114.579369,38.048859]},"properties":{"province":"河北省","city":"石家庄市","county":"长安区","community":"银龙南区","full_address":"河北省石家庄市长安区银龙南区","info":""}},{"type":"Feature","geometry":{"type":"Point","coordinates":[114.5665,38.04616]},"properties":{"province":"河北省","city":"石家庄市","county":"长安区","community":"瑞城E区","full_address":"河北省石家庄市长安区瑞城E区","info":""}},{"type":"Feature","geometry":{"type":"Point","coordinates":[114.570457,38.042461]},"properties":{"province":"河北省","city":"石家庄市","county":"长安区","community":"金谈固小区","full_address":"河北省石家庄市长安区金谈固小区","info":""}},{"type":"Feature","geometry":{"type":"Point","coordinates":[114.578781,38.042461]},"properties":{"province":"河北省","city":"石家庄市","county":"长安区","community":"瑞景华庭小区","full_address":"河北省石家庄市长安区瑞景华庭小区","info":""}},{"type":"Feature","geometry":{"type":"Point","coordinates":[114.583176,38.042377]},"properties":{"province":"河北省","city":"石家庄市","county":"长安区","community":"华宸怡园小区","full_address":"河北省石家庄市长安区华宸怡园小区","info":""}},{"type":"Feature","geometry":{"type":"Point","coordinates":[114.573235,38.041985]},"properties":{"province":"河北省","city":"石家庄市","county":"长安区","community":"谈固新村","full_address":"河北省石家庄市长安区谈固新村","info":""}},{"type":"Feature","geometry":{"type":"Point","coordinates":[114.563904,38.078659]},"properties":{"province":"河北省","city":"石家庄市","county":"长安区","community":"高营镇富瀛苏园小区","full_address":"河北省石家庄市长安区高营镇富瀛苏园小区","info":""}},{"type":"Feature","geometry":{"type":"Point","coordinates":[114.528114,38.094902]},"properties":{"province":"河北省","city":"石家庄市","county":"长安区","community":"龙溪城小区","full_address":"河北省石家庄市长安区龙溪城小区","info":""}},{"type":"Feature","geometry":{"type":"Point","coordinates":[114.54335,38.09285]},"properties":{"province":"河北省","city":"石家庄市","county":"长安区","community":"瀚唐小区","full_address":"河北省石家庄市长安区瀚唐小区","info":""}},{"type":"Feature","geometry":{"type":"Point","coordinates":[114.534264,38.094193]},"properties":{"province":"河北省","city":"石家庄市","county":"长安区","community":"西古城小区","full_address":"河北省石家庄市长安区西古城小区","info":""}},{"type":"Feature","geometry":{"type":"Point","coordinates":[114.571411,38.066921]},"properties":{"province":"河北省","city":"石家庄市","county":"长安区","community":"长丰街道秋景怡园小区","full_address":"河北省石家庄市长安区长丰街道秋景怡园小区","info":""}},{"type":"Feature","geometry":{"type":"Point","coordinates":[114.510368,38.094021]},"properties":{"province":"河北省","city":"石家庄市","county":"长安区","community":"桃园镇北部时光小区","full_address":"河北省石家庄市长安区桃园镇北部时光小区","info":""}},{"type":"Feature","geometry":{"type":"Point","coordinates":[114.519341,38.098122]},"properties":{"province":"河北省","city":"石家庄市","county":"长安区","community":"柳辛庄旧村","full_address":"河北省石家庄市长安区柳辛庄旧村","info":""}},{"type":"Feature","geometry":{"type":"Point","coordinates":[114.498512,38.051151]},"properties":{"province":"河北省","city":"石家庄市","county":"长安区","community":"阜康街道栗新小区","full_address":"河北省石家庄市长安区阜康街道栗新小区","info":""}},{"type":"Feature","geometry":{"type":"Point","coordinates":[114.497208,38.05291]},"properties":{"province":"河北省","city":"石家庄市","county":"长安区","community":"自由港","full_address":"河北省石家庄市长安区自由港","info":""}},{"type":"Feature","geometry":{"type":"Point","coordinates":[114.500458,38.059101]},"properties":{"province":"河北省","city":"石家庄市","county":"长安区","community":"鑫利时间国际","full_address":"河北省石家庄市长安区鑫利时间国际","info":""}},{"type":"Feature","geometry":{"type":"Point","coordinates":[114.565132,38.0383]},"properties":{"province":"河北省","city":"石家庄市","county":"长安区","community":"谈固街道建明小区","full_address":"河北省石家庄市长安区谈固街道建明小区","info":""}},{"type":"Feature","geometry":{"type":"Point","coordinates":[114.550903,38.104137]},"properties":{"province":"河北省","city":"石家庄市","county":"长安区","community":"高营镇山水家园小区A座","full_address":"河北省石家庄市长安区高营镇山水家园小区A座","info":""}},{"type":"Feature","geometry":{"type":"Point","coordinates":[114.587349,38.040462]},"properties":{"province":"河北省","city":"石家庄市","county":"长安区","community":"谈固街道白佛家园小区7号楼","full_address":"河北省石家庄市长安区谈固街道白佛家园小区7号楼","info":""}},{"type":"Feature","geometry":{"type":"Point","coordinates":[114.571289,38.052502]},"properties":{"province":"河北省","city":"石家庄市","county":"长安区","community":"瑞府小区12号楼","full_address":"河北省石家庄市长安区瑞府小区12号楼","info":""}},{"type":"Feature","geometry":{"type":"Point","coordinates":[114.570671,38.04277]},"properties":{"province":"河北省","city":"石家庄市","county":"长安区","community":"融通财金大厦","full_address":"河北省石家庄市长安区融通财金大厦","info":""}},{"type":"Feature","geometry":{"type":"Point","coordinates":[114.520103,38.073837]},"properties":{"province":"河北省","city":"石家庄市","county":"长安区","community":"长丰街道北城国际小区B区14号楼","full_address":"河北省石家庄市长安区长丰街道北城国际小区B区14号楼","info":""}},{"type":"Feature","geometry":{"type":"Point","coordinates":[114.50707,38.07339]},"properties":{"province":"河北省","city":"石家庄市","county":"长安区","community":"胜北街道国瑞园北区1号楼","full_address":"河北省石家庄市长安区胜北街道国瑞园北区1号楼","info":""}},{"type":"Feature","geometry":{"type":"Point","coordinates":[114.551022,38.055954]},"properties":{"province":"河北省","city":"石家庄市","county":"长安区","community":"跃进街道盛世长安小区10号楼","full_address":"河北省石家庄市长安区跃进街道盛世长安小区10号楼","info":""}},{"type":"Feature","geometry":{"type":"Point","coordinates":[114.531029,38.04948]},"properties":{"province":"河北省","city":"石家庄市","county":"长安区","community":"育才街道华药一区10号楼","full_address":"河北省石家庄市长安区育才街道华药一区10号楼","info":""}},{"type":"Feature","geometry":{"type":"Point","coordinates":[114.529762,38.085438]},"properties":{"province":"河北省","city":"石家庄市","county":"长安区","community":"桃园镇恒立苑小区13号楼","full_address":"河北省石家庄市长安区桃园镇恒立苑小区13号楼","info":""}},{"type":"Feature","geometry":{"type":"Point","coordinates":[114.50085,38.09158]},"properties":{"province":"河北省","city":"石家庄市","county":"长安区","community":"陈章小区7号楼","full_address":"河北省石家庄市长安区陈章小区7号楼","info":""}},{"type":"Feature","geometry":{"type":"Point","coordinates":[114.5665,38.04616]},"properties":{"province":"河北省","city":"石家庄市","county":"长安区","community":"谈固街道瑞城C区7号楼","full_address":"河北省石家庄市长安区谈固街道瑞城C区7号楼","info":""}},{"type":"Feature","geometry":{"type":"Point","coordinates":[114.641342,38.062466]},"properties":{"province":"河北省","city":"石家庄市","county":"长安区","community":"南村镇南村社区育才街42号","full_address":"河北省石家庄市长安区南村镇南村社区育才街42号","info":""}},{"type":"Feature","geometry":{"type":"Point","coordinates":[114.523468,38.046402]},"properties":{"province":"河北省","city":"石家庄市","county":"长安区","community":"广安街道棉三生活区74号楼","full_address":"河北省石家庄市长安区广安街道棉三生活区74号楼","info":""}},{"type":"Feature","geometry":{"type":"Point","coordinates":[114.519966,38.045216]},"properties":{"province":"河北省","city":"石家庄市","county":"长安区","community":"青园街道汇景家园棉二生活区16号楼","full_address":"河北省石家庄市长安区青园街道汇景家园棉二生活区16号楼","info":""}},{"type":"Feature","geometry":{"type":"Point","coordinates":[114.581805,38.074443]},"properties":{"province":"河北省","city":"石家庄市","county":"长安区","community":"西兆通镇观天下小区1号楼","full_address":"河北省石家庄市长安区西兆通镇观天下小区1号楼","info":""}},{"type":"Feature","geometry":{"type":"Point","coordinates":[114.55914,38.08576]},"properties":{"province":"河北省","city":"石家庄市","county":"长安区","community":"高营镇恒大御景半岛二期22号楼","full_address":"河北省石家庄市长安区高营镇恒大御景半岛二期22号楼","info":""}},{"type":"Feature","geometry":{"type":"Point","coordinates":[114.503838,38.088863]},"properties":{"province":"河北省","city":"石家庄市","county":"长安区","community":"桃园镇柳董庄南区29号楼","full_address":"河北省石家庄市长安区桃园镇柳董庄南区29号楼","info":""}},{"type":"Feature","geometry":{"type":"Point","coordinates":[114.496556,38.056534]},"properties":{"province":"河北省","city":"石家庄市","county":"长安区","community":"阜康街道明日郡4号楼","full_address":"河北省石家庄市长安区阜康街道明日郡4号楼","info":""}},{"type":"Feature","geometry":{"type":"Point","coordinates":[114.539925,38.072041]},"properties":{"province":"河北省","city":"石家庄市","county":"长安区","community":"长丰街道保利花园D区3号楼","full_address":"河北省石家庄市长安区长丰街道保利花园D区3号楼","info":""}},{"type":"Feature","geometry":{"type":"Point","coordinates":[114.522,38.0737]},"properties":{"province":"河北省","city":"石家庄市","county":"长安区","community":"沿东小区41号楼","full_address":"河北省石家庄市长安区沿东小区41号楼","info":""}},{"type":"Feature","geometry":{"type":"Point","coordinates":[114.519768,38.118031]},"properties":{"province":"河北省","city":"石家庄市","county":"长安区","community":"桃园镇国际总部花园1号楼","full_address":"河北省石家庄市长安区桃园镇国际总部花园1号楼","info":""}},{"type":"Feature","geometry":{"type":"Point","coordinates":[114.518906,38.053345]},"properties":{"province":"河北省","city":"石家庄市","county":"长安区","community":"铂宫时代2号楼","full_address":"河北省石家庄市长安区铂宫时代2号楼","info":""}},{"type":"Feature","geometry":{"type":"Point","coordinates":[114.625275,38.055264]},"properties":{"province":"河北省","city":"石家庄市","county":"长安区","community":"西兆通镇御江景城13号楼","full_address":"河北省石家庄市长安区西兆通镇御江景城13号楼","info":""}},{"type":"Feature","geometry":{"type":"Point","coordinates":[114.580688,38.077488]},"properties":{"province":"河北省","city":"石家庄市","county":"长安区","community":"南石新村2号楼","full_address":"河北省石家庄市长安区南石新村2号楼","info":""}},{"type":"Feature","geometry":{"type":"Point","coordinates":[114.51379,38.05944]},"properties":{"province":"河北省","city":"石家庄市","county":"长安区","community":"建北街道光华生活小区1号楼","full_address":"河北省石家庄市长安区建北街道光华生活小区1号楼","info":""}},{"type":"Feature","geometry":{"type":"Point","coordinates":[114.551399,38.047279]},"properties":{"province":"河北省","city":"石家庄市","county":"长安区","community":"跃进街道上东城南区8号楼","full_address":"河北省石家庄市长安区跃进街道上东城南区8号楼","info":""}},{"type":"Feature","geometry":{"type":"Point","coordinates":[114.50074,38.06688]},"properties":{"province":"河北省","city":"石家庄市","county":"长安区","community":"阜康街道七四二零南苑小区3号楼","full_address":"河北省石家庄市长安区阜康街道七四二零南苑小区3号楼","info":""}},{"type":"Feature","geometry":{"type":"Point","coordinates":[114.54447,38.04548]},"properties":{"province":"河北省","city":"石家庄市","county":"长安区","community":"河东街道河纺北大院2号楼","full_address":"河北省石家庄市长安区河东街道河纺北大院2号楼","info":""}},{"type":"Feature","geometry":{"type":"Point","coordinates":[114.516678,38.09211]},"properties":{"province":"河北省","city":"石家庄市","county":"长安区","community":"胜北街道汽制宿舍6号楼","full_address":"河北省石家庄市长安区胜北街道汽制宿舍6号楼","info":""}},{"type":"Feature","geometry":{"type":"Point","coordinates":[114.499168,38.049122]},"properties":{"province":"河北省","city":"石家庄市","county":"长安区","community":"阜康街道市政公司宿舍4号楼","full_address":"河北省石家庄市长安区阜康街道市政公司宿舍4号楼","info":""}},{"type":"Feature","geometry":{"type":"Point","coordinates":[114.49969,38.05043]},"properties":{"province":"河北省","city":"石家庄市","county":"长安区","community":"社保局宿舍1号楼","full_address":"河北省石家庄市长安区社保局宿舍1号楼","info":""}},{"type":"Feature","geometry":{"type":"Point","coordinates":[114.49977,38.06204]},"properties":{"province":"河北省","city":"石家庄市","county":"长安区","community":"神州嘉园15号楼","full_address":"河北省石家庄市长安区神州嘉园15号楼","info":""}},{"type":"Feature","geometry":{"type":"Point","coordinates":[114.554321,38.087418]},"properties":{"province":"河北省","city":"石家庄市","county":"长安区","community":"高营镇北高营新村高层8号楼","full_address":"河北省石家庄市长安区高营镇北高营新村高层8号楼","info":""}},{"type":"Feature","geometry":{"type":"Point","coordinates":[114.546333,38.042973]},"properties":{"province":"河北省","city":"石家庄市","county":"长安区","community":"劳技小区1号楼","full_address":"河北省石家庄市长安区劳技小区1号楼","info":""}},{"type":"Feature","geometry":{"type":"Point","coordinates":[114.557888,38.086291]},"properties":{"province":"河北省","city":"石家庄市","county":"长安区","community":"南高营回迁二区13号楼","full_address":"河北省石家庄市长安区南高营回迁二区13号楼","info":""}},{"type":"Feature","geometry":{"type":"Point","coordinates":[114.50268,38.05633]},"properties":{"province":"河北省","city":"石家庄市","county":"长安区","community":"建安街道荣景园9号楼、14号楼、21号楼","full_address":"河北省石家庄市长安区建安街道荣景园9号楼、14号楼、21号楼","info":""}},{"type":"Feature","geometry":{"type":"Point","coordinates":[114.502121,38.049152]},"properties":{"province":"河北省","city":"石家庄市","county":"长安区","community":"中基礼域15号楼","full_address":"河北省石家庄市长安区中基礼域15号楼","info":""}},{"type":"Feature","geometry":{"type":"Point","coordinates":[114.50558,38.05923]},"properties":{"province":"河北省","city":"石家庄市","county":"长安区","community":"御景园小区1号楼","full_address":"河北省石家庄市长安区御景园小区1号楼","info":""}},{"type":"Feature","geometry":{"type":"Point","coordinates":[114.51292,38.06411]},"properties":{"province":"河北省","city":"石家庄市","county":"长安区","community":"建北街道新浩城北区1号楼","full_address":"河北省石家庄市长安区建北街道新浩城北区1号楼","info":""}},{"type":"Feature","geometry":{"type":"Point","coordinates":[114.51349,38.07127]},"properties":{"province":"河北省","city":"石家庄市","county":"长安区","community":"尚乘源6号楼","full_address":"河北省石家庄市长安区尚乘源6号楼","info":""}},{"type":"Feature","geometry":{"type":"Point","coordinates":[114.505104,38.036961]},"properties":{"province":"河北省","city":"石家庄市","county":"长安区","community":"房管所宿舍1号楼","full_address":"河北省石家庄市长安区房管所宿舍1号楼","info":""}},{"type":"Feature","geometry":{"type":"Point","coordinates":[114.51569,38.08511]},"properties":{"province":"河北省","city":"石家庄市","county":"长安区","community":"胜北街道国粹小区2号楼","full_address":"河北省石家庄市长安区胜北街道国粹小区2号楼","info":""}},{"type":"Feature","geometry":{"type":"Point","coordinates":[114.52068,38.09225]},"properties":{"province":"河北省","city":"石家庄市","county":"长安区","community":"化肥四区15号楼","full_address":"河北省石家庄市长安区化肥四区15号楼","info":""}},{"type":"Feature","geometry":{"type":"Point","coordinates":[114.503967,38.070377]},"properties":{"province":"河北省","city":"石家庄市","county":"长安区","community":"南屏园7号楼","full_address":"河北省石家庄市长安区南屏园7号楼","info":""}},{"type":"Feature","geometry":{"type":"Point","coordinates":[114.51133,38.07706]},"properties":{"province":"河北省","city":"石家庄市","county":"长安区","community":"石纺小区25号楼","full_address":"河北省石家庄市长安区石纺小区25号楼","info":""}},{"type":"Feature","geometry":{"type":"Point","coordinates":[114.513092,38.0849]},"properties":{"province":"河北省","city":"石家庄市","county":"长安区","community":"铁道大学家属院12号楼","full_address":"河北省石家庄市长安区铁道大学家属院12号楼","info":""}},{"type":"Feature","geometry":{"type":"Point","coordinates":[114.52164,38.08394]},"properties":{"province":"河北省","city":"石家庄市","county":"长安区","community":"庄窠小区34号楼","full_address":"河北省石家庄市长安区庄窠小区34号楼","info":""}},{"type":"Feature","geometry":{"type":"Point","coordinates":[114.506844,38.08839]},"properties":{"province":"河北省","city":"石家庄市","county":"长安区","community":"桃园镇都市怡景小区6号楼、16号楼、17号楼、23号楼","full_address":"河北省石家庄市长安区桃园镇都市怡景小区6号楼、16号楼、17号楼、23号楼","info":""}},{"type":"Feature","geometry":{"type":"Point","coordinates":[114.52375,38.098721]},"properties":{"province":"河北省","city":"石家庄市","county":"长安区","community":"聚鑫园社区2号楼、6号楼、8号楼、12号楼、14号楼","full_address":"河北省石家庄市长安区聚鑫园社区2号楼、6号楼、8号楼、12号楼、14号楼","info":""}},{"type":"Feature","geometry":{"type":"Point","coordinates":[114.521507,38.085621]},"properties":{"province":"河北省","city":"石家庄市","county":"长安区","community":"古运码头二期5号楼","full_address":"河北省石家庄市长安区古运码头二期5号楼","info":""}},{"type":"Feature","geometry":{"type":"Point","coordinates":[114.511551,38.094112]},"properties":{"province":"河北省","city":"石家庄市","county":"长安区","community":"荣昌西花园5号楼","full_address":"河北省石家庄市长安区荣昌西花园5号楼","info":""}},{"type":"Feature","geometry":{"type":"Point","coordinates":[114.518501,38.073837]},"properties":{"province":"河北省","city":"石家庄市","county":"长安区","community":"长丰街道北城国际A区11号楼","full_address":"河北省石家庄市长安区长丰街道北城国际A区11号楼","info":""}},{"type":"Feature","geometry":{"type":"Point","coordinates":[114.559433,38.07103]},"properties":{"province":"河北省","city":"石家庄市","county":"长安区","community":"天洲沁园小区1号楼","full_address":"河北省石家庄市长安区天洲沁园小区1号楼","info":""}},{"type":"Feature","geometry":{"type":"Point","coordinates":[114.49338,38.09968]},"properties":{"province":"河北省","city":"石家庄市","county":"长安区","community":"区桃园镇肖家营小区15号楼","full_address":"河北省石家庄市长安区区桃园镇肖家营小区15号楼","info":""}},{"type":"Feature","geometry":{"type":"Point","coordinates":[114.522507,38.106628]},"properties":{"province":"河北省","city":"石家庄市","county":"长安区","community":"半岛名邸回迁区6号楼","full_address":"河北省石家庄市长安区半岛名邸回迁区6号楼","info":""}},{"type":"Feature","geometry":{"type":"Point","coordinates":[114.51473,38.09248]},"properties":{"province":"河北省","city":"石家庄市","county":"长安区","community":"胜北街道柳阳佳园1号楼","full_address":"河北省石家庄市长安区胜北街道柳阳佳园1号楼","info":""}},{"type":"Feature","geometry":{"type":"Point","coordinates":[114.51808,38.09093]},"properties":{"province":"河北省","city":"石家庄市","county":"长安区","community":"顺柳巷4号院17号楼","full_address":"河北省石家庄市长安区顺柳巷4号院17号楼","info":""}},{"type":"Feature","geometry":{"type":"Point","coordinates":[114.570648,38.044682]},"properties":{"province":"河北省","city":"石家庄市","county":"长安区","community":"谈固街道东方魅力商住大厦1号楼","full_address":"河北省石家庄市长安区谈固街道东方魅力商住大厦1号楼","info":""}},{"type":"Feature","geometry":{"type":"Point","coordinates":[114.540611,38.095131]},"properties":{"province":"河北省","city":"石家庄市","county":"长安区","community":"高营镇东古城村高层1号楼","full_address":"河北省石家庄市长安区高营镇东古城村高层1号楼","info":""}},{"type":"Feature","geometry":{"type":"Point","coordinates":[114.52726,38.049522]},"properties":{"province":"河北省","city":"石家庄市","county":"长安区","community":"广安街道棉四小区42号楼","full_address":"河北省石家庄市长安区广安街道棉四小区42号楼","info":""}},{"type":"Feature","geometry":{"type":"Point","coordinates":[114.507851,38.05246]},"properties":{"province":"河北省","city":"石家庄市","county":"长安区","community":"建安街道华平苑8号楼","full_address":"河北省石家庄市长安区建安街道华平苑8号楼","info":""}},{"type":"Feature","geometry":{"type":"Point","coordinates":[114.519577,38.052299]},"properties":{"province":"河北省","city":"石家庄市","county":"长安区","community":"建北街道谈后小区6号楼","full_address":"河北省石家庄市长安区建北街道谈后小区6号楼","info":""}},{"type":"Feature","geometry":{"type":"Point","coordinates":[114.515366,38.064095]},"properties":{"province":"河北省","city":"石家庄市","county":"长安区","community":"花园小区A区7号楼","full_address":"河北省石家庄市长安区花园小区A区7号楼","info":""}},{"type":"Feature","geometry":{"type":"Point","coordinates":[114.529991,38.047001]},"properties":{"province":"河北省","city":"石家庄市","county":"长安区","community":"育才街道碧景园小区6、10、14号楼","full_address":"河北省石家庄市长安区育才街道碧景园小区6、10、14号楼","info":""}},{"type":"Feature","geometry":{"type":"Point","coordinates":[114.399269,38.065701]},"properties":{"province":"河北省","city":"石家庄市","county":"桥西区","community":"留营街道幸福城B区5号楼","full_address":"河北省石家庄市桥西区留营街道幸福城B区5号楼","info":""}},{"type":"Feature","geometry":{"type":"Point","coordinates":[114.42355,38.0566]},"properties":{"province":"河北省","city":"石家庄市","county":"桥西区","community":"鑫泽苑2号楼","full_address":"河北省石家庄市桥西区鑫泽苑2号楼","info":""}},{"type":"Feature","geometry":{"type":"Point","coordinates":[114.413528,38.032722]},"properties":{"province":"河北省","city":"石家庄市","county":"桥西区","community":"苑东街道东胜紫御府4号地块1号楼","full_address":"河北省石家庄市桥西区苑东街道东胜紫御府4号地块1号楼","info":""}},{"type":"Feature","geometry":{"type":"Point","coordinates":[114.451576,38.04039]},"properties":{"province":"河北省","city":"石家庄市","county":"桥西区","community":"友谊街道工商银行印刷厂宿舍2号楼","full_address":"河北省石家庄市桥西区友谊街道工商银行印刷厂宿舍2号楼","info":""}},{"type":"Feature","geometry":{"type":"Point","coordinates":[114.399269,38.065701]},"properties":{"province":"河北省","city":"石家庄市","county":"桥西区","community":"留营街道幸福城B区2号楼、4号楼","full_address":"河北省石家庄市桥西区留营街道幸福城B区2号楼、4号楼","info":""}},{"type":"Feature","geometry":{"type":"Point","coordinates":[114.491264,38.018414]},"properties":{"province":"河北省","city":"石家庄市","county":"桥西区","community":"汇通街道华城绿洲一期6号楼","full_address":"河北省石家庄市桥西区汇通街道华城绿洲一期6号楼","info":""}},{"type":"Feature","geometry":{"type":"Point","coordinates":[114.49791,37.986534]},"properties":{"province":"河北省","city":"石家庄市","county":"桥西区","community":"凯旋城小区3号楼","full_address":"河北省石家庄市桥西区凯旋城小区3号楼","info":""}},{"type":"Feature","geometry":{"type":"Point","coordinates":[114.486107,38.02702]},"properties":{"province":"河北省","city":"石家庄市","county":"桥西区","community":"南长街道天元小区5号楼","full_address":"河北省石家庄市桥西区南长街道天元小区5号楼","info":""}},{"type":"Feature","geometry":{"type":"Point","coordinates":[114.4639,38.03401]},"properties":{"province":"河北省","city":"石家庄市","county":"桥西区","community":"东里街道草场街9号环保厅宿舍2号楼","full_address":"河北省石家庄市桥西区东里街道草场街9号环保厅宿舍2号楼","info":""}},{"type":"Feature","geometry":{"type":"Point","coordinates":[114.404594,38.061531]},"properties":{"province":"河北省","city":"石家庄市","county":"桥西区","community":"留营街道良城逸园小区","full_address":"河北省石家庄市桥西区留营街道良城逸园小区","info":""}},{"type":"Feature","geometry":{"type":"Point","coordinates":[114.46104,38.00407]},"properties":{"province":"河北省","city":"石家庄市","county":"桥西区","community":"联邦外国语学校","full_address":"河北省石家庄市桥西区联邦外国语学校","info":""}},{"type":"Feature","geometry":{"type":"Point","coordinates":[114.448982,38.03532]},"properties":{"province":"河北省","city":"石家庄市","county":"桥西区","community":"友谊街道市场园西园","full_address":"河北省石家庄市桥西区友谊街道市场园西园","info":""}},{"type":"Feature","geometry":{"type":"Point","coordinates":[114.461639,37.978779]},"properties":{"province":"河北省","city":"石家庄市","county":"桥西区","community":"红旗街道河北工业职业技术大学","full_address":"河北省石家庄市桥西区红旗街道河北工业职业技术大学","info":""}},{"type":"Feature","geometry":{"type":"Point","coordinates":[114.456085,38.011703]},"properties":{"province":"河北省","city":"石家庄市","county":"桥西区","community":"河北师范大学附属民族学院","full_address":"河北省石家庄市桥西区河北师范大学附属民族学院","info":""}},{"type":"Feature","geometry":{"type":"Point","coordinates":[114.482635,38.097149]},"properties":{"province":"河北省","city":"石家庄市","county":"新华区","community":"赵佗路街道赵二街小区","full_address":"河北省石家庄市新华区赵佗路街道赵二街小区","info":""}},{"type":"Feature","geometry":{"type":"Point","coordinates":[114.47596,38.098011]},"properties":{"province":"河北省","city":"石家庄市","county":"新华区","community":"赵陵铺路街道北郡A区","full_address":"河北省石家庄市新华区赵陵铺路街道北郡A区","info":""}},{"type":"Feature","geometry":{"type":"Point","coordinates":[114.470322,38.090569]},"properties":{"province":"河北省","city":"石家庄市","county":"新华区","community":"党家庄小区","full_address":"河北省石家庄市新华区党家庄小区","info":""}},{"type":"Feature","geometry":{"type":"Point","coordinates":[114.486443,38.096539]},"properties":{"province":"河北省","city":"石家庄市","county":"新华区","community":"赵佗路街道鑫城小区","full_address":"河北省石家庄市新华区赵佗路街道鑫城小区","info":""}},{"type":"Feature","geometry":{"type":"Point","coordinates":[114.482231,38.079563]},"properties":{"province":"河北省","city":"石家庄市","county":"新华区","community":"石岗街道柏林北区","full_address":"河北省石家庄市新华区石岗街道柏林北区","info":""}},{"type":"Feature","geometry":{"type":"Point","coordinates":[114.466949,38.09201]},"properties":{"province":"河北省","city":"石家庄市","county":"新华区","community":"赵陵铺路街道赵一街西区","full_address":"河北省石家庄市新华区赵陵铺路街道赵一街西区","info":""}},{"type":"Feature","geometry":{"type":"Point","coordinates":[114.485023,38.052528]},"properties":{"province":"河北省","city":"石家庄市","county":"新华区","community":"新华路街道宁安小区","full_address":"河北省石家庄市新华区新华路街道宁安小区","info":""}},{"type":"Feature","geometry":{"type":"Point","coordinates":[114.461227,38.100029]},"properties":{"province":"河北省","city":"石家庄市","county":"新华区","community":"赵陵铺路街道都市阳光小区","full_address":"河北省石家庄市新华区赵陵铺路街道都市阳光小区","info":""}},{"type":"Feature","geometry":{"type":"Point","coordinates":[114.471909,38.109261]},"properties":{"province":"河北省","city":"石家庄市","county":"新华区","community":"杜北街道乾园小区","full_address":"河北省石家庄市新华区杜北街道乾园小区","info":""}},{"type":"Feature","geometry":{"type":"Point","coordinates":[114.46846,38.111351]},"properties":{"province":"河北省","city":"石家庄市","county":"新华区","community":"南高基小区","full_address":"河北省石家庄市新华区南高基小区","info":""}},{"type":"Feature","geometry":{"type":"Point","coordinates":[114.47171,38.09398]},"properties":{"province":"河北省","city":"石家庄市","county":"新华区","community":"赵陵铺路街道新苑小区9、42号楼","full_address":"河北省石家庄市新华区赵陵铺路街道新苑小区9、42号楼","info":""}},{"type":"Feature","geometry":{"type":"Point","coordinates":[114.464478,38.095821]},"properties":{"province":"河北省","city":"石家庄市","county":"新华区","community":"世纪康城16、20号楼","full_address":"河北省石家庄市新华区世纪康城16、20号楼","info":""}},{"type":"Feature","geometry":{"type":"Point","coordinates":[114.456558,38.101051]},"properties":{"province":"河北省","city":"石家庄市","county":"新华区","community":"丽都河畔12、18、19号楼","full_address":"河北省石家庄市新华区丽都河畔12、18、19号楼","info":""}},{"type":"Feature","geometry":{"type":"Point","coordinates":[114.47303,38.098022]},"properties":{"province":"河北省","city":"石家庄市","county":"新华区","community":"北郡B区2、4、9号楼","full_address":"河北省石家庄市新华区北郡B区2、4、9号楼","info":""}},{"type":"Feature","geometry":{"type":"Point","coordinates":[114.467842,38.095814]},"properties":{"province":"河北省","city":"石家庄市","county":"新华区","community":"北郡C区6、9、12号楼","full_address":"河北省石家庄市新华区北郡C区6、9、12号楼","info":""}},{"type":"Feature","geometry":{"type":"Point","coordinates":[114.411583,38.078503]},"properties":{"province":"河北省","city":"石家庄市","county":"新华区","community":"大郭街道水印城2、10号楼","full_address":"河北省石家庄市新华区大郭街道水印城2、10号楼","info":""}},{"type":"Feature","geometry":{"type":"Point","coordinates":[114.405479,38.085934]},"properties":{"province":"河北省","city":"石家庄市","county":"新华区","community":"聚和苑西区1号楼","full_address":"河北省石家庄市新华区聚和苑西区1号楼","info":""}},{"type":"Feature","geometry":{"type":"Point","coordinates":[114.486221,38.049744]},"properties":{"province":"河北省","city":"石家庄市","county":"新华区","community":"新华路街道北后东区14、15、18号楼","full_address":"河北省石家庄市新华区新华路街道北后东区14、15、18号楼","info":""}},{"type":"Feature","geometry":{"type":"Point","coordinates":[114.487137,38.048859]},"properties":{"province":"河北省","city":"石家庄市","county":"新华区","community":"美麟花园1、6号楼","full_address":"河北省石家庄市新华区美麟花园1、6号楼","info":""}},{"type":"Feature","geometry":{"type":"Point","coordinates":[114.443489,38.120815]},"properties":{"province":"河北省","city":"石家庄市","county":"新华区","community":"杜北街道御江南小区35、39号楼","full_address":"河北省石家庄市新华区杜北街道御江南小区35、39号楼","info":""}},{"type":"Feature","geometry":{"type":"Point","coordinates":[114.443123,38.127258]},"properties":{"province":"河北省","city":"石家庄市","county":"新华区","community":"香水岸3、4、10号楼","full_address":"河北省石家庄市新华区香水岸3、4、10号楼","info":""}},{"type":"Feature","geometry":{"type":"Point","coordinates":[114.456367,38.106216]},"properties":{"province":"河北省","city":"石家庄市","county":"新华区","community":"润佳花园小区17、18号楼","full_address":"河北省石家庄市新华区润佳花园小区17、18号楼","info":""}},{"type":"Feature","geometry":{"type":"Point","coordinates":[114.480545,38.092117]},"properties":{"province":"河北省","city":"石家庄市","county":"新华区","community":"赵佗路街道华瑞苑小区","full_address":"河北省石家庄市新华区赵佗路街道华瑞苑小区","info":""}},{"type":"Feature","geometry":{"type":"Point","coordinates":[114.485374,38.087906]},"properties":{"province":"河北省","city":"石家庄市","county":"新华区","community":"明珠花苑小区2、8、11、15、20号楼","full_address":"河北省石家庄市新华区明珠花苑小区2、8、11、15、20号楼","info":""}},{"type":"Feature","geometry":{"type":"Point","coordinates":[114.474159,38.10054]},"properties":{"province":"河北省","city":"石家庄市","county":"新华区","community":"赵二街花苑小区1、3、10号楼","full_address":"河北省石家庄市新华区赵二街花苑小区1、3、10号楼","info":""}},{"type":"Feature","geometry":{"type":"Point","coordinates":[114.487648,38.094475]},"properties":{"province":"河北省","city":"石家庄市","county":"新华区","community":"安康花园小区1、2、3号楼","full_address":"河北省石家庄市新华区安康花园小区1、2、3号楼","info":""}},{"type":"Feature","geometry":{"type":"Point","coordinates":[114.488808,38.087952]},"properties":{"province":"河北省","city":"石家庄市","county":"新华区","community":"天域嘉园小区2、6、9号楼","full_address":"河北省石家庄市新华区天域嘉园小区2、6、9号楼","info":""}},{"type":"Feature","geometry":{"type":"Point","coordinates":[114.55164,37.99092]},"properties":{"province":"河北省","city":"石家庄市","county":"裕华区","community":"建华南街道风尚水郡北区3号楼","full_address":"河北省石家庄市裕华区建华南街道风尚水郡北区3号楼","info":""}},{"type":"Feature","geometry":{"type":"Point","coordinates":[114.507507,38.004539]},"properties":{"province":"河北省","city":"石家庄市","county":"裕华区","community":"建通街道盛邦花园五区6号楼","full_address":"河北省石家庄市裕华区建通街道盛邦花园五区6号楼","info":""}},{"type":"Feature","geometry":{"type":"Point","coordinates":[114.57108,38.03427]},"properties":{"province":"河北省","city":"石家庄市","county":"裕华区","community":"裕东街道银通小区园艺园4号楼","full_address":"河北省石家庄市裕华区裕东街道银通小区园艺园4号楼","info":""}},{"type":"Feature","geometry":{"type":"Point","coordinates":[114.571121,38.033184]},"properties":{"province":"河北省","city":"石家庄市","county":"裕华区","community":"裕东街道银通小区园艺院宿舍2号楼","full_address":"河北省石家庄市裕华区裕东街道银通小区园艺院宿舍2号楼","info":""}},{"type":"Feature","geometry":{"type":"Point","coordinates":[114.500683,37.985895]},"properties":{"province":"河北省","city":"石家庄市","county":"裕华区","community":"裕翔街道青年时光城4号楼","full_address":"河北省石家庄市裕华区裕翔街道青年时光城4号楼","info":""}},{"type":"Feature","geometry":{"type":"Point","coordinates":[114.564549,37.99165]},"properties":{"province":"河北省","city":"石家庄市","county":"裕华区","community":"裕强街道安苑小区B区3号楼","full_address":"河北省石家庄市裕华区裕强街道安苑小区B区3号楼","info":""}},{"type":"Feature","geometry":{"type":"Point","coordinates":[114.56515,38.03326]},"properties":{"province":"河北省","city":"石家庄市","county":"裕华区","community":"东苑街道槐北路粮油所小区4号楼","full_address":"河北省石家庄市裕华区东苑街道槐北路粮油所小区4号楼","info":""}},{"type":"Feature","geometry":{"type":"Point","coordinates":[114.520805,37.997898]},"properties":{"province":"河北省","city":"石家庄市","county":"裕华区","community":"裕翔街道河北师范大学","full_address":"河北省石家庄市裕华区裕翔街道河北师范大学","info":""}},{"type":"Feature","geometry":{"type":"Point","coordinates":[114.589302,37.986401]},"properties":{"province":"河北省","city":"石家庄市","county":"裕华区","community":"方村镇西京北村","full_address":"河北省石家庄市裕华区方村镇西京北村","info":""}},{"type":"Feature","geometry":{"type":"Point","coordinates":[114.51544,38.01487]},"properties":{"province":"河北省","city":"石家庄市","county":"裕华区","community":"建通街道碧水青园小区16号楼","full_address":"河北省石家庄市裕华区建通街道碧水青园小区16号楼","info":""}},{"type":"Feature","geometry":{"type":"Point","coordinates":[114.507652,38.009666]},"properties":{"province":"河北省","city":"石家庄市","county":"裕华区","community":"现代城小区7号楼","full_address":"河北省石家庄市裕华区现代城小区7号楼","info":""}},{"type":"Feature","geometry":{"type":"Point","coordinates":[114.594833,38.054142]},"properties":{"province":"河北省","city":"石家庄市","county":"裕华区","community":"裕东街道保利茉莉公馆小区","full_address":"河北省石家庄市裕华区裕东街道保利茉莉公馆小区","info":""}},{"type":"Feature","geometry":{"type":"Point","coordinates":[114.567169,37.992149]},"properties":{"province":"河北省","city":"石家庄市","county":"裕华区","community":"裕强街道安苑小区BC区","full_address":"河北省石家庄市裕华区裕强街道安苑小区BC区","info":""}},{"type":"Feature","geometry":{"type":"Point","coordinates":[114.531395,37.99498]},"properties":{"province":"河北省","city":"石家庄市","county":"裕华区","community":"建华南街道南焦新村牡丹园小区","full_address":"河北省石家庄市裕华区建华南街道南焦新村牡丹园小区","info":""}},{"type":"Feature","geometry":{"type":"Point","coordinates":[114.535706,38.004772]},"properties":{"province":"河北省","city":"石家庄市","county":"裕华区","community":"裕兴街道保利拉菲公馆10号楼保障房","full_address":"河北省石家庄市裕华区裕兴街道保利拉菲公馆10号楼保障房","info":""}},{"type":"Feature","geometry":{"type":"Point","coordinates":[114.50296,38.002621]},"properties":{"province":"河北省","city":"石家庄市","county":"裕华区","community":"建通街道盛邦花园八区公租房小区2号楼","full_address":"河北省石家庄市裕华区建通街道盛邦花园八区公租房小区2号楼","info":""}},{"type":"Feature","geometry":{"type":"Point","coordinates":[114.599384,37.94962]},"properties":{"province":"河北省","city":"石家庄市","county":"栾城区","community":"冶河镇卓达太阳城内阳光国际","full_address":"河北省石家庄市栾城区冶河镇卓达太阳城内阳光国际","info":""}},{"type":"Feature","geometry":{"type":"Point","coordinates":[118.16993,39.806507]},"properties":{"province":"河北省","city":"唐山市","county":"丰润区","community":"轻工学院8号楼","full_address":"河北省唐山市丰润区轻工学院8号楼","info":""}},{"type":"Feature","geometry":{"type":"Point","coordinates":[117.726021,39.895206]},"properties":{"province":"河北省","city":"唐山市","county":"玉田县","community":"无终街道枫桥雅居33号楼","full_address":"河北省唐山市玉田县无终街道枫桥雅居33号楼","info":""}},{"type":"Feature","geometry":{"type":"Point","coordinates":[117.880959,39.36245]},"properties":{"province":"河北省","city":"唐山市","county":"汉沽管理区","community":"创业里小区23排","full_address":"河北省唐山市汉沽管理区创业里小区23排","info":""}},{"type":"Feature","geometry":{"type":"Point","coordinates":[117.887428,39.362289]},"properties":{"province":"河北省","city":"唐山市","county":"汉沽管理区","community":"新馨家园102楼","full_address":"河北省唐山市汉沽管理区新馨家园102楼","info":""}},{"type":"Feature","geometry":{"type":"Point","coordinates":[118.416504,39.674412]},"properties":{"province":"河北省","city":"唐山市","county":"汉沽管理区","community":"第一小学","full_address":"河北省唐山市汉沽管理区第一小学","info":""}},{"type":"Feature","geometry":{"type":"Point","coordinates":[119.710808,39.951073]},"properties":{"province":"河北省","city":"秦皇岛市","county":"海港区","community":"柳村二场行车公寓所在院区","full_address":"河北省秦皇岛市海港区柳村二场行车公寓所在院区","info":""}},{"type":"Feature","geometry":{"type":"Point","coordinates":[119.609314,39.934509]},"properties":{"province":"河北省","city":"秦皇岛市","county":"海港区","community":"新北里小区","full_address":"河北省秦皇岛市海港区新北里小区","info":""}},{"type":"Feature","geometry":{"type":"Point","coordinates":[119.572357,39.93087]},"properties":{"province":"河北省","city":"秦皇岛市","county":"海港区","community":"在水一方A区2栋至12栋","full_address":"河北省秦皇岛市海港区在水一方A区2栋至12栋","info":""}},{"type":"Feature","geometry":{"type":"Point","coordinates":[119.619385,39.954174]},"properties":{"province":"河北省","city":"秦皇岛市","county":"海港区","community":"秦皇岛市卫生学校","full_address":"河北省秦皇岛市海港区秦皇岛市卫生学校","info":""}},{"type":"Feature","geometry":{"type":"Point","coordinates":[119.61911,39.95121]},"properties":{"province":"河北省","city":"秦皇岛市","county":"海港区","community":"好日子超市","full_address":"河北省秦皇岛市海港区好日子超市","info":""}},{"type":"Feature","geometry":{"type":"Point","coordinates":[119.617889,39.952099]},"properties":{"province":"河北省","city":"秦皇岛市","county":"海港区","community":"燕海里1、2、3栋","full_address":"河北省秦皇岛市海港区燕海里1、2、3栋","info":""}},{"type":"Feature","geometry":{"type":"Point","coordinates":[119.567932,39.959892]},"properties":{"province":"河北省","city":"秦皇岛市","county":"海港区","community":"上城汤廷小区","full_address":"河北省秦皇岛市海港区上城汤廷小区","info":""}},{"type":"Feature","geometry":{"type":"Point","coordinates":[118.976608,40.413197]},"properties":{"province":"河北省","city":"秦皇岛市","county":"青龙满族自治县","community":"阳光逸城小区","full_address":"河北省秦皇岛市青龙满族自治县阳光逸城小区","info":""}},{"type":"Feature","geometry":{"type":"Point","coordinates":[118.944267,40.401001]},"properties":{"province":"河北省","city":"秦皇岛市","county":"青龙满族自治县","community":"翠屏湾东区","full_address":"河北省秦皇岛市青龙满族自治县翠屏湾东区","info":""}},{"type":"Feature","geometry":{"type":"Point","coordinates":[119.212982,40.50386]},"properties":{"province":"河北省","city":"秦皇岛市","county":"青龙满族自治县","community":"土门子镇水泉村","full_address":"河北省秦皇岛市青龙满族自治县土门子镇水泉村","info":""}},{"type":"Feature","geometry":{"type":"Point","coordinates":[114.49939,37.073112]},"properties":{"province":"河北省","city":"邢台市","county":"襄都区","community":"西门里街道拖南小区1号楼","full_address":"河北省邢台市襄都区西门里街道拖南小区1号楼","info":""}},{"type":"Feature","geometry":{"type":"Point","coordinates":[114.520943,37.084972]},"properties":{"province":"河北省","city":"邢台市","county":"襄都区","community":"泉东街道林语嘉园8号楼","full_address":"河北省邢台市襄都区泉东街道林语嘉园8号楼","info":""}},{"type":"Feature","geometry":{"type":"Point","coordinates":[114.507263,37.070141]},"properties":{"province":"河北省","city":"邢台市","county":"襄都区","community":"南长街街道红星东小区2号楼","full_address":"河北省邢台市襄都区南长街街道红星东小区2号楼","info":""}},{"type":"Feature","geometry":{"type":"Point","coordinates":[114.500374,37.05793]},"properties":{"province":"河北省","city":"邢台市","county":"襄都区","community":"西大街街道化工楼区2号楼","full_address":"河北省邢台市襄都区西大街街道化工楼区2号楼","info":""}},{"type":"Feature","geometry":{"type":"Point","coordinates":[114.486,37.07923]},"properties":{"province":"河北省","city":"邢台市","county":"信都区","community":"团结街道团结中生活区","full_address":"河北省邢台市信都区团结街道团结中生活区","info":""}},{"type":"Feature","geometry":{"type":"Point","coordinates":[114.4871,37.06674]},"properties":{"province":"河北省","city":"邢台市","county":"信都区","community":"团结街道育英街大修厂家属院","full_address":"河北省邢台市信都区团结街道育英街大修厂家属院","info":""}},{"type":"Feature","geometry":{"type":"Point","coordinates":[114.48542,37.08342]},"properties":{"province":"河北省","city":"邢台市","county":"信都区","community":"团结街道第一菜市场","full_address":"河北省邢台市信都区团结街道第一菜市场","info":""}},{"type":"Feature","geometry":{"type":"Point","coordinates":[114.494,37.08301]},"properties":{"province":"河北省","city":"邢台市","county":"信都区","community":"团结路街道滨河上品家园","full_address":"河北省邢台市信都区团结路街道滨河上品家园","info":""}},{"type":"Feature","geometry":{"type":"Point","coordinates":[114.483246,37.07008]},"properties":{"province":"河北省","city":"邢台市","county":"信都区","community":"水文局家属楼","full_address":"河北省邢台市信都区水文局家属楼","info":""}},{"type":"Feature","geometry":{"type":"Point","coordinates":[114.486,37.07923]},"properties":{"province":"河北省","city":"邢台市","county":"信都区","community":"团结中生活区","full_address":"河北省邢台市信都区团结中生活区","info":""}},{"type":"Feature","geometry":{"type":"Point","coordinates":[114.4871,37.06674]},"properties":{"province":"河北省","city":"邢台市","county":"信都区","community":"育英街大修厂家属院","full_address":"河北省邢台市信都区育英街大修厂家属院","info":""}},{"type":"Feature","geometry":{"type":"Point","coordinates":[114.48542,37.08342]},"properties":{"province":"河北省","city":"邢台市","county":"信都区","community":"桥西第一菜市场","full_address":"河北省邢台市信都区桥西第一菜市场","info":""}},{"type":"Feature","geometry":{"type":"Point","coordinates":[114.493263,37.096569]},"properties":{"province":"河北省","city":"邢台市","county":"信都区","community":"达活泉街道温馨家园四区","full_address":"河北省邢台市信都区达活泉街道温馨家园四区","info":""}},{"type":"Feature","geometry":{"type":"Point","coordinates":[114.4935,37.0896]},"properties":{"province":"河北省","city":"邢台市","county":"信都区","community":"三奕润城东区","full_address":"河北省邢台市信都区三奕润城东区","info":""}},{"type":"Feature","geometry":{"type":"Point","coordinates":[114.494514,37.086555]},"properties":{"province":"河北省","city":"邢台市","county":"信都区","community":"北小汪回迁楼南区","full_address":"河北省邢台市信都区北小汪回迁楼南区","info":""}},{"type":"Feature","geometry":{"type":"Point","coordinates":[114.462418,37.071651]},"properties":{"province":"河北省","city":"邢台市","county":"信都区","community":"中华大街街道维也纳花园","full_address":"河北省邢台市信都区中华大街街道维也纳花园","info":""}},{"type":"Feature","geometry":{"type":"Point","coordinates":[114.453743,37.064682]},"properties":{"province":"河北省","city":"邢台市","county":"信都区","community":"南大郭镇富强家园","full_address":"河北省邢台市信都区南大郭镇富强家园","info":""}},{"type":"Feature","geometry":{"type":"Point","coordinates":[114.557159,37.385254]},"properties":{"province":"河北省","city":"邢台市","county":"临城县","community":"冯村地界107国道和南郝线交叉口以北，隆尧县界牌以南，东侧5-100米，西侧5-80米区域","full_address":"河北省邢台市临城县冯村地界107国道和南郝线交叉口以北，隆尧县界牌以南，东侧5-100米，西侧5-80米区域","info":""}},{"type":"Feature","geometry":{"type":"Point","coordinates":[114.663887,37.540882]},"properties":{"province":"河北省","city":"邢台市","county":"柏乡县","community":"龙华镇耿家庄村","full_address":"河北省邢台市柏乡县龙华镇耿家庄村","info":""}},{"type":"Feature","geometry":{"type":"Point","coordinates":[114.740448,37.262802]},"properties":{"province":"河北省","city":"邢台市","county":"隆尧县","community":"魏家庄镇公子中村","full_address":"河北省邢台市隆尧县魏家庄镇公子中村","info":""}},{"type":"Feature","geometry":{"type":"Point","coordinates":[114.894783,37.578289]},"properties":{"province":"河北省","city":"邢台市","county":"宁晋县","community":"北河庄镇东沙良村","full_address":"河北省邢台市宁晋县北河庄镇东沙良村","info":""}},{"type":"Feature","geometry":{"type":"Point","coordinates":[114.467293,37.036968]},"properties":{"province":"河北省","city":"邢台市","county":"宁晋县","community":"水泥厂家属院","full_address":"河北省邢台市宁晋县水泥厂家属院","info":""}},{"type":"Feature","geometry":{"type":"Point","coordinates":[115.143509,37.594772]},"properties":{"province":"河北省","city":"邢台市","county":"宁晋县","community":"六合化工公司","full_address":"河北省邢台市宁晋县六合化工公司","info":""}},{"type":"Feature","geometry":{"type":"Point","coordinates":[114.91932,37.6198]},"properties":{"province":"河北省","city":"邢台市","county":"宁晋县","community":"永上建筑搅拌站","full_address":"河北省邢台市宁晋县永上建筑搅拌站","info":""}},{"type":"Feature","geometry":{"type":"Point","coordinates":[114.930771,37.156982]},"properties":{"province":"河北省","city":"邢台市","county":"平乡县","community":"节固镇黄家村","full_address":"河北省邢台市平乡县节固镇黄家村","info":""}},{"type":"Feature","geometry":{"type":"Point","coordinates":[115.987999,39.26403]},"properties":{"province":"河北省","city":"保定市","county":"高碑店市","community":"新城镇北五里屯南村","full_address":"河北省保定市高碑店市新城镇北五里屯南村","info":""}},{"type":"Feature","geometry":{"type":"Point","coordinates":[115.98835,39.244522]},"properties":{"province":"河北省","city":"保定市","county":"高碑店市","community":"新城镇兰若金街","full_address":"河北省保定市高碑店市新城镇兰若金街","info":""}},{"type":"Feature","geometry":{"type":"Point","coordinates":[116.00618,39.272743]},"properties":{"province":"河北省","city":"保定市","county":"高碑店市","community":"新城镇泗堡村","full_address":"河北省保定市高碑店市新城镇泗堡村","info":""}},{"type":"Feature","geometry":{"type":"Point","coordinates":[116.02618,39.13452]},"properties":{"province":"河北省","city":"保定市","county":"白沟新城","community":"林苑街以西、枫杨路以北、光华街以东、北环路以南区域","full_address":"河北省保定市白沟新城林苑街以西、枫杨路以北、光华街以东、北环路以南区域","info":""}},{"type":"Feature","geometry":{"type":"Point","coordinates":[115.09923,40.60845]},"properties":{"province":"河北省","city":"张家口市","county":"宣化区","community":"环保楼127号院","full_address":"河北省张家口市宣化区环保楼127号院","info":""}},{"type":"Feature","geometry":{"type":"Point","coordinates":[115.067841,40.615139]},"properties":{"province":"河北省","city":"张家口市","county":"宣化区","community":"恒基花园小区","full_address":"河北省张家口市宣化区恒基花园小区","info":""}},{"type":"Feature","geometry":{"type":"Point","coordinates":[115.116463,40.595394]},"properties":{"province":"河北省","city":"张家口市","county":"宣化区","community":"侯家庙镇侯家庙村","full_address":"河北省张家口市宣化区侯家庙镇侯家庙村","info":""}},{"type":"Feature","geometry":{"type":"Point","coordinates":[115.10524,40.59528]},"properties":{"province":"河北省","city":"张家口市","county":"宣化区","community":"工业街街道（平安路东社区、采掘社区）","full_address":"河北省张家口市宣化区工业街街道（平安路东社区、采掘社区）","info":""}},{"type":"Feature","geometry":{"type":"Point","coordinates":[115.080788,40.610435]},"properties":{"province":"河北省","city":"张家口市","county":"宣化区","community":"金矿小区","full_address":"河北省张家口市宣化区金矿小区","info":""}},{"type":"Feature","geometry":{"type":"Point","coordinates":[115.097479,40.604371]},"properties":{"province":"河北省","city":"张家口市","county":"宣化区","community":"钢鑫小区","full_address":"河北省张家口市宣化区钢鑫小区","info":""}},{"type":"Feature","geometry":{"type":"Point","coordinates":[115.064473,40.604021]},"properties":{"province":"河北省","city":"张家口市","county":"宣化区","community":"南大街万字会南路5号院及底商","full_address":"河北省张家口市宣化区南大街万字会南路5号院及底商","info":""}},{"type":"Feature","geometry":{"type":"Point","coordinates":[115.037674,40.628445]},"properties":{"province":"河北省","city":"张家口市","county":"宣化区","community":"宣府第一城","full_address":"河北省张家口市宣化区宣府第一城","info":""}},{"type":"Feature","geometry":{"type":"Point","coordinates":[115.108681,40.59623]},"properties":{"province":"河北省","city":"张家口市","county":"宣化区","community":"世纪光华小区","full_address":"河北省张家口市宣化区世纪光华小区","info":""}},{"type":"Feature","geometry":{"type":"Point","coordinates":[115.101006,40.599361]},"properties":{"province":"河北省","city":"张家口市","county":"宣化区","community":"东升路风动宿舍三段1排","full_address":"河北省张家口市宣化区东升路风动宿舍三段1排","info":""}},{"type":"Feature","geometry":{"type":"Point","coordinates":[115.006012,40.629009]},"properties":{"province":"河北省","city":"张家口市","county":"宣化区","community":"河子西镇肖家坊村","full_address":"河北省张家口市宣化区河子西镇肖家坊村","info":""}},{"type":"Feature","geometry":{"type":"Point","coordinates":[115.076202,40.591042]},"properties":{"province":"河北省","city":"张家口市","county":"宣化区","community":"旭日嘉园小区","full_address":"河北省张家口市宣化区旭日嘉园小区","info":""}},{"type":"Feature","geometry":{"type":"Point","coordinates":[115.057045,40.605148]},"properties":{"province":"河北省","city":"张家口市","county":"宣化区","community":"玉皇庙街11号院1号楼","full_address":"河北省张家口市宣化区玉皇庙街11号院1号楼","info":""}},{"type":"Feature","geometry":{"type":"Point","coordinates":[115.006012,40.629009]},"properties":{"province":"河北省","city":"张家口市","county":"宣化区","community":"河子西乡肖家坊村","full_address":"河北省张家口市宣化区河子西乡肖家坊村","info":""}},{"type":"Feature","geometry":{"type":"Point","coordinates":[115.066611,40.609679]},"properties":{"province":"河北省","city":"张家口市","county":"宣化区","community":"武庙街5号院2号楼","full_address":"河北省张家口市宣化区武庙街5号院2号楼","info":""}},{"type":"Feature","geometry":{"type":"Point","coordinates":[115.064903,40.635235]},"properties":{"province":"河北省","city":"张家口市","county":"宣化区","community":"大北街太阳城澳皮王厂区","full_address":"河北省张家口市宣化区大北街太阳城澳皮王厂区","info":""}},{"type":"Feature","geometry":{"type":"Point","coordinates":[115.05184,40.608329]},"properties":{"province":"河北省","city":"张家口市","county":"宣化区","community":"宣府大街43号院2号楼","full_address":"河北省张家口市宣化区宣府大街43号院2号楼","info":""}},{"type":"Feature","geometry":{"type":"Point","coordinates":[115.054468,40.610236]},"properties":{"province":"河北省","city":"张家口市","county":"宣化区","community":"崇善寺街7号院1号楼","full_address":"河北省张家口市宣化区崇善寺街7号院1号楼","info":""}},{"type":"Feature","geometry":{"type":"Point","coordinates":[115.052261,40.611271]},"properties":{"province":"河北省","city":"张家口市","county":"宣化区","community":"和平街小区3号楼","full_address":"河北省张家口市宣化区和平街小区3号楼","info":""}},{"type":"Feature","geometry":{"type":"Point","coordinates":[115.09762,40.60538]},"properties":{"province":"河北省","city":"张家口市","county":"宣化区","community":"宣府大街129号院6号楼","full_address":"河北省张家口市宣化区宣府大街129号院6号楼","info":""}},{"type":"Feature","geometry":{"type":"Point","coordinates":[115.080078,40.616314]},"properties":{"province":"河北省","city":"张家口市","county":"宣化区","community":"万字会新民居1号楼","full_address":"河北省张家口市宣化区万字会新民居1号楼","info":""}},{"type":"Feature","geometry":{"type":"Point","coordinates":[115.09923,40.60845]},"properties":{"province":"河北省","city":"张家口市","county":"宣化区","community":"花儿巷街14楼","full_address":"河北省张家口市宣化区花儿巷街14楼","info":""}},{"type":"Feature","geometry":{"type":"Point","coordinates":[115.067772,40.593811]},"properties":{"province":"河北省","city":"张家口市","county":"宣化区","community":"佳和小区5号楼、13号楼","full_address":"河北省张家口市宣化区佳和小区5号楼、13号楼","info":""}},{"type":"Feature","geometry":{"type":"Point","coordinates":[115.09923,40.60845]},"properties":{"province":"河北省","city":"张家口市","county":"宣化区","community":"工程二分厂4号楼","full_address":"河北省张家口市宣化区工程二分厂4号楼","info":""}},{"type":"Feature","geometry":{"type":"Point","coordinates":[115.05373,40.60945]},"properties":{"province":"河北省","city":"张家口市","county":"宣化区","community":"宣府大街46号院1号楼","full_address":"河北省张家口市宣化区宣府大街46号院1号楼","info":""}},{"type":"Feature","geometry":{"type":"Point","coordinates":[114.750732,40.769691]},"properties":{"province":"河北省","city":"张家口市","county":"万全区","community":"孔家庄镇怡泰小区","full_address":"河北省张家口市万全区孔家庄镇怡泰小区","info":""}},{"type":"Feature","geometry":{"type":"Point","coordinates":[114.757301,40.770821]},"properties":{"province":"河北省","city":"张家口市","county":"万全区","community":"滨河首府小区3号楼","full_address":"河北省张家口市万全区滨河首府小区3号楼","info":""}},{"type":"Feature","geometry":{"type":"Point","coordinates":[114.593338,41.846592]},"properties":{"province":"河北省","city":"张家口市","county":"康保县","community":"康保镇康河东侧、五金路西一道巷北侧、康乐路（西侧、北侧）、康惠路西侧、工业街纺西一道巷南侧的合围区域","full_address":"河北省张家口市康保县康保镇康河东侧、五金路西一道巷北侧、康乐路（西侧、北侧）、康惠路西侧、工业街纺西一道巷南侧的合围区域","info":""}},{"type":"Feature","geometry":{"type":"Point","coordinates":[114.469437,41.720367]},"properties":{"province":"河北省","city":"张家口市","county":"康保县","community":"忠义乡水泉村","full_address":"河北省张家口市康保县忠义乡水泉村","info":""}},{"type":"Feature","geometry":{"type":"Point","coordinates":[114.891312,40.758041]},"properties":{"province":"河北省","city":"张家口市","county":"经开区","community":"老鸦庄镇老鸦庄小区","full_address":"河北省张家口市经开区老鸦庄镇老鸦庄小区","info":""}},{"type":"Feature","geometry":{"type":"Point","coordinates":[115.861633,39.042862]},"properties":{"province":"河北省","city":"容城县","county":"容城县","community":"金湖未来城第一标段项目区","full_address":"河北省容城县容城县金湖未来城第一标段项目区","info":""}},{"type":"Feature","geometry":{"type":"Point","coordinates":[115.886559,39.042355]},"properties":{"province":"河北省","city":"容城县","county":"容城县","community":"容东片区阳光园5号楼","full_address":"河北省容城县容城县容东片区阳光园5号楼","info":""}},{"type":"Feature","geometry":{"type":"Point","coordinates":[112.56461,37.82222]},"properties":{"province":"山西省","city":"太原市","county":"小店区","community":"盛立苑2号楼3单元","full_address":"山西省太原市小店区盛立苑2号楼3单元","info":""}},{"type":"Feature","geometry":{"type":"Point","coordinates":[112.56566,37.73605]},"properties":{"province":"山西省","city":"太原市","county":"小店区","community":"晋宝翔俱乐部","full_address":"山西省太原市小店区晋宝翔俱乐部","info":""}},{"type":"Feature","geometry":{"type":"Point","coordinates":[112.525414,37.734112]},"properties":{"province":"山西省","city":"太原市","county":"晋源区","community":"东城角村信鸽协会","full_address":"山西省太原市晋源区东城角村信鸽协会","info":""}},{"type":"Feature","geometry":{"type":"Point","coordinates":[112.50972,37.723991]},"properties":{"province":"山西省","city":"太原市","county":"晋源区","community":"晋阳堡村李大志鸽棚","full_address":"山西省太原市晋源区晋阳堡村李大志鸽棚","info":""}},{"type":"Feature","geometry":{"type":"Point","coordinates":[112.49469,37.68869]},"properties":{"province":"山西省","city":"太原市","county":"晋源区","community":"北庄头村鸽棚","full_address":"山西省太原市晋源区北庄头村鸽棚","info":""}},{"type":"Feature","geometry":{"type":"Point","coordinates":[112.541603,37.735931]},"properties":{"province":"山西省","city":"太原市","county":"晋源区","community":"庞家寨村羴鲜羊汤馆","full_address":"山西省太原市晋源区庞家寨村羴鲜羊汤馆","info":""}},{"type":"Feature","geometry":{"type":"Point","coordinates":[112.496971,37.741558]},"properties":{"province":"山西省","city":"太原市","county":"晋源区","community":"古城营俊清羊汤馆","full_address":"山西省太原市晋源区古城营俊清羊汤馆","info":""}},{"type":"Feature","geometry":{"type":"Point","coordinates":[112.50737,37.738213]},"properties":{"province":"山西省","city":"太原市","county":"晋源区","community":"东关村邮政快递","full_address":"山西省太原市晋源区东关村邮政快递","info":""}},{"type":"Feature","geometry":{"type":"Point","coordinates":[112.50737,37.738213]},"properties":{"province":"山西省","city":"太原市","county":"晋源区","community":"东关村菜鸟驿站","full_address":"山西省太原市晋源区东关村菜鸟驿站","info":""}},{"type":"Feature","geometry":{"type":"Point","coordinates":[112.507378,37.738232]},"properties":{"province":"山西省","city":"太原市","county":"晋源区","community":"东关村村委会","full_address":"山西省太原市晋源区东关村村委会","info":""}},{"type":"Feature","geometry":{"type":"Point","coordinates":[112.50972,37.723991]},"properties":{"province":"山西省","city":"太原市","county":"晋源区","community":"晋阳堡村村委会","full_address":"山西省太原市晋源区晋阳堡村村委会","info":""}},{"type":"Feature","geometry":{"type":"Point","coordinates":[112.67292,38.05828]},"properties":{"province":"山西省","city":"太原市","county":"阳曲县","community":"山西新时代精英赛鸽公棚","full_address":"山西省太原市阳曲县山西新时代精英赛鸽公棚","info":""}},{"type":"Feature","geometry":{"type":"Point","coordinates":[113.305297,40.066457]},"properties":{"province":"山西省","city":"大同市","county":"平城区","community":"阳光绿岛小区2号楼","full_address":"山西省大同市平城区阳光绿岛小区2号楼","info":""}},{"type":"Feature","geometry":{"type":"Point","coordinates":[113.282097,40.061829]},"properties":{"province":"山西省","city":"大同市","county":"平城区","community":"正德嘉园6号楼","full_address":"山西省大同市平城区正德嘉园6号楼","info":""}},{"type":"Feature","geometry":{"type":"Point","coordinates":[113.3435,40.11669]},"properties":{"province":"山西省","city":"大同市","county":"平城区","community":"御东学府D13","full_address":"山西省大同市平城区御东学府D13","info":""}},{"type":"Feature","geometry":{"type":"Point","coordinates":[113.285866,40.073589]},"properties":{"province":"山西省","city":"大同市","county":"平城区","community":"三医院家属楼3号楼","full_address":"山西省大同市平城区三医院家属楼3号楼","info":""}},{"type":"Feature","geometry":{"type":"Point","coordinates":[113.27895,40.09296]},"properties":{"province":"山西省","city":"大同市","county":"平城区","community":"金港丽城1号楼","full_address":"山西省大同市平城区金港丽城1号楼","info":""}},{"type":"Feature","geometry":{"type":"Point","coordinates":[113.27861,40.091278]},"properties":{"province":"山西省","city":"大同市","county":"平城区","community":"同泉里解危解困小区9号楼","full_address":"山西省大同市平城区同泉里解危解困小区9号楼","info":""}},{"type":"Feature","geometry":{"type":"Point","coordinates":[113.321434,40.087147]},"properties":{"province":"山西省","city":"大同市","county":"平城区","community":"太阳城二期咩咩食话","full_address":"山西省大同市平城区太阳城二期咩咩食话","info":""}},{"type":"Feature","geometry":{"type":"Point","coordinates":[113.310921,40.122749]},"properties":{"province":"山西省","city":"大同市","county":"平城区","community":"北辰花园一期12号楼","full_address":"山西省大同市平城区北辰花园一期12号楼","info":""}},{"type":"Feature","geometry":{"type":"Point","coordinates":[113.285866,40.073589]},"properties":{"province":"山西省","city":"大同市","county":"平城区","community":"三医院家属楼检察院车棚","full_address":"山西省大同市平城区三医院家属楼检察院车棚","info":""}},{"type":"Feature","geometry":{"type":"Point","coordinates":[113.319344,40.077728]},"properties":{"province":"山西省","city":"大同市","county":"平城区","community":"春晖园11号楼","full_address":"山西省大同市平城区春晖园11号楼","info":""}},{"type":"Feature","geometry":{"type":"Point","coordinates":[113.306679,40.104378]},"properties":{"province":"山西省","city":"大同市","county":"平城区","community":"晋剧院家属院大门口6号楼","full_address":"山西省大同市平城区晋剧院家属院大门口6号楼","info":""}},{"type":"Feature","geometry":{"type":"Point","coordinates":[113.285866,40.073589]},"properties":{"province":"山西省","city":"大同市","county":"平城区","community":"三医院家属楼检察院北1楼","full_address":"山西省大同市平城区三医院家属楼检察院北1楼","info":""}},{"type":"Feature","geometry":{"type":"Point","coordinates":[113.285866,40.073589]},"properties":{"province":"山西省","city":"大同市","county":"平城区","community":"三医院家属楼5号楼","full_address":"山西省大同市平城区三医院家属楼5号楼","info":""}},{"type":"Feature","geometry":{"type":"Point","coordinates":[113.306244,40.064831]},"properties":{"province":"山西省","city":"大同市","county":"平城区","community":"碧水云天颐园（7号楼、10号楼）","full_address":"山西省大同市平城区碧水云天颐园（7号楼、10号楼）","info":""}},{"type":"Feature","geometry":{"type":"Point","coordinates":[113.271586,40.084838]},"properties":{"province":"山西省","city":"大同市","county":"平城区","community":"宏洋美都2号楼","full_address":"山西省大同市平城区宏洋美都2号楼","info":""}},{"type":"Feature","geometry":{"type":"Point","coordinates":[113.354172,40.094559]},"properties":{"province":"山西省","city":"大同市","county":"平城区","community":"大同大学文兴餐厅","full_address":"山西省大同市平城区大同大学文兴餐厅","info":""}},{"type":"Feature","geometry":{"type":"Point","coordinates":[113.234962,40.04351]},"properties":{"province":"山西省","city":"大同市","county":"平城区","community":"大同市第二人民医院院区","full_address":"山西省大同市平城区大同市第二人民医院院区","info":""}},{"type":"Feature","geometry":{"type":"Point","coordinates":[113.354889,40.09153]},"properties":{"province":"山西省","city":"大同市","county":"平城区","community":"大同大学南校区1号区域（如月苑1-4号楼及周围生活、工作区域）","full_address":"山西省大同市平城区大同大学南校区1号区域（如月苑1-4号楼及周围生活、工作区域）","info":""}},{"type":"Feature","geometry":{"type":"Point","coordinates":[113.290649,40.115688]},"properties":{"province":"山西省","city":"大同市","county":"平城区","community":"永乐苑A区","full_address":"山西省大同市平城区永乐苑A区","info":""}},{"type":"Feature","geometry":{"type":"Point","coordinates":[113.28452,40.05747]},"properties":{"province":"山西省","city":"大同市","county":"平城区","community":"魏都新城C区（5号楼、45号楼）","full_address":"山西省大同市平城区魏都新城C区（5号楼、45号楼）","info":""}},{"type":"Feature","geometry":{"type":"Point","coordinates":[113.298798,40.116329]},"properties":{"province":"山西省","city":"大同市","county":"平城区","community":"红卫里小区（1号楼、2号楼）","full_address":"山西省大同市平城区红卫里小区（1号楼、2号楼）","info":""}},{"type":"Feature","geometry":{"type":"Point","coordinates":[113.293007,40.111156]},"properties":{"province":"山西省","city":"大同市","county":"平城区","community":"华祥里小区（1号楼和2号楼东侧的二层院落）","full_address":"山西省大同市平城区华祥里小区（1号楼和2号楼东侧的二层院落）","info":""}},{"type":"Feature","geometry":{"type":"Point","coordinates":[113.369529,40.10803]},"properties":{"province":"山西省","city":"大同市","county":"平城区","community":"镜湖园13号楼","full_address":"山西省大同市平城区镜湖园13号楼","info":""}},{"type":"Feature","geometry":{"type":"Point","coordinates":[113.296448,40.050415]},"properties":{"province":"山西省","city":"大同市","county":"平城区","community":"东信国际（南区16-2，8-2、北区1-3、万向城F座）","full_address":"山西省大同市平城区东信国际（南区16-2，8-2、北区1-3、万向城F座）","info":""}},{"type":"Feature","geometry":{"type":"Point","coordinates":[113.27652,40.107151]},"properties":{"province":"山西省","city":"大同市","county":"平城区","community":"紫星丽园小区","full_address":"山西省大同市平城区紫星丽园小区","info":""}},{"type":"Feature","geometry":{"type":"Point","coordinates":[113.276451,40.06554]},"properties":{"province":"山西省","city":"大同市","county":"平城区","community":"晨馨花园小区","full_address":"山西省大同市平城区晨馨花园小区","info":""}},{"type":"Feature","geometry":{"type":"Point","coordinates":[113.29073,40.11006]},"properties":{"province":"山西省","city":"大同市","county":"平城区","community":"云顶雅园小区2期D座","full_address":"山西省大同市平城区云顶雅园小区2期D座","info":""}},{"type":"Feature","geometry":{"type":"Point","coordinates":[113.295029,40.111599]},"properties":{"province":"山西省","city":"大同市","county":"平城区","community":"益生园小区3号楼","full_address":"山西省大同市平城区益生园小区3号楼","info":""}},{"type":"Feature","geometry":{"type":"Point","coordinates":[113.303023,40.115628]},"properties":{"province":"山西省","city":"大同市","county":"平城区","community":"佳通园小区1号楼","full_address":"山西省大同市平城区佳通园小区1号楼","info":""}},{"type":"Feature","geometry":{"type":"Point","coordinates":[113.307535,40.062985]},"properties":{"province":"山西省","city":"大同市","county":"平城区","community":"柳港园A区5号楼2单元","full_address":"山西省大同市平城区柳港园A区5号楼2单元","info":""}},{"type":"Feature","geometry":{"type":"Point","coordinates":[113.340683,40.067982]},"properties":{"province":"山西省","city":"大同市","county":"平城区","community":"满庭芳7号楼1单元","full_address":"山西省大同市平城区满庭芳7号楼1单元","info":""}},{"type":"Feature","geometry":{"type":"Point","coordinates":[113.306244,40.064831]},"properties":{"province":"山西省","city":"大同市","county":"平城区","community":"碧水云天颐园9号楼2单元","full_address":"山西省大同市平城区碧水云天颐园9号楼2单元","info":""}},{"type":"Feature","geometry":{"type":"Point","coordinates":[113.326248,40.140549]},"properties":{"province":"山西省","city":"大同市","county":"平城区","community":"马家小村","full_address":"山西省大同市平城区马家小村","info":""}},{"type":"Feature","geometry":{"type":"Point","coordinates":[113.296394,40.128204]},"properties":{"province":"山西省","city":"大同市","county":"平城区","community":"卧虎湾小区29号楼","full_address":"山西省大同市平城区卧虎湾小区29号楼","info":""}},{"type":"Feature","geometry":{"type":"Point","coordinates":[113.291267,40.12085]},"properties":{"province":"山西省","city":"大同市","county":"平城区","community":"局西小区11号楼","full_address":"山西省大同市平城区局西小区11号楼","info":""}},{"type":"Feature","geometry":{"type":"Point","coordinates":[113.28364,40.08906]},"properties":{"province":"山西省","city":"大同市","county":"平城区","community":"建设里小区（32号楼3单元、39号楼3单元）","full_address":"山西省大同市平城区建设里小区（32号楼3单元、39号楼3单元）","info":""}},{"type":"Feature","geometry":{"type":"Point","coordinates":[113.369075,40.108751]},"properties":{"province":"山西省","city":"大同市","county":"平城区","community":"境湖园小区（6号楼1单元、11号楼2单元）","full_address":"山西省大同市平城区境湖园小区（6号楼1单元、11号楼2单元）","info":""}},{"type":"Feature","geometry":{"type":"Point","coordinates":[113.286301,40.058163]},"properties":{"province":"山西省","city":"大同市","county":"平城区","community":"上河万家5号楼1单元","full_address":"山西省大同市平城区上河万家5号楼1单元","info":""}},{"type":"Feature","geometry":{"type":"Point","coordinates":[113.270798,40.068916]},"properties":{"province":"山西省","city":"大同市","county":"平城区","community":"桐城怡景东苑1号楼1单元","full_address":"山西省大同市平城区桐城怡景东苑1号楼1单元","info":""}},{"type":"Feature","geometry":{"type":"Point","coordinates":[113.28907,40.059879]},"properties":{"province":"山西省","city":"大同市","county":"平城区","community":"同兴苑小区10号楼","full_address":"山西省大同市平城区同兴苑小区10号楼","info":""}},{"type":"Feature","geometry":{"type":"Point","coordinates":[113.286463,40.071654]},"properties":{"province":"山西省","city":"大同市","county":"平城区","community":"医专家属院1号楼3单元","full_address":"山西省大同市平城区医专家属院1号楼3单元","info":""}},{"type":"Feature","geometry":{"type":"Point","coordinates":[113.29798,40.07583]},"properties":{"province":"山西省","city":"大同市","county":"平城区","community":"旧桥西16号楼1单元","full_address":"山西省大同市平城区旧桥西16号楼1单元","info":""}},{"type":"Feature","geometry":{"type":"Point","coordinates":[113.297203,40.06292]},"properties":{"province":"山西省","city":"大同市","county":"平城区","community":"新旺花园28号","full_address":"山西省大同市平城区新旺花园28号","info":""}},{"type":"Feature","geometry":{"type":"Point","coordinates":[113.30196,40.06098]},"properties":{"province":"山西省","city":"大同市","county":"平城区","community":"云沁园10号楼1单元","full_address":"山西省大同市平城区云沁园10号楼1单元","info":""}},{"type":"Feature","geometry":{"type":"Point","coordinates":[113.284631,40.084481]},"properties":{"province":"山西省","city":"大同市","county":"平城区","community":"兴达园4号楼","full_address":"山西省大同市平城区兴达园4号楼","info":""}},{"type":"Feature","geometry":{"type":"Point","coordinates":[113.29798,40.07583]},"properties":{"province":"山西省","city":"大同市","county":"平城区","community":"博雅府小区1号楼2单元","full_address":"山西省大同市平城区博雅府小区1号楼2单元","info":""}},{"type":"Feature","geometry":{"type":"Point","coordinates":[113.275284,40.050941]},"properties":{"province":"山西省","city":"大同市","county":"平城区","community":"华阳日月城小区18栋2单元","full_address":"山西省大同市平城区华阳日月城小区18栋2单元","info":""}},{"type":"Feature","geometry":{"type":"Point","coordinates":[113.285902,40.08512]},"properties":{"province":"山西省","city":"大同市","county":"平城区","community":"兴达园小区6号楼","full_address":"山西省大同市平城区兴达园小区6号楼","info":""}},{"type":"Feature","geometry":{"type":"Point","coordinates":[113.29798,40.07583]},"properties":{"province":"山西省","city":"大同市","county":"平城区","community":"金懋府小区21号1单元","full_address":"山西省大同市平城区金懋府小区21号1单元","info":""}},{"type":"Feature","geometry":{"type":"Point","coordinates":[113.283852,40.068279]},"properties":{"province":"山西省","city":"大同市","county":"平城区","community":"万城华府二期5号楼","full_address":"山西省大同市平城区万城华府二期5号楼","info":""}},{"type":"Feature","geometry":{"type":"Point","coordinates":[113.22744,39.994911]},"properties":{"province":"山西省","city":"大同市","county":"云冈区","community":"同地景园C区","full_address":"山西省大同市云冈区同地景园C区","info":""}},{"type":"Feature","geometry":{"type":"Point","coordinates":[113.2279,39.99841]},"properties":{"province":"山西省","city":"大同市","county":"云冈区","community":"恒安新区W区","full_address":"山西省大同市云冈区恒安新区W区","info":""}},{"type":"Feature","geometry":{"type":"Point","coordinates":[113.218483,40.006084]},"properties":{"province":"山西省","city":"大同市","county":"云冈区","community":"恒安帝景城1栋","full_address":"山西省大同市云冈区恒安帝景城1栋","info":""}},{"type":"Feature","geometry":{"type":"Point","coordinates":[113.191948,40.047611]},"properties":{"province":"山西省","city":"大同市","county":"云冈区","community":"同煤总院平旺院区全科住院楼","full_address":"山西省大同市云冈区同煤总院平旺院区全科住院楼","info":""}},{"type":"Feature","geometry":{"type":"Point","coordinates":[113.220222,40.020554]},"properties":{"province":"山西省","city":"大同市","county":"云冈区","community":"恒安新区K区25栋","full_address":"山西省大同市云冈区恒安新区K区25栋","info":""}},{"type":"Feature","geometry":{"type":"Point","coordinates":[113.21854,40.001919]},"properties":{"province":"山西省","city":"大同市","county":"云冈区","community":"恒安新区H区46号楼","full_address":"山西省大同市云冈区恒安新区H区46号楼","info":""}},{"type":"Feature","geometry":{"type":"Point","coordinates":[113.235252,40.019981]},"properties":{"province":"山西省","city":"大同市","county":"云冈区","community":"同煤总医院平旺院区肿瘤住院部","full_address":"山西省大同市云冈区同煤总医院平旺院区肿瘤住院部","info":""}},{"type":"Feature","geometry":{"type":"Point","coordinates":[113.2184,40.00559]},"properties":{"province":"山西省","city":"大同市","county":"云冈区","community":"恒安新区F区69栋","full_address":"山西省大同市云冈区恒安新区F区69栋","info":""}},{"type":"Feature","geometry":{"type":"Point","coordinates":[113.21854,40.001919]},"properties":{"province":"山西省","city":"大同市","county":"云冈区","community":"恒安新区H区62栋","full_address":"山西省大同市云冈区恒安新区H区62栋","info":""}},{"type":"Feature","geometry":{"type":"Point","coordinates":[113.222977,40.095009]},"properties":{"province":"山西省","city":"大同市","county":"云冈区","community":"小站村云州西城A16栋","full_address":"山西省大同市云冈区小站村云州西城A16栋","info":""}},{"type":"Feature","geometry":{"type":"Point","coordinates":[113.222984,40.094894]},"properties":{"province":"山西省","city":"大同市","county":"云冈区","community":"云洲西城S1区6栋","full_address":"山西省大同市云冈区云洲西城S1区6栋","info":""}},{"type":"Feature","geometry":{"type":"Point","coordinates":[113.21854,40.001919]},"properties":{"province":"山西省","city":"大同市","county":"云冈区","community":"恒安新区H区56栋","full_address":"山西省大同市云冈区恒安新区H区56栋","info":""}},{"type":"Feature","geometry":{"type":"Point","coordinates":[113.176483,40.018551]},"properties":{"province":"山西省","city":"大同市","county":"云冈区","community":"景秀苑小区53号楼","full_address":"山西省大同市云冈区景秀苑小区53号楼","info":""}},{"type":"Feature","geometry":{"type":"Point","coordinates":[113.2184,40.00559]},"properties":{"province":"山西省","city":"大同市","county":"云冈区","community":"恒安新区F区36栋","full_address":"山西省大同市云冈区恒安新区F区36栋","info":""}},{"type":"Feature","geometry":{"type":"Point","coordinates":[113.219353,39.998249]},"properties":{"province":"山西省","city":"大同市","county":"云冈区","community":"同地景园A区（4栋、11栋）","full_address":"山西省大同市云冈区同地景园A区（4栋、11栋）","info":""}},{"type":"Feature","geometry":{"type":"Point","coordinates":[113.149696,40.005405]},"properties":{"province":"山西省","city":"大同市","county":"云冈区","community":"利民小区28号楼","full_address":"山西省大同市云冈区利民小区28号楼","info":""}},{"type":"Feature","geometry":{"type":"Point","coordinates":[113.170769,40.032452]},"properties":{"province":"山西省","city":"大同市","county":"云冈区","community":"同福园小区2栋","full_address":"山西省大同市云冈区同福园小区2栋","info":""}},{"type":"Feature","geometry":{"type":"Point","coordinates":[113.171158,40.03336]},"properties":{"province":"山西省","city":"大同市","county":"云冈区","community":"向阳楼平房1排和2排","full_address":"山西省大同市云冈区向阳楼平房1排和2排","info":""}},{"type":"Feature","geometry":{"type":"Point","coordinates":[113.173653,40.040382]},"properties":{"province":"山西省","city":"大同市","county":"云冈区","community":"聚运家园2栋","full_address":"山西省大同市云冈区聚运家园2栋","info":""}},{"type":"Feature","geometry":{"type":"Point","coordinates":[113.14952,40.00543]},"properties":{"province":"山西省","city":"大同市","county":"云冈区","community":"和七区20栋","full_address":"山西省大同市云冈区和七区20栋","info":""}},{"type":"Feature","geometry":{"type":"Point","coordinates":[113.217102,39.995621]},"properties":{"province":"山西省","city":"大同市","county":"云冈区","community":"同地景园D区9栋","full_address":"山西省大同市云冈区同地景园D区9栋","info":""}},{"type":"Feature","geometry":{"type":"Point","coordinates":[113.213158,40.017365]},"properties":{"province":"山西省","city":"大同市","county":"云冈区","community":"恒安新区A区36栋","full_address":"山西省大同市云冈区恒安新区A区36栋","info":""}},{"type":"Feature","geometry":{"type":"Point","coordinates":[113.235252,40.019981]},"properties":{"province":"山西省","city":"大同市","county":"云冈区","community":"同煤医院平旺院区老干楼","full_address":"山西省大同市云冈区同煤医院平旺院区老干楼","info":""}},{"type":"Feature","geometry":{"type":"Point","coordinates":[113.224481,39.99771]},"properties":{"province":"山西省","city":"大同市","county":"云冈区","community":"恒安新区V区20栋","full_address":"山西省大同市云冈区恒安新区V区20栋","info":""}},{"type":"Feature","geometry":{"type":"Point","coordinates":[113.47171,40.056343]},"properties":{"province":"山西省","city":"大同市","county":"云州区","community":"湖东电力机务段及周边区域（党留庄村、马连庄、侯大庄；湖东社区；倍加造村、独树等）","full_address":"山西省大同市云州区湖东电力机务段及周边区域（党留庄村、马连庄、侯大庄；湖东社区；倍加造村、独树等）","info":""}},{"type":"Feature","geometry":{"type":"Point","coordinates":[114.338364,39.447193]},"properties":{"province":"山西省","city":"大同市","county":"灵丘县","community":"荣乌高速灵丘服务区","full_address":"山西省大同市灵丘县荣乌高速灵丘服务区","info":""}},{"type":"Feature","geometry":{"type":"Point","coordinates":[114.322792,39.44767]},"properties":{"province":"山西省","city":"大同市","county":"灵丘县","community":"落水河乡落水河村","full_address":"山西省大同市灵丘县落水河乡落水河村","info":""}},{"type":"Feature","geometry":{"type":"Point","coordinates":[113.709862,39.690231]},"properties":{"province":"山西省","city":"大同市","county":"浑源县","community":"锦阳烟酒店（东至天峰南路、西至恒山南路、南至恒荫东街、北至兴源东街）","full_address":"山西省大同市浑源县锦阳烟酒店（东至天峰南路、西至恒山南路、南至恒荫东街、北至兴源东街）","info":""}},{"type":"Feature","geometry":{"type":"Point","coordinates":[113.6908,39.69873]},"properties":{"province":"山西省","city":"大同市","county":"浑源县","community":"民安街永光巷136号","full_address":"山西省大同市浑源县民安街永光巷136号","info":""}},{"type":"Feature","geometry":{"type":"Point","coordinates":[113.676788,39.692074]},"properties":{"province":"山西省","city":"大同市","county":"浑源县","community":"环卫处对面同心巷南北区域","full_address":"山西省大同市浑源县环卫处对面同心巷南北区域","info":""}},{"type":"Feature","geometry":{"type":"Point","coordinates":[113.699509,39.694759]},"properties":{"province":"山西省","city":"大同市","county":"浑源县","community":"老爷庙小区","full_address":"山西省大同市浑源县老爷庙小区","info":""}},{"type":"Feature","geometry":{"type":"Point","coordinates":[113.6908,39.69873]},"properties":{"province":"山西省","city":"大同市","county":"浑源县","community":"道巷街宝源巷","full_address":"山西省大同市浑源县道巷街宝源巷","info":""}},{"type":"Feature","geometry":{"type":"Point","coordinates":[113.541092,39.587421]},"properties":{"province":"山西省","city":"大同市","county":"浑源县","community":"裴村乡下疃村","full_address":"山西省大同市浑源县裴村乡下疃村","info":""}},{"type":"Feature","geometry":{"type":"Point","coordinates":[113.509911,39.589661]},"properties":{"province":"山西省","city":"大同市","county":"浑源县","community":"西坊城镇圪坨村","full_address":"山西省大同市浑源县西坊城镇圪坨村","info":""}},{"type":"Feature","geometry":{"type":"Point","coordinates":[113.584373,39.599373]},"properties":{"province":"山西省","city":"大同市","county":"浑源县","community":"东坊城乡晋家庄村","full_address":"山西省大同市浑源县东坊城乡晋家庄村","info":""}},{"type":"Feature","geometry":{"type":"Point","coordinates":[113.6908,39.69873]},"properties":{"province":"山西省","city":"大同市","county":"浑源县","community":"旧防疫站巷","full_address":"山西省大同市浑源县旧防疫站巷","info":""}},{"type":"Feature","geometry":{"type":"Point","coordinates":[113.31414,40.076748]},"properties":{"province":"山西省","city":"大同市","county":"浑源县","community":"地税局家属楼","full_address":"山西省大同市浑源县地税局家属楼","info":""}},{"type":"Feature","geometry":{"type":"Point","coordinates":[113.686958,39.6842]},"properties":{"province":"山西省","city":"大同市","county":"浑源县","community":"新汽车站东侧废品收购站","full_address":"山西省大同市浑源县新汽车站东侧废品收购站","info":""}},{"type":"Feature","geometry":{"type":"Point","coordinates":[113.695099,39.69939]},"properties":{"province":"山西省","city":"大同市","county":"浑源县","community":"圆梦园商城","full_address":"山西省大同市浑源县圆梦园商城","info":""}},{"type":"Feature","geometry":{"type":"Point","coordinates":[113.699493,39.69286]},"properties":{"province":"山西省","city":"大同市","county":"浑源县","community":"永安镇南顺街岳麓后门大白楼附近（南至恒荫东街、东至岳麓小区西墙界、北至华泰酒店南巷直通、西至无名小巷）","full_address":"山西省大同市浑源县永安镇南顺街岳麓后门大白楼附近（南至恒荫东街、东至岳麓小区西墙界、北至华泰酒店南巷直通、西至无名小巷）","info":""}},{"type":"Feature","geometry":{"type":"Point","coordinates":[113.619713,39.635113]},"properties":{"province":"山西省","city":"大同市","county":"浑源县","community":"荆庄村新农村及附近区域","full_address":"山西省大同市浑源县荆庄村新农村及附近区域","info":""}},{"type":"Feature","geometry":{"type":"Point","coordinates":[113.606224,39.61969]},"properties":{"province":"山西省","city":"大同市","county":"浑源县","community":"东坊城乡长条村","full_address":"山西省大同市浑源县东坊城乡长条村","info":""}},{"type":"Feature","geometry":{"type":"Point","coordinates":[113.558434,39.58477]},"properties":{"province":"山西省","city":"大同市","county":"浑源县","community":"裴村乡凌云口村","full_address":"山西省大同市浑源县裴村乡凌云口村","info":""}},{"type":"Feature","geometry":{"type":"Point","coordinates":[113.564674,39.642303]},"properties":{"province":"山西省","city":"大同市","county":"浑源县","community":"裴村乡西辛庄村","full_address":"山西省大同市浑源县裴村乡西辛庄村","info":""}},{"type":"Feature","geometry":{"type":"Point","coordinates":[113.69886,39.70013]},"properties":{"province":"山西省","city":"大同市","county":"浑源县","community":"恒安小区","full_address":"山西省大同市浑源县恒安小区","info":""}},{"type":"Feature","geometry":{"type":"Point","coordinates":[113.706299,39.70435]},"properties":{"province":"山西省","city":"大同市","county":"浑源县","community":"书院小区","full_address":"山西省大同市浑源县书院小区","info":""}},{"type":"Feature","geometry":{"type":"Point","coordinates":[113.688339,39.702629]},"properties":{"province":"山西省","city":"大同市","county":"浑源县","community":"永安镇体育场西大街体育巷8号（北至和顺北路、南至体育场北口的铁栏围墙以东两排平房区域）","full_address":"山西省大同市浑源县永安镇体育场西大街体育巷8号（北至和顺北路、南至体育场北口的铁栏围墙以东两排平房区域）","info":""}},{"type":"Feature","geometry":{"type":"Point","coordinates":[112.865944,35.475739]},"properties":{"province":"山西省","city":"晋城市","county":"城区","community":"钟家庄办事处文峰社区新区","full_address":"山西省晋城市城区钟家庄办事处文峰社区新区","info":""}},{"type":"Feature","geometry":{"type":"Point","coordinates":[112.900909,35.54332]},"properties":{"province":"山西省","city":"晋城市","county":"城区","community":".经济开发区金城私家小厨餐厅","full_address":"山西省晋城市城区.经济开发区金城私家小厨餐厅","info":""}},{"type":"Feature","geometry":{"type":"Point","coordinates":[112.886169,35.467102]},"properties":{"province":"山西省","city":"晋城市","county":"城区","community":"钟家庄办事处白水东街晋膳荟饭店","full_address":"山西省晋城市城区钟家庄办事处白水东街晋膳荟饭店","info":""}},{"type":"Feature","geometry":{"type":"Point","coordinates":[112.886169,35.467102]},"properties":{"province":"山西省","city":"晋城市","county":"城区","community":"钟家庄办事处景福苑小区","full_address":"山西省晋城市城区钟家庄办事处景福苑小区","info":""}},{"type":"Feature","geometry":{"type":"Point","coordinates":[112.42215,39.305061]},"properties":{"province":"山西省","city":"朔州市","county":"朔城区","community":"南关村中心区域（当关）","full_address":"山西省朔州市朔城区南关村中心区域（当关）","info":""}},{"type":"Feature","geometry":{"type":"Point","coordinates":[113.111626,39.803532]},