{"type":"FeatureCollection","features":[{"type":"Feature","geometry":{"type":"Point","coordinates":[116.449044,39.885582]},"properties":{"province":"北京市","city":"朝阳区","county":"双井街道","community":"广和南里二条","full_address":"北京市朝阳区双井街道广和南里二条","info":""}},{"type":"Feature","geometry":{"type":"Point","coordinates":[116.510722,39.864433]},"properties":{"province":"北京市","city":"朝阳区","county":"垡头街道","community":"垡头西里社区","full_address":"北京市朝阳区垡头街道垡头西里社区","info":""}},{"type":"Feature","geometry":{"type":"Point","coordinates":[116.509688,39.862818]},"properties":{"province":"北京市","city":"朝阳区","county":"垡头街道","community":"垡头西里三区","full_address":"北京市朝阳区垡头街道垡头西里三区","info":""}},{"type":"Feature","geometry":{"type":"Point","coordinates":[116.474732,39.873125]},"properties":{"province":"北京市","city":"朝阳区","county":"潘家园街道","community":"松榆东里社区","full_address":"北京市朝阳区潘家园街道松榆东里社区","info":""}},{"type":"Feature","geometry":{"type":"Point","coordinates":[116.469673,39.877948]},"properties":{"province":"北京市","city":"朝阳区","county":"潘家园街道","community":"武圣东里","full_address":"北京市朝阳区潘家园街道武圣东里","info":""}},{"type":"Feature","geometry":{"type":"Point","coordinates":[116.474454,39.869267]},"properties":{"province":"北京市","city":"朝阳区","county":"南磨房（地区）乡","community":"南新园社区","full_address":"北京市朝阳区南磨房（地区）乡南新园社区","info":""}},{"type":"Feature","geometry":{"type":"Point","coordinates":[116.48198,39.869661]},"properties":{"province":"北京市","city":"朝阳区","county":"南磨房（地区）乡","community":"双龙南里","full_address":"北京市朝阳区南磨房（地区）乡双龙南里","info":""}},{"type":"Feature","geometry":{"type":"Point","coordinates":[116.44805,39.870565]},"properties":{"province":"北京市","city":"朝阳区","county":"十八里店（地区）乡","community":"弘善家园","full_address":"北京市朝阳区十八里店（地区）乡弘善家园","info":""}},{"type":"Feature","geometry":{"type":"Point","coordinates":[116.492067,40.043867]},"properties":{"province":"北京市","city":"朝阳区","county":"十八里店（地区）乡","community":"周家庄中路20号院","full_address":"北京市朝阳区十八里店（地区）乡周家庄中路20号院","info":""}},{"type":"Feature","geometry":{"type":"Point","coordinates":[116.562776,39.904949]},"properties":{"province":"北京市","city":"朝阳区","county":"三间房（地区）乡","community":"艺水芳园社区","full_address":"北京市朝阳区三间房（地区）乡艺水芳园社区","info":""}},{"type":"Feature","geometry":{"type":"Point","coordinates":[116.069794,39.675424]},"properties":{"province":"北京市","city":"房山区","county":"窦店镇","community":"于庄村","full_address":"北京市房山区窦店镇于庄村","info":""}},{"type":"Feature","geometry":{"type":"Point","coordinates":[116.068652,39.659157]},"properties":{"province":"北京市","city":"房山区","county":"窦店镇","community":"田家园村","full_address":"北京市房山区窦店镇田家园村","info":""}},{"type":"Feature","geometry":{"type":"Point","coordinates":[118.672429,39.880166]},"properties":{"province":"河北省","city":"唐山市","county":"迁安市","community":"野鸡坨镇邵家营村","full_address":"河北省唐山市迁安市野鸡坨镇邵家营村","info":""}},{"type":"Feature","geometry":{"type":"Point","coordinates":[114.774245,36.886488]},"properties":{"province":"河北省","city":"邯郸市","county":"鸡泽县","community":"浮图店镇","full_address":"河北省邯郸市鸡泽县浮图店镇","info":""}},{"type":"Feature","geometry":{"type":"Point","coordinates":[114.96318,36.239794]},"properties":{"province":"河北省","city":"邯郸市","county":"魏县","community":"双井镇野庄村","full_address":"河北省邯郸市魏县双井镇野庄村","info":""}},{"type":"Feature","geometry":{"type":"Point","coordinates":[114.857974,37.073041]},"properties":{"province":"河北省","city":"邢台市","county":"南和区","community":"史召乡李牌村片区（史召乡果寨村以北、340国道以南、留垒河以西、史召桥村以东合围区域）","full_address":"河北省邢台市南和区史召乡李牌村片区（史召乡果寨村以北、340国道以南、留垒河以西、史召桥村以东合围区域）","info":""}},{"type":"Feature","geometry":{"type":"Point","coordinates":[112.52823,37.605501]},"properties":{"province":"山西省","city":"太原市","county":"清徐县","community":"王答乡元跃物流园区","full_address":"山西省太原市清徐县王答乡元跃物流园区","info":""}},{"type":"Feature","geometry":{"type":"Point","coordinates":[117.537741,49.580289]},"properties":{"province":"内蒙古自治区","city":"呼伦贝尔市","county":"满洲里市","community":"南区街道","full_address":"内蒙古自治区呼伦贝尔市满洲里市南区街道","info":""}},{"type":"Feature","geometry":{"type":"Point","coordinates":[117.477144,49.588341]},"properties":{"province":"内蒙古自治区","city":"呼伦贝尔市","county":"满洲里市","community":"北区街道","full_address":"内蒙古自治区呼伦贝尔市满洲里市北区街道","info":""}},{"type":"Feature","geometry":{"type":"Point","coordinates":[117.459632,49.592082]},"properties":{"province":"内蒙古自治区","city":"呼伦贝尔市","county":"满洲里市","community":"兴华街道","full_address":"内蒙古自治区呼伦贝尔市满洲里市兴华街道","info":""}},{"type":"Feature","geometry":{"type":"Point","coordinates":[117.477144,49.588341]},"properties":{"province":"内蒙古自治区","city":"呼伦贝尔市","county":"满洲里市","community":"东山街道","full_address":"内蒙古自治区呼伦贝尔市满洲里市东山街道","info":""}},{"type":"Feature","geometry":{"type":"Point","coordinates":[124.350231,40.098558]},"properties":{"province":"辽宁省","city":"丹东市","county":"振兴区","community":"知春园小区一期","full_address":"辽宁省丹东市振兴区知春园小区一期","info":""}},{"type":"Feature","geometry":{"type":"Point","coordinates":[124.354849,40.104742]},"properties":{"province":"辽宁省","city":"丹东市","county":"振兴区","community":"丹建锦园93号楼","full_address":"辽宁省丹东市振兴区丹建锦园93号楼","info":""}},{"type":"Feature","geometry":{"type":"Point","coordinates":[124.354174,40.104129]},"properties":{"province":"辽宁省","city":"丹东市","county":"振兴区","community":"丹建锦园95号楼","full_address":"辽宁省丹东市振兴区丹建锦园95号楼","info":""}},{"type":"Feature","geometry":{"type":"Point","coordinates":[124.36721,40.104225]},"properties":{"province":"辽宁省","city":"丹东市","county":"振兴区","community":"福临花园小区","full_address":"辽宁省丹东市振兴区福临花园小区","info":""}},{"type":"Feature","geometry":{"type":"Point","coordinates":[124.348167,40.004713]},"properties":{"province":"辽宁省","city":"丹东市","county":"振兴区","community":"文安新村小区","full_address":"辽宁省丹东市振兴区文安新村小区","info":""}},{"type":"Feature","geometry":{"type":"Point","coordinates":[125.349553,43.838087]},"properties":{"province":"吉林省","city":"长春市","county":"南关区","community":"鸿城街道卫星花园","full_address":"吉林省长春市南关区鸿城街道卫星花园","info":""}},{"type":"Feature","geometry":{"type":"Point","coordinates":[125.335509,43.810922]},"properties":{"province":"吉林省","city":"长春市","county":"南关区","community":"明珠街道万科金域长春","full_address":"吉林省长春市南关区明珠街道万科金域长春","info":""}},{"type":"Feature","geometry":{"type":"Point","coordinates":[125.332371,43.897818]},"properties":{"province":"吉林省","city":"长春市","county":"宽城区","community":"凯旋街道友谊花园小区","full_address":"吉林省长春市宽城区凯旋街道友谊花园小区","info":""}},{"type":"Feature","geometry":{"type":"Point","coordinates":[125.247924,43.910786]},"properties":{"province":"吉林省","city":"长春市","county":"绿园区","community":"林园街道3535小区","full_address":"吉林省长春市绿园区林园街道3535小区","info":""}},{"type":"Feature","geometry":{"type":"Point","coordinates":[125.291183,43.920892]},"properties":{"province":"吉林省","city":"长春市","county":"绿园区","community":"青年街道133厂小区","full_address":"吉林省长春市绿园区青年街道133厂小区","info":""}},{"type":"Feature","geometry":{"type":"Point","coordinates":[125.289015,43.922344]},"properties":{"province":"吉林省","city":"长春市","county":"绿园区","community":"青年街道宇航社区日鑫小区B区","full_address":"吉林省长春市绿园区青年街道宇航社区日鑫小区B区","info":""}},{"type":"Feature","geometry":{"type":"Point","coordinates":[125.836325,44.14929]},"properties":{"province":"吉林省","city":"长春市","county":"九台区","community":"主城区","full_address":"吉林省长春市九台区主城区","info":""}},{"type":"Feature","geometry":{"type":"Point","coordinates":[125.369752,43.782667]},"properties":{"province":"吉林省","city":"长春市","county":"净月区","community":"德容街道福临花园","full_address":"吉林省长春市净月区德容街道福临花园","info":""}},{"type":"Feature","geometry":{"type":"Point","coordinates":[125.368909,43.809792]},"properties":{"province":"吉林省","city":"长春市","county":"净月区","community":"德正街道保利香槟","full_address":"吉林省长春市净月区德正街道保利香槟","info":""}},{"type":"Feature","geometry":{"type":"Point","coordinates":[125.393589,43.950179]},"properties":{"province":"吉林省","city":"长春市","county":"经开区","community":"兴隆山镇中海寰宇天下","full_address":"吉林省长春市经开区兴隆山镇中海寰宇天下","info":""}},{"type":"Feature","geometry":{"type":"Point","coordinates":[125.392061,43.954743]},"properties":{"province":"吉林省","city":"长春市","county":"经开区","community":"兴隆山镇金色家园","full_address":"吉林省长春市经开区兴隆山镇金色家园","info":""}},{"type":"Feature","geometry":{"type":"Point","coordinates":[125.401175,43.966065]},"properties":{"province":"吉林省","city":"长春市","county":"长春新区","community":"北湖街道北湖花园","full_address":"吉林省长春市长春新区北湖街道北湖花园","info":""}},{"type":"Feature","geometry":{"type":"Point","coordinates":[126.225734,43.979173]},"properties":{"province":"吉林省","city":"吉林市","county":"昌邑区","community":"桦皮厂镇桦皮厂社区","full_address":"吉林省吉林市昌邑区桦皮厂镇桦皮厂社区","info":""}},{"type":"Feature","geometry":{"type":"Point","coordinates":[126.262059,44.073294]},"properties":{"province":"吉林省","city":"吉林市","county":"昌邑区","community":"两家子乡李屯村","full_address":"吉林省吉林市昌邑区两家子乡李屯村","info":""}},{"type":"Feature","geometry":{"type":"Point","coordinates":[126.544244,43.853315]},"properties":{"province":"吉林省","city":"吉林市","county":"船营区","community":"北极街道望云山景小区","full_address":"吉林省吉林市船营区北极街道望云山景小区","info":""}},{"type":"Feature","geometry":{"type":"Point","coordinates":[122.807963,45.615534]},"properties":{"province":"吉林省","city":"白城市","county":"经济开发区","community":"白城师范学院校园整体","full_address":"吉林省白城市经济开发区白城师范学院校园整体","info":""}},{"type":"Feature","geometry":{"type":"Point","coordinates":[126.569844,45.739734]},"properties":{"province":"黑龙江省","city":"哈尔滨市","county":"道里区","community":"城乡路街道汇智广场B座（东方大街与规划路交叉口）","full_address":"黑龙江省哈尔滨市道里区城乡路街道汇智广场B座（东方大街与规划路交叉口）","info":""}},{"type":"Feature","geometry":{"type":"Point","coordinates":[126.599462,45.734886]},"properties":{"province":"黑龙江省","city":"哈尔滨市","county":"道里区","community":"城乡路街道悦庭清湾小区（顾新路497号）","full_address":"黑龙江省哈尔滨市道里区城乡路街道悦庭清湾小区（顾新路497号）","info":""}},{"type":"Feature","geometry":{"type":"Point","coordinates":[126.564567,45.722669]},"properties":{"province":"黑龙江省","city":"哈尔滨市","county":"道里区","community":"群力新苑小区C区（工农大街625号）","full_address":"黑龙江省哈尔滨市道里区群力新苑小区C区（工农大街625号）","info":""}},{"type":"Feature","geometry":{"type":"Point","coordinates":[126.641227,45.740301]},"properties":{"province":"黑龙江省","city":"哈尔滨市","county":"南岗区","community":"文汇家园小区1栋","full_address":"黑龙江省哈尔滨市南岗区文汇家园小区1栋","info":""}},{"type":"Feature","geometry":{"type":"Point","coordinates":[126.626207,45.748738]},"properties":{"province":"黑龙江省","city":"哈尔滨市","county":"南岗区","community":"上夹树街75号院","full_address":"黑龙江省哈尔滨市南岗区上夹树街75号院","info":""}},{"type":"Feature","geometry":{"type":"Point","coordinates":[126.634333,45.693195]},"properties":{"province":"黑龙江省","city":"哈尔滨市","county":"南岗区","community":"大众新城220栋","full_address":"黑龙江省哈尔滨市南岗区大众新城220栋","info":""}},{"type":"Feature","geometry":{"type":"Point","coordinates":[126.631063,45.756896]},"properties":{"province":"黑龙江省","city":"哈尔滨市","county":"南岗区","community":"海城街176号院","full_address":"黑龙江省哈尔滨市南岗区海城街176号院","info":""}},{"type":"Feature","geometry":{"type":"Point","coordinates":[126.607796,45.700024]},"properties":{"province":"黑龙江省","city":"哈尔滨市","county":"南岗区","community":"新境街10号新华印刷厂家属楼小区10栋","full_address":"黑龙江省哈尔滨市南岗区新境街10号新华印刷厂家属楼小区10栋","info":""}},{"type":"Feature","geometry":{"type":"Point","coordinates":[126.633811,45.757645]},"properties":{"province":"黑龙江省","city":"哈尔滨市","county":"南岗区","community":"建筑街84号居民楼","full_address":"黑龙江省哈尔滨市南岗区建筑街84号居民楼","info":""}},{"type":"Feature","geometry":{"type":"Point","coordinates":[126.634804,45.758163]},"properties":{"province":"黑龙江省","city":"哈尔滨市","county":"南岗区","community":"建筑街78号所在居民楼和海关街144号所在居民楼及其合围区域","full_address":"黑龙江省哈尔滨市南岗区建筑街78号所在居民楼和海关街144号所在居民楼及其合围区域","info":""}},{"type":"Feature","geometry":{"type":"Point","coordinates":[126.63344,45.682796]},"properties":{"province":"黑龙江省","city":"哈尔滨市","county":"南岗区","community":"鲁商凤凰城3栋","full_address":"黑龙江省哈尔滨市南岗区鲁商凤凰城3栋","info":""}},{"type":"Feature","geometry":{"type":"Point","coordinates":[126.638341,45.66194]},"properties":{"province":"黑龙江省","city":"哈尔滨市","county":"香坊区","community":"朝阳镇前进村居民区","full_address":"黑龙江省哈尔滨市香坊区朝阳镇前进村居民区","info":""}},{"type":"Feature","geometry":{"type":"Point","coordinates":[126.606994,45.650868]},"properties":{"province":"黑龙江省","city":"哈尔滨市","county":"香坊区","community":"朝阳镇永胜村居民区","full_address":"黑龙江省哈尔滨市香坊区朝阳镇永胜村居民区","info":""}},{"type":"Feature","geometry":{"type":"Point","coordinates":[126.77602,45.712059]},"properties":{"province":"黑龙江省","city":"哈尔滨市","county":"香坊区","community":"新香坊街道办事处金源蓝城小区11号楼","full_address":"黑龙江省哈尔滨市香坊区新香坊街道办事处金源蓝城小区11号楼","info":""}},{"type":"Feature","geometry":{"type":"Point","coordinates":[126.594436,45.618744]},"properties":{"province":"黑龙江省","city":"哈尔滨市","county":"香坊区","community":"朝阳镇平安村居民区","full_address":"黑龙江省哈尔滨市香坊区朝阳镇平安村居民区","info":""}},{"type":"Feature","geometry":{"type":"Point","coordinates":[126.336232,45.371599]},"properties":{"province":"黑龙江省","city":"哈尔滨市","county":"双城区","community":"承旭街道社保局东边胡同平房片区","full_address":"黑龙江省哈尔滨市双城区承旭街道社保局东边胡同平房片区","info":""}},{"type":"Feature","geometry":{"type":"Point","coordinates":[126.311982,45.365889]},"properties":{"province":"黑龙江省","city":"哈尔滨市","county":"双城区","community":"永治街道团结大街235号幸福e家1栋","full_address":"黑龙江省哈尔滨市双城区永治街道团结大街235号幸福e家1栋","info":""}},{"type":"Feature","geometry":{"type":"Point","coordinates":[126.371909,45.460288]},"properties":{"province":"黑龙江省","city":"哈尔滨市","county":"双城区","community":"幸福街道庆宁村","full_address":"黑龙江省哈尔滨市双城区幸福街道庆宁村","info":""}},{"type":"Feature","geometry":{"type":"Point","coordinates":[126.298179,45.389768]},"properties":{"province":"黑龙江省","city":"哈尔滨市","county":"双城区","community":"永治街道奋斗社区温馨小区1栋","full_address":"黑龙江省哈尔滨市双城区永治街道奋斗社区温馨小区1栋","info":""}},{"type":"Feature","geometry":{"type":"Point","coordinates":[126.24858,45.414338]},"properties":{"province":"黑龙江省","city":"哈尔滨市","county":"双城区","community":"乐群满族乡乐民村","full_address":"黑龙江省哈尔滨市双城区乐群满族乡乐民村","info":""}},{"type":"Feature","geometry":{"type":"Point","coordinates":[126.295425,45.39092]},"properties":{"province":"黑龙江省","city":"哈尔滨市","county":"双城区","community":"永治街道车站街一委四组","full_address":"黑龙江省哈尔滨市双城区永治街道车站街一委四组","info":""}},{"type":"Feature","geometry":{"type":"Point","coordinates":[126.306161,45.391833]},"properties":{"province":"黑龙江省","city":"哈尔滨市","county":"双城区","community":"永治街道天富名苑小区","full_address":"黑龙江省哈尔滨市双城区永治街道天富名苑小区","info":""}},{"type":"Feature","geometry":{"type":"Point","coordinates":[126.306714,45.384589]},"properties":{"province":"黑龙江省","city":"哈尔滨市","county":"双城区","community":"永治街道洗涤剂家属楼小区","full_address":"黑龙江省哈尔滨市双城区永治街道洗涤剂家属楼小区","info":""}},{"type":"Feature","geometry":{"type":"Point","coordinates":[126.303811,45.385381]},"properties":{"province":"黑龙江省","city":"哈尔滨市","county":"双城区","community":"永治街道财富名苑小区","full_address":"黑龙江省哈尔滨市双城区永治街道财富名苑小区","info":""}},{"type":"Feature","geometry":{"type":"Point","coordinates":[126.321428,45.380756]},"properties":{"province":"黑龙江省","city":"哈尔滨市","county":"双城区","community":"永治街道民乐小区B区","full_address":"黑龙江省哈尔滨市双城区永治街道民乐小区B区","info":""}},{"type":"Feature","geometry":{"type":"Point","coordinates":[126.311769,45.378679]},"properties":{"province":"黑龙江省","city":"哈尔滨市","county":"双城区","community":"永治街道明城华都5栋","full_address":"黑龙江省哈尔滨市双城区永治街道明城华都5栋","info":""}},{"type":"Feature","geometry":{"type":"Point","coordinates":[126.308265,45.37835]},"properties":{"province":"黑龙江省","city":"哈尔滨市","county":"双城区","community":"永治街道鑫马家园小区","full_address":"黑龙江省哈尔滨市双城区永治街道鑫马家园小区","info":""}},{"type":"Feature","geometry":{"type":"Point","coordinates":[126.297742,45.360648]},"properties":{"province":"黑龙江省","city":"哈尔滨市","county":"双城区","community":"承恩街道承恩村六组二委","full_address":"黑龙江省哈尔滨市双城区承恩街道承恩村六组二委","info":""}},{"type":"Feature","geometry":{"type":"Point","coordinates":[126.329111,45.360939]},"properties":{"province":"黑龙江省","city":"哈尔滨市","county":"双城区","community":"承旭街道党校家属楼小区","full_address":"黑龙江省哈尔滨市双城区承旭街道党校家属楼小区","info":""}},{"type":"Feature","geometry":{"type":"Point","coordinates":[126.439674,45.424944]},"properties":{"province":"黑龙江省","city":"哈尔滨市","county":"双城区","community":"幸福街道永支村","full_address":"黑龙江省哈尔滨市双城区幸福街道永支村","info":""}},{"type":"Feature","geometry":{"type":"Point","coordinates":[126.390369,45.331452]},"properties":{"province":"黑龙江省","city":"哈尔滨市","county":"双城区","community":"联兴镇安乐村","full_address":"黑龙江省哈尔滨市双城区联兴镇安乐村","info":""}},{"type":"Feature","geometry":{"type":"Point","coordinates":[126.327848,45.380773]},"properties":{"province":"黑龙江省","city":"哈尔滨市","county":"双城区","community":"承旭街道枫桥郡小区","full_address":"黑龙江省哈尔滨市双城区承旭街道枫桥郡小区","info":""}},{"type":"Feature","geometry":{"type":"Point","coordinates":[126.329316,45.368591]},"properties":{"province":"黑龙江省","city":"哈尔滨市","county":"双城区","community":"律政花园","full_address":"黑龙江省哈尔滨市双城区律政花园","info":""}},{"type":"Feature","geometry":{"type":"Point","coordinates":[126.317889,45.381923]},"properties":{"province":"黑龙江省","city":"哈尔滨市","county":"双城区","community":"金园一品小区2栋","full_address":"黑龙江省哈尔滨市双城区金园一品小区2栋","info":""}},{"type":"Feature","geometry":{"type":"Point","coordinates":[126.317465,45.382391]},"properties":{"province":"黑龙江省","city":"哈尔滨市","county":"双城区","community":"金园一品小区4栋","full_address":"黑龙江省哈尔滨市双城区金园一品小区4栋","info":""}},{"type":"Feature","geometry":{"type":"Point","coordinates":[129.592584,44.592964]},"properties":{"province":"黑龙江省","city":"牡丹江市","county":"爱民区","community":"拥军社区","full_address":"黑龙江省牡丹江市爱民区拥军社区","info":""}},{"type":"Feature","geometry":{"type":"Point","coordinates":[121.479018,31.211278]},"properties":{"province":"上海市","city":"上海市","county":"黄浦区","community":"打浦桥街道顺昌路612弄20号","full_address":"上海市上海市黄浦区打浦桥街道顺昌路612弄20号","info":""}},{"type":"Feature","geometry":{"type":"Point","coordinates":[121.434136,31.075312]},"properties":{"province":"上海市","city":"上海市","county":"闵行区","community":"梅陇镇许泾村八组","full_address":"上海市上海市闵行区梅陇镇许泾村八组","info":""}},{"type":"Feature","geometry":{"type":"Point","coordinates":[121.427627,31.115935]},"properties":{"province":"上海市","city":"上海市","county":"闵行区","community":"梅陇镇行南村三队","full_address":"上海市上海市闵行区梅陇镇行南村三队","info":""}},{"type":"Feature","geometry":{"type":"Point","coordinates":[121.330245,31.226634]},"properties":{"province":"上海市","city":"上海市","county":"闵行区","community":"华漕镇许浦村三队","full_address":"上海市上海市闵行区华漕镇许浦村三队","info":""}},{"type":"Feature","geometry":{"type":"Point","coordinates":[121.273533,31.319578]},"properties":{"province":"上海市","city":"上海市","county":"嘉定区","community":"马陆镇康年路261号工地宿舍","full_address":"上海市上海市嘉定区马陆镇康年路261号工地宿舍","info":""}},{"type":"Feature","geometry":{"type":"Point","coordinates":[121.290151,31.242066]},"properties":{"province":"上海市","city":"上海市","county":"嘉定区","community":"江桥镇增建村柴中村民组","full_address":"上海市上海市嘉定区江桥镇增建村柴中村民组","info":""}},{"type":"Feature","geometry":{"type":"Point","coordinates":[121.583173,31.275461]},"properties":{"province":"上海市","city":"上海市","county":"浦东新区","community":"日京路88号","full_address":"上海市上海市浦东新区日京路88号","info":""}},{"type":"Feature","geometry":{"type":"Point","coordinates":[121.583173,31.275461]},"properties":{"province":"上海市","city":"上海市","county":"浦东新区","community":"北蔡镇联勤村冯桥南宅","full_address":"上海市上海市浦东新区北蔡镇联勤村冯桥南宅","info":""}},{"type":"Feature","geometry":{"type":"Point","coordinates":[121.556073,31.171023]},"properties":{"province":"上海市","city":"上海市","county":"浦东新区","community":"北蔡镇鹏飞路411弄6号","full_address":"上海市上海市浦东新区北蔡镇鹏飞路411弄6号","info":""}},{"type":"Feature","geometry":{"type":"Point","coordinates":[121.583173,31.275461]},"properties":{"province":"上海市","city":"上海市","county":"浦东新区","community":"康桥镇苗桥路935弄19号","full_address":"上海市上海市浦东新区康桥镇苗桥路935弄19号","info":""}},{"type":"Feature","geometry":{"type":"Point","coordinates":[121.583173,31.275461]},"properties":{"province":"上海市","city":"上海市","county":"浦东新区","community":"北蔡镇御北路235号","full_address":"上海市上海市浦东新区北蔡镇御北路235号","info":""}},{"type":"Feature","geometry":{"type":"Point","coordinates":[121.7325,31.38375]},"properties":{"province":"上海市","city":"上海市","county":"崇明区","community":"长兴镇长明村21队","full_address":"上海市上海市崇明区长兴镇长明村21队","info":""}},{"type":"Feature","geometry":{"type":"Point","coordinates":[121.714608,31.38134]},"properties":{"province":"上海市","city":"上海市","county":"崇明区","community":"长兴镇新港村15队","full_address":"上海市上海市崇明区长兴镇新港村15队","info":""}},{"type":"Feature","geometry":{"type":"Point","coordinates":[117.949817,33.934166]},"properties":{"province":"江苏省","city":"徐州市","county":"睢宁县","community":"景湖小区一期4号楼","full_address":"江苏省徐州市睢宁县景湖小区一期4号楼","info":""}},{"type":"Feature","geometry":{"type":"Point","coordinates":[117.95348,33.917102]},"properties":{"province":"江苏省","city":"徐州市","county":"睢宁县","community":"李岳小区18号楼","full_address":"江苏省徐州市睢宁县李岳小区18号楼","info":""}},{"type":"Feature","geometry":{"type":"Point","coordinates":[120.92878,31.272748]},"properties":{"province":"江苏省","city":"苏州市","county":"昆山市","community":"通湖路公园壹号13幢","full_address":"江苏省苏州市昆山市通湖路公园壹号13幢","info":""}},{"type":"Feature","geometry":{"type":"Point","coordinates":[120.949162,31.386972]},"properties":{"province":"江苏省","city":"苏州市","county":"昆山市","community":"中山路假日花苑3幢、4幢","full_address":"江苏省苏州市昆山市中山路假日花苑3幢、4幢","info":""}},{"type":"Feature","geometry":{"type":"Point","coordinates":[119.526504,26.664921]},"properties":{"province":"福建省","city":"宁德市","county":"蕉城区","community":"七都镇浦源社区","full_address":"福建省宁德市蕉城区七都镇浦源社区","info":""}},{"type":"Feature","geometry":{"type":"Point","coordinates":[119.550477,26.757597]},"properties":{"province":"福建省","city":"宁德市","county":"蕉城区","community":"七都镇官亭村","full_address":"福建省宁德市蕉城区七都镇官亭村","info":""}},{"type":"Feature","geometry":{"type":"Point","coordinates":[119.549061,26.776494]},"properties":{"province":"福建省","city":"宁德市","county":"蕉城区","community":"七都镇贝河村","full_address":"福建省宁德市蕉城区七都镇贝河村","info":""}},{"type":"Feature","geometry":{"type":"Point","coordinates":[119.54552,26.727449]},"properties":{"province":"福建省","city":"宁德市","county":"蕉城区","community":"七都镇六都村","full_address":"福建省宁德市蕉城区七都镇六都村","info":""}},{"type":"Feature","geometry":{"type":"Point","coordinates":[119.569201,26.808991]},"properties":{"province":"福建省","city":"宁德市","county":"蕉城区","community":"八都镇八都村","full_address":"福建省宁德市蕉城区八都镇八都村","info":""}},{"type":"Feature","geometry":{"type":"Point","coordinates":[119.551087,26.809965]},"properties":{"province":"福建省","city":"宁德市","county":"蕉城区","community":"八都镇下坂村","full_address":"福建省宁德市蕉城区八都镇下坂村","info":""}},{"type":"Feature","geometry":{"type":"Point","coordinates":[113.990914,33.587453]},"properties":{"province":"河南省","city":"漯河市","county":"郾城区","community":"海河路沙澧文景苑小区","full_address":"河南省漯河市郾城区海河路沙澧文景苑小区","info":""}},{"type":"Feature","geometry":{"type":"Point","coordinates":[115.846834,32.074969]},"properties":{"province":"河南省","city":"信阳市","county":"固始县","community":"石佛店镇漂桥村","full_address":"河南省信阳市固始县石佛店镇漂桥村","info":""}},{"type":"Feature","geometry":{"type":"Point","coordinates":[115.858527,32.054626]},"properties":{"province":"河南省","city":"信阳市","county":"固始县","community":"张广庙镇龙井村","full_address":"河南省信阳市固始县张广庙镇龙井村","info":""}},{"type":"Feature","geometry":{"type":"Point","coordinates":[111.500366,27.246786]},"properties":{"province":"湖南省","city":"邵阳市","county":"双清区","community":"龙须塘街道","full_address":"湖南省邵阳市双清区龙须塘街道","info":""}},{"type":"Feature","geometry":{"type":"Point","coordinates":[111.501692,27.22741]},"properties":{"province":"湖南省","city":"邵阳市","county":"双清区","community":"石桥街道","full_address":"湖南省邵阳市双清区石桥街道","info":""}},{"type":"Feature","geometry":{"type":"Point","coordinates":[111.446187,27.23675]},"properties":{"province":"湖南省","city":"邵阳市","county":"大祥区","community":"城北路街道西外街社区的西外街路以南、民族二巷路以西、红旗西路以北、恒大未来城三期围墙以东的围合区域","full_address":"湖南省邵阳市大祥区城北路街道西外街社区的西外街路以南、民族二巷路以西、红旗西路以北、恒大未来城三期围墙以东的围合区域","info":""}},{"type":"Feature","geometry":{"type":"Point","coordinates":[111.449607,27.242565]},"properties":{"province":"湖南省","city":"邵阳市","county":"北塔区","community":"陈家桥镇（含陈家桥镇杨旗岭社区的云山路以北、资兴路以东、龙源路以南、宝苑路以西的围合区域）","full_address":"湖南省邵阳市北塔区陈家桥镇（含陈家桥镇杨旗岭社区的云山路以北、资兴路以东、龙源路以南、宝苑路以西的围合区域）","info":""}},{"type":"Feature","geometry":{"type":"Point","coordinates":[108.81236,34.302455]},"properties":{"province":"陕西省","city":"西安市","county":"西咸新区","community":"沣东新城三桥街道秦汉酒店（天台路店）","full_address":"陕西省西安市西咸新区沣东新城三桥街道秦汉酒店（天台路店）","info":""}}]}