{"type":"FeatureCollection","features":[{"type":"Feature","geometry":{"type":"Point","coordinates":[116.474454,39.869267]},"properties":{"full_address":"北京市朝阳区南磨房（地区）乡南新园社区"}},{"type":"Feature","geometry":{"type":"Point","coordinates":[116.482204,39.851558]},"properties":{"full_address":"北京市朝阳区十八里店（地区）乡周家庄村"}},{"type":"Feature","geometry":{"type":"Point","coordinates":[116.360403,39.946471]},"properties":{"full_address":"北京市海淀区北太平庄街道金晖远洋社区远洋风景小区"}},{"type":"Feature","geometry":{"type":"Point","coordinates":[116.327758,40.0514]},"properties":{"full_address":"北京市海淀区清河街道安宁北路社区安宁佳园小区"}},{"type":"Feature","geometry":{"type":"Point","coordinates":[115.986119,39.64438]},"properties":{"full_address":"北京市房山区石楼镇石楼村"}},{"type":"Feature","geometry":{"type":"Point","coordinates":[116.083569,39.72191]},"properties":{"full_address":"北京市房山区阎村镇大紫草坞村"}},{"type":"Feature","geometry":{"type":"Point","coordinates":[116.085285,39.721999]},"properties":{"full_address":"北京市房山区阎村镇北京理工大学房山分校"}},{"type":"Feature","geometry":{"type":"Point","coordinates":[115.924703,39.608771]},"properties":{"full_address":"北京市房山区韩村河镇五侯村"}},{"type":"Feature","geometry":{"type":"Point","coordinates":[116.177603,39.74338]},"properties":{"full_address":"北京市房山区拱辰街道世茂维拉社区"}},{"type":"Feature","geometry":{"type":"Point","coordinates":[116.178435,39.745588]},"properties":{"full_address":"北京市房山区长阳镇韵达快递长阳分部"}}]}