{"type":"FeatureCollection","features":[{"type":"Feature","geometry":{"type":"Point","coordinates":[117.26785,39.06128]},"properties":{"full_address":"天津市天津市河西区陈塘庄街云山里双号22-30门，单号29-33门、35-39门、41-45门、47-51门、53-55门、57-61门、63-67门及小区内的天津科信建设工程检测有限公司办公楼"}},{"type":"Feature","geometry":{"type":"Point","coordinates":[117.659324,39.052082]},"properties":{"full_address":"天津市天津市滨海新区新北街道首创国际小区45-56号楼"}},{"type":"Feature","geometry":{"type":"Point","coordinates":[124.309649,39.984767]},"properties":{"full_address":"辽宁省丹东市振兴区浪头镇文斌村群平路3001号-3007号"}},{"type":"Feature","geometry":{"type":"Point","coordinates":[126.533002,44.82321]},"properties":{"full_address":"吉林省长春市榆树市瑞达世纪铭城（含MD理发店、新世纪超市、玉兰源生鲜超市）"}},{"type":"Feature","geometry":{"type":"Point","coordinates":[126.5295,44.823069]},"properties":{"full_address":"吉林省长春市榆树市繁荣安居"}},{"type":"Feature","geometry":{"type":"Point","coordinates":[126.56391,44.828079]},"properties":{"full_address":"吉林省长春市榆树市东郡府小区"}},{"type":"Feature","geometry":{"type":"Point","coordinates":[121.446928,31.118948]},"properties":{"full_address":"上海市上海市徐汇区华泾镇华泾路1000弄"}},{"type":"Feature","geometry":{"type":"Point","coordinates":[121.420607,31.207477]},"properties":{"full_address":"上海市上海市长宁区新华路街道延安西路1558弄1-4号"}},{"type":"Feature","geometry":{"type":"Point","coordinates":[121.479617,31.272209]},"properties":{"full_address":"上海市上海市虹口区欧阳路街道东江湾路456号"}},{"type":"Feature","geometry":{"type":"Point","coordinates":[121.514711,31.255577]},"properties":{"full_address":"上海市上海市虹口区四川北路街道四平路59号"}},{"type":"Feature","geometry":{"type":"Point","coordinates":[121.511549,31.304924]},"properties":{"full_address":"上海市上海市杨浦区五角场街道大学路沿街商铺区域及所在楼栋（大学路38-102号、191-265号、242-318号）"}},{"type":"Feature","geometry":{"type":"Point","coordinates":[121.512379,31.19648]},"properties":{"full_address":"上海市上海市浦东新区南码头路街道浦三路111弄5号楼和颐酒店（上海新国际博览中心世博园店）"}},{"type":"Feature","geometry":{"type":"Point","coordinates":[121.510939,31.197011]},"properties":{"full_address":"上海市上海市浦东新区南码头路街道南码头路451弄、浦三路12弄3号、5号、7号、9-16号、21-32号"}},{"type":"Feature","geometry":{"type":"Point","coordinates":[121.317814,31.109308]},"properties":{"full_address":"上海市上海市松江区九亭镇同利路19-59号、36-68号"}},{"type":"Feature","geometry":{"type":"Point","coordinates":[119.03915,34.896696]},"properties":{"full_address":"江苏省连云港市赣榆区城头镇南杨村"}},{"type":"Feature","geometry":{"type":"Point","coordinates":[117.238981,33.097595]},"properties":{"full_address":"安徽省蚌埠市怀远县魏庄镇全域"}},{"type":"Feature","geometry":{"type":"Point","coordinates":[117.199504,32.954819]},"properties":{"full_address":"安徽省蚌埠市怀远县荆山镇卞和社区淮风苑小区（含附属门面）"}},{"type":"Feature","geometry":{"type":"Point","coordinates":[117.198579,32.955818]},"properties":{"full_address":"安徽省蚌埠市怀远县荆山镇卞和社区禹城小区（含附属门面）"}},{"type":"Feature","geometry":{"type":"Point","coordinates":[117.202662,32.958329]},"properties":{"full_address":"安徽省蚌埠市怀远县荆山镇顺河社区江山御景小区"}},{"type":"Feature","geometry":{"type":"Point","coordinates":[117.195189,32.959679]},"properties":{"full_address":"安徽省蚌埠市怀远县荆山镇文昌社区三清财富城（含附属门面）"}},{"type":"Feature","geometry":{"type":"Point","coordinates":[117.199067,32.954377]},"properties":{"full_address":"安徽省蚌埠市怀远县荆山镇卞和社区南大街沿路门面"}},{"type":"Feature","geometry":{"type":"Point","coordinates":[117.219385,33.030064]},"properties":{"full_address":"安徽省蚌埠市怀远县榴城镇曹河村"}},{"type":"Feature","geometry":{"type":"Point","coordinates":[117.210355,32.974708]},"properties":{"full_address":"安徽省蚌埠市怀远县榴城镇禹都华庭东区"}},{"type":"Feature","geometry":{"type":"Point","coordinates":[117.209843,32.979325]},"properties":{"full_address":"安徽省蚌埠市怀远县榴城镇颐景花园小区"}},{"type":"Feature","geometry":{"type":"Point","coordinates":[117.218802,32.97571]},"properties":{"full_address":"安徽省蚌埠市怀远县榴城镇新河杰座小区"}},{"type":"Feature","geometry":{"type":"Point","coordinates":[117.2454,32.97009]},"properties":{"full_address":"安徽省蚌埠市怀远县经开区银锐智能科技股份有限公司"}},{"type":"Feature","geometry":{"type":"Point","coordinates":[117.167677,32.957405]},"properties":{"full_address":"安徽省蚌埠市怀远县荆山镇梅郢社区华地紫园小区"}},{"type":"Feature","geometry":{"type":"Point","coordinates":[117.166595,32.963165]},"properties":{"full_address":"安徽省蚌埠市怀远县荆山镇梅郢社区嘉富新城小区"}},{"type":"Feature","geometry":{"type":"Point","coordinates":[117.201433,32.957496]},"properties":{"full_address":"安徽省蚌埠市怀远县荆山镇望月社区城关医院附近门面（区域范围西至新民路、北至禹王路、南至健康路、东至东大街单行道）"}},{"type":"Feature","geometry":{"type":"Point","coordinates":[117.25686,32.970137]},"properties":{"full_address":"安徽省蚌埠市怀远县怀远工业园区台丽包装厂"}},{"type":"Feature","geometry":{"type":"Point","coordinates":[117.196651,32.970292]},"properties":{"full_address":"安徽省蚌埠市怀远县榴城镇新怀社区中央花园小区"}},{"type":"Feature","geometry":{"type":"Point","coordinates":[117.211561,32.976662]},"properties":{"full_address":"安徽省蚌埠市怀远县榴城镇双墩社区书香门第小区"}},{"type":"Feature","geometry":{"type":"Point","coordinates":[117.216117,32.964542]},"properties":{"full_address":"安徽省蚌埠市怀远县榴城镇引凤社区禹都雅苑小区"}},{"type":"Feature","geometry":{"type":"Point","coordinates":[117.232468,32.981504]},"properties":{"full_address":"安徽省蚌埠市怀远县榴城镇五岔社区"}},{"type":"Feature","geometry":{"type":"Point","coordinates":[117.120504,33.16387]},"properties":{"full_address":"安徽省蚌埠市怀远县包集镇南严村"}},{"type":"Feature","geometry":{"type":"Point","coordinates":[116.77022,33.083486]},"properties":{"full_address":"安徽省蚌埠市怀远县徐圩乡钞湖村"}},{"type":"Feature","geometry":{"type":"Point","coordinates":[117.029124,32.81765]},"properties":{"full_address":"安徽省蚌埠市怀远县常坟镇邹庙村"}},{"type":"Feature","geometry":{"type":"Point","coordinates":[117.135505,33.099723]},"properties":{"full_address":"安徽省蚌埠市怀远县古城镇水海村"}},{"type":"Feature","geometry":{"type":"Point","coordinates":[117.087537,33.161662]},"properties":{"full_address":"安徽省蚌埠市怀远县淝河镇仁和村"}},{"type":"Feature","geometry":{"type":"Point","coordinates":[117.219528,32.970132]},"properties":{"full_address":"安徽省蚌埠市怀远县榴城镇新河社区文苑小区"}},{"type":"Feature","geometry":{"type":"Point","coordinates":[117.194609,32.99387]},"properties":{"full_address":"安徽省蚌埠市怀远县榴城镇泰山社区"}},{"type":"Feature","geometry":{"type":"Point","coordinates":[117.144623,33.084117]},"properties":{"full_address":"安徽省蚌埠市怀远县古城镇古城村"}},{"type":"Feature","geometry":{"type":"Point","coordinates":[117.167945,33.075557]},"properties":{"full_address":"安徽省蚌埠市怀远县古城镇刘桥村"}},{"type":"Feature","geometry":{"type":"Point","coordinates":[117.162499,33.080191]},"properties":{"full_address":"安徽省蚌埠市怀远县古城镇三岔路街道"}},{"type":"Feature","geometry":{"type":"Point","coordinates":[119.796825,25.499102]},"properties":{"full_address":"福建省平潭综合实验区平潭综合实验区磹报村"}},{"type":"Feature","geometry":{"type":"Point","coordinates":[119.796825,25.499102]},"properties":{"full_address":"福建省平潭综合实验区平潭综合实验区南赖村"}},{"type":"Feature","geometry":{"type":"Point","coordinates":[119.796825,25.499102]},"properties":{"full_address":"福建省平潭综合实验区平潭综合实验区澳前村"}},{"type":"Feature","geometry":{"type":"Point","coordinates":[115.885841,28.683545]},"properties":{"full_address":"江西省南昌市东湖区大士院四区27栋、大士院四区28栋5单元、大士院四区29栋4单元、大士院四区25栋7单元、大士院四区35栋合围区域"}},{"type":"Feature","geometry":{"type":"Point","coordinates":[115.884472,28.684687]},"properties":{"full_address":"江西省南昌市东湖区旺中旺超市（大士院19栋1层52号）"}},{"type":"Feature","geometry":{"type":"Point","coordinates":[115.885326,28.684685]},"properties":{"full_address":"江西省南昌市东湖区八一桥大士院玩具店（大士院四区16栋）"}},{"type":"Feature","geometry":{"type":"Point","coordinates":[115.88448,28.68464]},"properties":{"full_address":"江西省南昌市东湖区八一桥街道半步街46号1-6单元区域"}},{"type":"Feature","geometry":{"type":"Point","coordinates":[115.884942,28.685107]},"properties":{"full_address":"江西省南昌市东湖区东湖小殷诊所（大士院北区1栋1单元71-75号）"}},{"type":"Feature","geometry":{"type":"Point","coordinates":[115.88437,28.685501]},"properties":{"full_address":"江西省南昌市东湖区八一桥街道大士院半步街88号"}},{"type":"Feature","geometry":{"type":"Point","coordinates":[115.896876,28.67027]},"properties":{"full_address":"江西省南昌市西湖区南海行宫社区干家大屋27号"}},{"type":"Feature","geometry":{"type":"Point","coordinates":[115.877823,28.671594]},"properties":{"full_address":"江西省南昌市西湖区中山西路66号桃花源居小区B2栋1单元"}},{"type":"Feature","geometry":{"type":"Point","coordinates":[115.89232,28.665939]},"properties":{"full_address":"江西省南昌市西湖区南浦街道船山路156号（东西南北中对面）“三毛烧烤大鱼店"}},{"type":"Feature","geometry":{"type":"Point","coordinates":[115.877069,28.669444]},"properties":{"full_address":"江西省南昌市西湖区朝阳洲街道团结路和谐花园小区4栋"}},{"type":"Feature","geometry":{"type":"Point","coordinates":[115.87698,28.66785]},"properties":{"full_address":"江西省南昌市西湖区朝阳洲街道红光楼小区14栋"}},{"type":"Feature","geometry":{"type":"Point","coordinates":[115.894567,28.652036]},"properties":{"full_address":"江西省南昌市西湖区十字街街道安石路126号龙韵花园A1、A2栋"}},{"type":"Feature","geometry":{"type":"Point","coordinates":[115.89263,28.66642]},"properties":{"full_address":"江西省南昌市西湖区二郎庙社区石头街66号"}},{"type":"Feature","geometry":{"type":"Point","coordinates":[115.89524,28.665672]},"properties":{"full_address":"江西省南昌市西湖区西书院社区西书院街1号3栋3单元"}},{"type":"Feature","geometry":{"type":"Point","coordinates":[115.89117,28.66621]},"properties":{"full_address":"江西省南昌市西湖区船山社区惠民门一区5栋旁建筑"}},{"type":"Feature","geometry":{"type":"Point","coordinates":[115.89442,28.66568]},"properties":{"full_address":"江西省南昌市西湖区石头街31号、33号"}},{"type":"Feature","geometry":{"type":"Point","coordinates":[115.91983,28.642751]},"properties":{"full_address":"江西省南昌市青云谱区洪都热心村3排14号"}},{"type":"Feature","geometry":{"type":"Point","coordinates":[115.93945,28.657695]},"properties":{"full_address":"江西省南昌市新建区长堎镇集贸社区新民巷住宅区7号楼"}},{"type":"Feature","geometry":{"type":"Point","coordinates":[115.864697,28.689913]},"properties":{"full_address":"江西省南昌市红谷滩区联发广场"}},{"type":"Feature","geometry":{"type":"Point","coordinates":[115.783826,28.629546]},"properties":{"full_address":"江西省南昌市红谷滩区站西花园10号楼"}},{"type":"Feature","geometry":{"type":"Point","coordinates":[115.862919,28.697502]},"properties":{"full_address":"江西省南昌市红谷滩区现代铭园1号楼3单元"}},{"type":"Feature","geometry":{"type":"Point","coordinates":[118.265041,35.109748]},"properties":{"full_address":"山东省临沂市兰山区兰山街道杜家朱许村"}},{"type":"Feature","geometry":{"type":"Point","coordinates":[118.255938,35.110777]},"properties":{"full_address":"山东省临沂市兰山区兰山街道董家朱许村"}},{"type":"Feature","geometry":{"type":"Point","coordinates":[118.02575,34.852554]},"properties":{"full_address":"山东省临沂市兰陵县卞庄街道幸福花园小区10号楼"}},{"type":"Feature","geometry":{"type":"Point","coordinates":[113.547909,34.823434]},"properties":{"full_address":"河南省郑州市高新区枫杨办事处金菊街36号丁楼庄园小区14号楼"}},{"type":"Feature","geometry":{"type":"Point","coordinates":[113.5558,34.81712]},"properties":{"full_address":"河南省郑州市高新区迎春街52号朗悦公园茂1号馆"}},{"type":"Feature","geometry":{"type":"Point","coordinates":[113.558636,34.82439]},"properties":{"full_address":"河南省郑州市高新区雪松路169号院"}},{"type":"Feature","geometry":{"type":"Point","coordinates":[113.556767,34.824315]},"properties":{"full_address":"河南省郑州市高新区金菊街16号锦华苑小区11号楼"}},{"type":"Feature","geometry":{"type":"Point","coordinates":[113.768159,34.768932]},"properties":{"full_address":"河南省郑州市郑东新区博学路街道瀚海晴宇小区3号楼"}},{"type":"Feature","geometry":{"type":"Point","coordinates":[113.589945,33.371668]},"properties":{"full_address":"河南省平顶山市舞钢市枣林镇瑞森鲜易进出口有限公司"}},{"type":"Feature","geometry":{"type":"Point","coordinates":[113.6673,33.383191]},"properties":{"full_address":"河南省平顶山市舞钢市枣林镇迎宾大道以西、黄庄村口以北区域"}},{"type":"Feature","geometry":{"type":"Point","coordinates":[113.602257,33.374779]},"properties":{"full_address":"河南省平顶山市舞钢市枣林镇张卜庄村"}},{"type":"Feature","geometry":{"type":"Point","coordinates":[113.584943,33.374845]},"properties":{"full_address":"河南省平顶山市舞钢市枣林镇黄庄村"}},{"type":"Feature","geometry":{"type":"Point","coordinates":[113.593181,33.366249]},"properties":{"full_address":"河南省平顶山市舞钢市枣林镇枣林村"}},{"type":"Feature","geometry":{"type":"Point","coordinates":[113.5373,33.32916]},"properties":{"full_address":"河南省平顶山市舞钢市枣林镇逸锦超市"}},{"type":"Feature","geometry":{"type":"Point","coordinates":[113.555612,33.377955]},"properties":{"full_address":"河南省平顶山市舞钢市枣林镇韦庄村庆丽超市"}},{"type":"Feature","geometry":{"type":"Point","coordinates":[113.541736,33.379188]},"properties":{"full_address":"河南省平顶山市舞钢市八台镇小唐村"}},{"type":"Feature","geometry":{"type":"Point","coordinates":[114.022883,32.98583]},"properties":{"full_address":"河南省驻马店市驿城区西园街道文化社区燃料公司家属院"}},{"type":"Feature","geometry":{"type":"Point","coordinates":[114.018672,32.961038]},"properties":{"full_address":"河南省驻马店市驿城区老街街道天中社区伟恒泊岸小区"}},{"type":"Feature","geometry":{"type":"Point","coordinates":[113.327894,32.731456]},"properties":{"full_address":"河南省驻马店市泌阳县付庄乡范庄村委付庄街"}},{"type":"Feature","geometry":{"type":"Point","coordinates":[113.496165,32.969043]},"properties":{"full_address":"河南省驻马店市泌阳县付庄乡范庄村委马下庄自然村"}},{"type":"Feature","geometry":{"type":"Point","coordinates":[113.506116,32.974861]},"properties":{"full_address":"河南省驻马店市泌阳县付庄乡李岗村委李岗自然村"}},{"type":"Feature","geometry":{"type":"Point","coordinates":[113.506116,32.974861]},"properties":{"full_address":"河南省驻马店市泌阳县付庄乡李岗村委土桥自然村"}},{"type":"Feature","geometry":{"type":"Point","coordinates":[113.328476,32.732037]},"properties":{"full_address":"河南省驻马店市泌阳县县城文化路与花园巷南交叉口以南、自该交叉口沿花园巷向南50米处巷西第一条居民出入道口以北、沿巷西第一条居民出入口向西100米处一条南北通道以东、花园巷东侧大门朝西的住户及门面以西的合围区域"}},{"type":"Feature","geometry":{"type":"Point","coordinates":[113.327727,23.183035]},"properties":{"full_address":"广东省广州市白云区京溪街春兰花园16、17、18、19栋"}},{"type":"Feature","geometry":{"type":"Point","coordinates":[113.255016,23.255611]},"properties":{"full_address":"广东省广州市白云区白云湖街道：北至桑下街二巷，东至桑下街，西至JC02488房，南至黄氏大宗祠"}},{"type":"Feature","geometry":{"type":"Point","coordinates":[113.32937,23.180457]},"properties":{"full_address":"广东省广州市白云区京溪街道：益和巷8号、9号、10号、11号、12号、12号之一、13号、14号、15号、16号、16号之一、17号、18号、19号"}},{"type":"Feature","geometry":{"type":"Point","coordinates":[114.1416,22.581026]},"properties":{"full_address":"广东省深圳市罗湖区东湖街道观山祥苑临近05、06生活区"}},{"type":"Feature","geometry":{"type":"Point","coordinates":[114.168901,22.558281]},"properties":{"full_address":"广东省深圳市罗湖区莲塘街道鹏兴花园五期64栋"}},{"type":"Feature","geometry":{"type":"Point","coordinates":[114.175252,22.55854]},"properties":{"full_address":"广东省深圳市罗湖区莲塘街道港莲二村第12栋"}},{"type":"Feature","geometry":{"type":"Point","coordinates":[114.145592,22.575004]},"properties":{"full_address":"广东省深圳市罗湖区黄贝街道水库社区爱国路4006号宿舍E栋"}},{"type":"Feature","geometry":{"type":"Point","coordinates":[114.105899,22.549918]},"properties":{"full_address":"广东省深圳市罗湖区桂园街道松园社区锦程国际三栋"}},{"type":"Feature","geometry":{"type":"Point","coordinates":[114.045722,22.522223]},"properties":{"full_address":"广东省深圳市福田区沙头街道新洲社区祠堂村文化广场以南区域（新洲二街—新洲六街—祠堂村一街—祠堂村文化广场南侧围合区域）"}},{"type":"Feature","geometry":{"type":"Point","coordinates":[114.085915,22.531252]},"properties":{"full_address":"广东省深圳市福田区福田街道福田南路34号小区（综合楼、生活区篮球场除外）"}},{"type":"Feature","geometry":{"type":"Point","coordinates":[114.060899,22.510482]},"properties":{"full_address":"广东省深圳市福田区福保街道福保社区丽港湾丽湾阁"}},{"type":"Feature","geometry":{"type":"Point","coordinates":[114.054044,22.50829]},"properties":{"full_address":"广东省深圳市福田区福保街道福保社区福源花园三期南海苑"}},{"type":"Feature","geometry":{"type":"Point","coordinates":[113.953779,22.546141]},"properties":{"full_address":"广东省深圳市南山区粤海街道铜鼓社区华润润府三期4栋"}},{"type":"Feature","geometry":{"type":"Point","coordinates":[113.951011,22.522271]},"properties":{"full_address":"广东省深圳市南山区粤海街道岸芷汀兰1栋"}},{"type":"Feature","geometry":{"type":"Point","coordinates":[113.955786,22.583881]},"properties":{"full_address":"广东省深圳市南山区西丽街道九祥岭村西区第13、14A、14B、15、16、17栋，九祥岭村东区第89、90、91、97、98、99栋"}},{"type":"Feature","geometry":{"type":"Point","coordinates":[114.057076,22.598662]},"properties":{"full_address":"广东省深圳市龙华区民治街道民乐社区民乐翠园第9栋"}},{"type":"Feature","geometry":{"type":"Point","coordinates":[114.029476,22.60307]},"properties":{"full_address":"广东省深圳市龙华区民治街道北站社区龙悦居2期第4栋"}},{"type":"Feature","geometry":{"type":"Point","coordinates":[113.555544,22.259706]},"properties":{"full_address":"广东省珠海市香洲区翠香街道青竹花园35栋"}},{"type":"Feature","geometry":{"type":"Point","coordinates":[113.557877,22.26302]},"properties":{"full_address":"广东省珠海市香洲区翠香街道香溪庄27栋"}},{"type":"Feature","geometry":{"type":"Point","coordinates":[113.525286,22.307668]},"properties":{"full_address":"广东省珠海市香洲区凤山街道东坑社区黎屋街95号、97号、103号、105号、107号、113号、115号、117号"}},{"type":"Feature","geometry":{"type":"Point","coordinates":[113.554428,22.221584]},"properties":{"full_address":"广东省珠海市香洲区拱北街道海安园小区20栋3单元"}},{"type":"Feature","geometry":{"type":"Point","coordinates":[113.573448,22.246897]},"properties":{"full_address":"广东省珠海市香洲区吉大街道C派公寓48栋"}},{"type":"Feature","geometry":{"type":"Point","coordinates":[113.567643,22.249698]},"properties":{"full_address":"广东省珠海市香洲区吉大街道白莲路176号55栋"}},{"type":"Feature","geometry":{"type":"Point","coordinates":[113.574297,22.254732]},"properties":{"full_address":"广东省珠海市香洲区吉大街道海莲山庄小区"}},{"type":"Feature","geometry":{"type":"Point","coordinates":[113.571216,22.235971]},"properties":{"full_address":"广东省珠海市香洲区吉大街道海怡大厦"}},{"type":"Feature","geometry":{"type":"Point","coordinates":[113.572181,22.248041]},"properties":{"full_address":"广东省珠海市香洲区吉大街道吉莲新村小区15栋"}},{"type":"Feature","geometry":{"type":"Point","coordinates":[113.572181,22.248041]},"properties":{"full_address":"广东省珠海市香洲区吉大街道吉莲新村小区23栋"}},{"type":"Feature","geometry":{"type":"Point","coordinates":[113.588811,22.251704]},"properties":{"full_address":"广东省珠海市香洲区吉大街道景和街73号大姑乸村37栋2单元"}},{"type":"Feature","geometry":{"type":"Point","coordinates":[113.57039,22.24387]},"properties":{"full_address":"广东省珠海市香洲区吉大街道莲花山小区33栋"}},{"type":"Feature","geometry":{"type":"Point","coordinates":[113.593654,22.245837]},"properties":{"full_address":"广东省珠海市香洲区吉大街道龙洲湾花园1栋3单元"}},{"type":"Feature","geometry":{"type":"Point","coordinates":[113.591343,22.247104]},"properties":{"full_address":"广东省珠海市香洲区吉大街道情侣中路15号8栋"}},{"type":"Feature","geometry":{"type":"Point","coordinates":[113.570915,22.236081]},"properties":{"full_address":"广东省珠海市香洲区吉大街道水松花园2栋"}},{"type":"Feature","geometry":{"type":"Point","coordinates":[113.58294,22.25176]},"properties":{"full_address":"广东省珠海市香洲区吉大街道园林路航天综合楼"}},{"type":"Feature","geometry":{"type":"Point","coordinates":[113.523271,22.248698]},"properties":{"full_address":"广东省珠海市香洲区前山街道嘉信苑2栋1单元"}},{"type":"Feature","geometry":{"type":"Point","coordinates":[113.575012,22.30036]},"properties":{"full_address":"广东省珠海市香洲区香湾街道水拥坑新街52号"}},{"type":"Feature","geometry":{"type":"Point","coordinates":[113.589165,22.243414]},"properties":{"full_address":"广东省珠海市香洲区吉大街道弘发巷小区"}},{"type":"Feature","geometry":{"type":"Point","coordinates":[113.588578,22.252119]},"properties":{"full_address":"广东省珠海市香洲区吉大街道怡景社区景和街73号12栋"}},{"type":"Feature","geometry":{"type":"Point","coordinates":[113.571832,22.244248]},"properties":{"full_address":"广东省珠海市香洲区吉大街道莲花社区莲花山小区18栋"}},{"type":"Feature","geometry":{"type":"Point","coordinates":[113.525541,22.247851]},"properties":{"full_address":"广东省珠海市香洲区前山街道中山亭社区田德花园A区11栋"}},{"type":"Feature","geometry":{"type":"Point","coordinates":[113.520825,22.228777]},"properties":{"full_address":"广东省珠海市香洲区南屏镇华发新城18栋"}},{"type":"Feature","geometry":{"type":"Point","coordinates":[113.571958,22.248283]},"properties":{"full_address":"广东省珠海市香洲区吉大街道吉莲新村21栋"}},{"type":"Feature","geometry":{"type":"Point","coordinates":[113.571248,22.2476]},"properties":{"full_address":"广东省珠海市香洲区吉大街道吉莲新村27栋"}},{"type":"Feature","geometry":{"type":"Point","coordinates":[113.587752,22.252003]},"properties":{"full_address":"广东省珠海市香洲区景和街73号20栋"}},{"type":"Feature","geometry":{"type":"Point","coordinates":[113.520113,22.257704]},"properties":{"full_address":"广东省珠海市香洲区前山街道明珠南路3092号酒珠大厦"}},{"type":"Feature","geometry":{"type":"Point","coordinates":[113.591079,22.246229]},"properties":{"full_address":"广东省珠海市香洲区吉大街道九洲大道东1066号龙园8号"}},{"type":"Feature","geometry":{"type":"Point","coordinates":[113.443639,22.201888]},"properties":{"full_address":"广东省珠海市香洲区南屏镇广昌社区其昌街13、15、17号"}},{"type":"Feature","geometry":{"type":"Point","coordinates":[113.449524,22.204579]},"properties":{"full_address":"广东省珠海市香洲区南屏镇屏西七路2号珠海新茂义齿科技有限公司"}},{"type":"Feature","geometry":{"type":"Point","coordinates":[113.558298,22.22193]},"properties":{"full_address":"广东省珠海市香洲区拱北街道高沙中街108号"}},{"type":"Feature","geometry":{"type":"Point","coordinates":[113.557486,22.223501]},"properties":{"full_address":"广东省珠海市香洲区拱北街道高沙中街111号"}},{"type":"Feature","geometry":{"type":"Point","coordinates":[113.571103,22.252459]},"properties":{"full_address":"广东省珠海市香洲区吉大街道吉祥山庄1栋"}},{"type":"Feature","geometry":{"type":"Point","coordinates":[113.034368,23.063431]},"properties":{"full_address":"广东省佛山市南海区狮山镇翠湖绿洲二期24座"}},{"type":"Feature","geometry":{"type":"Point","coordinates":[113.089453,23.08088]},"properties":{"full_address":"广东省佛山市南海区狮山镇石碣朗大道、联和大道以东，机场涌、西区14路以南，兴和路、丰岗村涌、塱新大道以西，恒桂西路、恒桂中路、中区五路、东区十一路以北"}},{"type":"Feature","geometry":{"type":"Point","coordinates":[113.097076,22.847609]},"properties":{"full_address":"广东省佛山市顺德区龙江镇麦朗村东兴街一巷2号"}},{"type":"Feature","geometry":{"type":"Point","coordinates":[113.096476,22.840094]},"properties":{"full_address":"广东省佛山市顺德区龙江镇麦朗村振兴路七街二号"}},{"type":"Feature","geometry":{"type":"Point","coordinates":[110.926756,21.670621]},"properties":{"full_address":"广东省茂名市茂南区官渡街道官山三路北一巷66号大院（东景苑）3梯"}},{"type":"Feature","geometry":{"type":"Point","coordinates":[110.926756,21.670621]},"properties":{"full_address":"广东省茂名市茂南区官渡街道官山三路北一巷66号大院（东景苑）钢窗厂"}},{"type":"Feature","geometry":{"type":"Point","coordinates":[112.920729,24.140007]},"properties":{"full_address":"广东省清远市英德市九龙镇东至九龙一中围墙边，南至峰林街，西至解放路，北至团结路"}},{"type":"Feature","geometry":{"type":"Point","coordinates":[114.105947,22.82167]},"properties":{"full_address":"广东省东莞市塘厦镇莲湖社区二街二巷2号"}},{"type":"Feature","geometry":{"type":"Point","coordinates":[113.871861,22.92167]},"properties":{"full_address":"广东省东莞市松山湖高新技术产业开发区光大二期山河语岸8栋2单元"}},{"type":"Feature","geometry":{"type":"Point","coordinates":[113.248815,22.685219]},"properties":{"full_address":"广东省中山市小榄镇九洲基社区利成一巷1号相邻共3间房屋"}},{"type":"Feature","geometry":{"type":"Point","coordinates":[109.156555,21.478396]},"properties":{"full_address":"广西壮族自治区北海市海城区上海路以西，重庆路以北，湖南路以东，北海大道以南合围之处（除金缘世家小区，北部湾国际公馆小区，水电花园小区，世鑫大厦外）"}},{"type":"Feature","geometry":{"type":"Point","coordinates":[109.151782,21.480367]},"properties":{"full_address":"广西壮族自治区北海市海城区悦发三期（幸福苑）三栋"}},{"type":"Feature","geometry":{"type":"Point","coordinates":[109.157247,21.487614]},"properties":{"full_address":"广西壮族自治区北海市海城区高德街道马栏村委会大小岭70到72号"}},{"type":"Feature","geometry":{"type":"Point","coordinates":[109.173429,21.488759]},"properties":{"full_address":"广西壮族自治区北海市海城区高德街道马栏村委会海枫和苑4栋"}},{"type":"Feature","geometry":{"type":"Point","coordinates":[109.158841,21.485384]},"properties":{"full_address":"广西壮族自治区北海市海城区高德街道上海北路社区居委会政府集资小区一巷5到7栋，二巷5到7栋"}},{"type":"Feature","geometry":{"type":"Point","coordinates":[109.158109,21.479104]},"properties":{"full_address":"广西壮族自治区北海市海城区高德街道马栏村委会东峰广场9栋1单元"}},{"type":"Feature","geometry":{"type":"Point","coordinates":[109.152517,21.497334]},"properties":{"full_address":"广西壮族自治区北海市海城区高德街道高菜村委会北海二中"}},{"type":"Feature","geometry":{"type":"Point","coordinates":[109.157938,21.486023]},"properties":{"full_address":"广西壮族自治区北海市海城区高德街道马栏村委会湖海路银祥公寓1幢"}},{"type":"Feature","geometry":{"type":"Point","coordinates":[109.12775,21.472768]},"properties":{"full_address":"广西壮族自治区北海市海城区高德街道马栏村委会高德教育住宅小区第1排7幢第10到12号"}},{"type":"Feature","geometry":{"type":"Point","coordinates":[109.151031,21.46956]},"properties":{"full_address":"广西壮族自治区北海市海城区高德街道上海路包屋东1巷14到15号，2巷6到7号"}},{"type":"Feature","geometry":{"type":"Point","coordinates":[109.156564,21.500482]},"properties":{"full_address":"广西壮族自治区北海市海城区高德街道马栏村委会大小岭村12队高德医院在建工地北50米铁皮房"}},{"type":"Feature","geometry":{"type":"Point","coordinates":[109.369695,21.526371]},"properties":{"full_address":"广西壮族自治区北海市海城区高德街道开江村委会向海大道蔡屋村16号"}},{"type":"Feature","geometry":{"type":"Point","coordinates":[109.169505,21.515856]},"properties":{"full_address":"广西壮族自治区北海市海城区高德街道庙山社区七星江74号"}},{"type":"Feature","geometry":{"type":"Point","coordinates":[109.184583,21.478787]},"properties":{"full_address":"广西壮族自治区北海市海城区高德街道马栏村委会大小岭村381号"}},{"type":"Feature","geometry":{"type":"Point","coordinates":[109.161288,21.477356]},"properties":{"full_address":"广西壮族自治区北海市海城区高德街道马栏村委会北生生活区D栋"}},{"type":"Feature","geometry":{"type":"Point","coordinates":[109.155909,21.476546]},"properties":{"full_address":"广西壮族自治区北海市海城区高德街道马栏村委会湖北路洪恩花园1栋6单元"}},{"type":"Feature","geometry":{"type":"Point","coordinates":[109.149082,21.481138]},"properties":{"full_address":"广西壮族自治区北海市海城区高德街道上海中路社区北星路龙飞花园9巷13到15号"}},{"type":"Feature","geometry":{"type":"Point","coordinates":[109.169553,21.485289]},"properties":{"full_address":"广西壮族自治区北海市海城区高德街道马栏村委会南珠大道50号南珠园第二排5到7号"}},{"type":"Feature","geometry":{"type":"Point","coordinates":[109.157149,21.49188]},"properties":{"full_address":"广西壮族自治区北海市海城区高德街道高农村委会回建区一期C106-108号"}},{"type":"Feature","geometry":{"type":"Point","coordinates":[109.184583,21.478787]},"properties":{"full_address":"广西壮族自治区北海市海城区高德街道马栏村委大小岭村利源便利店西南30米"}},{"type":"Feature","geometry":{"type":"Point","coordinates":[109.157149,21.49188]},"properties":{"full_address":"广西壮族自治区北海市海城区高德街道高农村委会回建区一期C119到121号"}},{"type":"Feature","geometry":{"type":"Point","coordinates":[109.1639,21.497621]},"properties":{"full_address":"广西壮族自治区北海市海城区高德街道东郡小区南围墙西南20米瓦房"}},{"type":"Feature","geometry":{"type":"Point","coordinates":[109.184583,21.478787]},"properties":{"full_address":"广西壮族自治区北海市海城区高德街道马栏村委大小岭229号方圆50米"}},{"type":"Feature","geometry":{"type":"Point","coordinates":[109.157694,21.477909]},"properties":{"full_address":"广西壮族自治区北海市海城区高德街道马栏村东峰国际公寓2栋1单元"}},{"type":"Feature","geometry":{"type":"Point","coordinates":[109.162904,21.478379]},"properties":{"full_address":"广西壮族自治区北海市海城区高德街道马栏村委会东峰富苑5栋2单元"}},{"type":"Feature","geometry":{"type":"Point","coordinates":[109.184583,21.478787]},"properties":{"full_address":"广西壮族自治区北海市海城区高德街道马栏村委会马栏四队黄某某家"}},{"type":"Feature","geometry":{"type":"Point","coordinates":[109.112571,21.462715]},"properties":{"full_address":"广西壮族自治区北海市海城区西街街道平安街社区恒大新城A2幢3单元"}},{"type":"Feature","geometry":{"type":"Point","coordinates":[109.107014,21.466669]},"properties":{"full_address":"广西壮族自治区北海市海城区西街街道贵州路42号经协大厦2-8层"}},{"type":"Feature","geometry":{"type":"Point","coordinates":[109.110198,21.475013]},"properties":{"full_address":"广西壮族自治区北海市海城区海角街道四川路万家兴B栋"}},{"type":"Feature","geometry":{"type":"Point","coordinates":[109.147427,21.477217]},"properties":{"full_address":"广西壮族自治区北海市海城区上海路与北海大道交汇处景香阁"}},{"type":"Feature","geometry":{"type":"Point","coordinates":[109.139642,21.471245]},"properties":{"full_address":"广西壮族自治区北海市海城区驿马街道西边垌村委会大浪头村123号"}},{"type":"Feature","geometry":{"type":"Point","coordinates":[109.138553,21.472042]},"properties":{"full_address":"广西壮族自治区北海市海城区北海大道海霞小区5巷18号"}},{"type":"Feature","geometry":{"type":"Point","coordinates":[109.138987,21.468882]},"properties":{"full_address":"广西壮族自治区北海市海城区驿马街道富丽苑小区4巷73号"}},{"type":"Feature","geometry":{"type":"Point","coordinates":[109.142776,21.458017]},"properties":{"full_address":"广西壮族自治区北海市海城区驿马街道驿马村委会西南大道桐洋新城14栋"}},{"type":"Feature","geometry":{"type":"Point","coordinates":[109.139112,21.470198]},"properties":{"full_address":"广西壮族自治区北海市海城区驿马街道政法路社区龙潭路公安局第二宿舍3单元"}},{"type":"Feature","geometry":{"type":"Point","coordinates":[109.142629,21.467862]},"properties":{"full_address":"广西壮族自治区北海市海城区重庆路与湖南路交汇处逢时商场花园2栋"}},{"type":"Feature","geometry":{"type":"Point","coordinates":[109.143898,21.476746]},"properties":{"full_address":"广西壮族自治区北海市海城区驿马街道鑫丰丽景6栋"}},{"type":"Feature","geometry":{"type":"Point","coordinates":[109.147556,21.46275]},"properties":{"full_address":"广西壮族自治区北海市海城区驿马街道驿马村委会半坡二区12号"}},{"type":"Feature","geometry":{"type":"Point","coordinates":[109.143672,21.473508]},"properties":{"full_address":"广西壮族自治区北海市海城区驿马街道驿马村委会金葵花园C1-4"}},{"type":"Feature","geometry":{"type":"Point","coordinates":[109.147245,21.468688]},"properties":{"full_address":"广西壮族自治区北海市海城区驿马街道西边垌村委止泊园14号楼"}},{"type":"Feature","geometry":{"type":"Point","coordinates":[109.139699,21.471951]},"properties":{"full_address":"广西壮族自治区北海市海城区驿马街道西边垌村委会驿海路八巷5号"}},{"type":"Feature","geometry":{"type":"Point","coordinates":[109.147185,21.462998]},"properties":{"full_address":"广西壮族自治区北海市海城区驿马街道驿马村委会半坡二区17号"}},{"type":"Feature","geometry":{"type":"Point","coordinates":[109.146469,21.475772]},"properties":{"full_address":"广西壮族自治区北海市海城区驿马街道驿马村委会北海大道鼎鑫小区a栋"}},{"type":"Feature","geometry":{"type":"Point","coordinates":[109.13374,21.46771]},"properties":{"full_address":"广西壮族自治区北海市海城区驿马街道西塘社区十二间屋回建地12栋3号"}},{"type":"Feature","geometry":{"type":"Point","coordinates":[109.146608,21.46495]},"properties":{"full_address":"广西壮族自治区北海市海城区驿马街道驿马村委会西南大道尚源大厦"}},{"type":"Feature","geometry":{"type":"Point","coordinates":[109.15011,21.471478]},"properties":{"full_address":"广西壮族自治区北海市海城区驿马街道驿马村龙潭路口德邦物流出租屋"}},{"type":"Feature","geometry":{"type":"Point","coordinates":[109.142674,21.480032]},"properties":{"full_address":"广西壮族自治区北海市海城区驿马街道驿马村委会庞屋新村北区21-2"}},{"type":"Feature","geometry":{"type":"Point","coordinates":[109.142875,21.457797]},"properties":{"full_address":"广西壮族自治区北海市海城区驿马街道西边垌村委会西南大道桐洋新城5栋"}},{"type":"Feature","geometry":{"type":"Point","coordinates":[109.146541,21.475254]},"properties":{"full_address":"广西壮族自治区北海市海城区驿马街道西边垌村委会鼎鑫小区D栋"}},{"type":"Feature","geometry":{"type":"Point","coordinates":[109.139773,21.47706]},"properties":{"full_address":"广西壮族自治区北海市海城区驿马街道湖海路社区翟屋村53号"}},{"type":"Feature","geometry":{"type":"Point","coordinates":[109.1414,21.458648]},"properties":{"full_address":"广西壮族自治区北海市海城区驿马街道驿马村委会桐洋新城3幢"}},{"type":"Feature","geometry":{"type":"Point","coordinates":[109.140598,21.458369]},"properties":{"full_address":"广西壮族自治区北海市海城区驿马街道西边垌村委会西南大道桐洋新城19栋"}},{"type":"Feature","geometry":{"type":"Point","coordinates":[109.150741,21.461107]},"properties":{"full_address":"广西壮族自治区北海市海城区驿马街道驿马村委会牛角塘二区3巷"}},{"type":"Feature","geometry":{"type":"Point","coordinates":[109.126449,21.466784]},"properties":{"full_address":"广西壮族自治区北海市海城区驿马陈文村搬迁小区一巷北京路市场旁彩票站"}},{"type":"Feature","geometry":{"type":"Point","coordinates":[109.12486,21.473112]},"properties":{"full_address":"广西壮族自治区北海市海城区驿马街道驿马村委会福缘阁"}},{"type":"Feature","geometry":{"type":"Point","coordinates":[109.151667,21.46268]},"properties":{"full_address":"广西壮族自治区北海市海城区驿马街道驿马村委会牛角塘二区5巷"}},{"type":"Feature","geometry":{"type":"Point","coordinates":[109.14507,21.483042]},"properties":{"full_address":"广西壮族自治区北海市海城区驿马街道湖海路社区居委会湖海路张屋村一区四巷16号"}},{"type":"Feature","geometry":{"type":"Point","coordinates":[109.139258,21.468504]},"properties":{"full_address":"广西壮族自治区北海市海城区驿马街道西边垌村委会重庆路富丽苑小区四巷23号"}},{"type":"Feature","geometry":{"type":"Point","coordinates":[109.126948,21.467307]},"properties":{"full_address":"广西壮族自治区北海市海城区驿马街道西塘社区陈文村路天成公寓"}},{"type":"Feature","geometry":{"type":"Point","coordinates":[109.119092,21.45663]},"properties":{"full_address":"广西壮族自治区北海市海城区驿马街道驿马村委会西南大道福元阁2单元"}},{"type":"Feature","geometry":{"type":"Point","coordinates":[109.123111,21.460375]},"properties":{"full_address":"广西壮族自治区北海市海城区驿马街道其仓村东区97号"}},{"type":"Feature","geometry":{"type":"Point","coordinates":[109.15767,21.497277]},"properties":{"full_address":"广西壮族自治区北海市海城区东街街道黄海路社区徐屋南9区6巷2到3号"}},{"type":"Feature","geometry":{"type":"Point","coordinates":[109.142865,21.487445]},"properties":{"full_address":"广西壮族自治区北海市海城区东街街道黄海路社区上海路30号海宁新区12栋"}},{"type":"Feature","geometry":{"type":"Point","coordinates":[109.15767,21.497277]},"properties":{"full_address":"广西壮族自治区北海市海城区东街街道徐屋南2区7巷3、4、5号"}},{"type":"Feature","geometry":{"type":"Point","coordinates":[109.135296,21.486802]},"properties":{"full_address":"广西壮族自治区北海市海城区东街街道北部湾东社区谭屋村1巷27号"}},{"type":"Feature","geometry":{"type":"Point","coordinates":[109.143661,21.465219]},"properties":{"full_address":"广西壮族自治区北海市海城区东街街道徐屋南粮店宿舍304"}},{"type":"Feature","geometry":{"type":"Point","coordinates":[109.141337,21.486321]},"properties":{"full_address":"广西壮族自治区北海市海城区东街街道徐屋西四巷50号"}},{"type":"Feature","geometry":{"type":"Point","coordinates":[109.09887,21.457573]},"properties":{"full_address":"广西壮族自治区北海市海城区东街街道大囊7巷3"}},{"type":"Feature","geometry":{"type":"Point","coordinates":[109.140213,21.480497]},"properties":{"full_address":"广西壮族自治区北海市海城区东街街道张屋村一区40号"}},{"type":"Feature","geometry":{"type":"Point","coordinates":[109.13969,21.47733]},"properties":{"full_address":"广西壮族自治区北海市海城区驿马街道湖海路社区金星花园B区10栋"}},{"type":"Feature","geometry":{"type":"Point","coordinates":[109.140675,21.48144]},"properties":{"full_address":"广西壮族自治区北海市海城区东街街道张屋村2区3巷9号"}},{"type":"Feature","geometry":{"type":"Point","coordinates":[109.184583,21.478787]},"properties":{"full_address":"广西壮族自治区北海市海城区高德街道马栏村委东峰国际6幢602号"}},{"type":"Feature","geometry":{"type":"Point","coordinates":[109.130548,21.484915]},"properties":{"full_address":"广西壮族自治区北海市海城区东街街道茶亭路社区北部湾东路9号东大金星花苑2栋"}},{"type":"Feature","geometry":{"type":"Point","coordinates":[109.134623,21.48226]},"properties":{"full_address":"广西壮族自治区北海市海城区东街街道海南路谭屋小区4巷16号"}},{"type":"Feature","geometry":{"type":"Point","coordinates":[109.137376,21.484582]},"properties":{"full_address":"广西壮族自治区北海市海城区东街街道南珠东社区海城区海宁小区926栋"}},{"type":"Feature","geometry":{"type":"Point","coordinates":[109.13298,21.477701]},"properties":{"full_address":"广西壮族自治区北海市海城区东街街道铜鼓里社区工商银行宿舍9栋"}},{"type":"Feature","geometry":{"type":"Point","coordinates":[109.113471,21.483364]},"properties":{"full_address":"广西壮族自治区北海市海城区中街街道海堤街17号、18号、19号"}},{"type":"Feature","geometry":{"type":"Point","coordinates":[109.116133,21.473883]},"properties":{"full_address":"广西壮族自治区北海市海城区中街塘仔里社区居委会垌尾新区二巷10号、12号、14号"}},{"type":"Feature","geometry":{"type":"Point","coordinates":[109.121119,21.471238]},"properties":{"full_address":"广西壮族自治区北海市海城区中街街道长青路法院宿舍3幢"}},{"type":"Feature","geometry":{"type":"Point","coordinates":[109.12537,21.484671]},"properties":{"full_address":"广西壮族自治区北海市海城区中街街道新安街社区居委会光明里一巷27、29、31号"}},{"type":"Feature","geometry":{"type":"Point","coordinates":[109.112708,21.48041]},"properties":{"full_address":"广西壮族自治区北海市海城区中街街道幸福里社区居委会新建四巷22、23、24号"}},{"type":"Feature","geometry":{"type":"Point","coordinates":[109.105544,21.472468]},"properties":{"full_address":"广西壮族自治区北海市海城区海角街道北部湾西社区居委会北海市海城区七彩贝幼儿园"}},{"type":"Feature","geometry":{"type":"Point","coordinates":[109.138122,21.448701]},"properties":{"full_address":"广西壮族自治区北海市银海区银滩镇和兴村委细垌小区"}},{"type":"Feature","geometry":{"type":"Point","coordinates":[109.153203,21.418734]},"properties":{"full_address":"广西壮族自治区北海市银海区银滩镇北背岭回建区银新西二路42号"}},{"type":"Feature","geometry":{"type":"Point","coordinates":[109.198486,21.441105]},"properties":{"full_address":"广西壮族自治区北海市银海区银滩镇龙潭村委10队24号西面40米住宅楼"}},{"type":"Feature","geometry":{"type":"Point","coordinates":[109.126447,21.424772]},"properties":{"full_address":"广西壮族自治区北海市银海区侨港镇东区4栋"}},{"type":"Feature","geometry":{"type":"Point","coordinates":[110.319892,19.97524]},"properties":{"full_address":"海南省海口市龙华区椰海大道伟业·智青春（1-5栋）"}},{"type":"Feature","geometry":{"type":"Point","coordinates":[110.338558,19.959766]},"properties":{"full_address":"海南省海口市龙华区恒大文化旅游城（8栋、9栋、15栋、16栋）"}},{"type":"Feature","geometry":{"type":"Point","coordinates":[110.353972,20.00317]},"properties":{"full_address":"海南省海口市琼山区高登铸管小区"}},{"type":"Feature","geometry":{"type":"Point","coordinates":[110.318653,20.055925]},"properties":{"full_address":"海南省海口市美兰区甸昆教师村C栋"}},{"type":"Feature","geometry":{"type":"Point","coordinates":[110.3174,20.059323]},"properties":{"full_address":"海南省海口市美兰区海南大学桥西小区周转房B栋"}},{"type":"Feature","geometry":{"type":"Point","coordinates":[110.330434,20.05046]},"properties":{"full_address":"海南省海口市美兰区人民街道捕捞村199号"}},{"type":"Feature","geometry":{"type":"Point","coordinates":[110.315439,20.056392]},"properties":{"full_address":"海南省海口市美兰区碧海大道半岛蓝湾40号商铺"}},{"type":"Feature","geometry":{"type":"Point","coordinates":[110.316439,20.066476]},"properties":{"full_address":"海南省海口市美兰区春华路兆南丽湾北侧工地宿舍"}},{"type":"Feature","geometry":{"type":"Point","coordinates":[110.335937,20.052403]},"properties":{"full_address":"海南省海口市美兰区海南大学教工南区宿舍楼（43栋、44栋、46栋）"}},{"type":"Feature","geometry":{"type":"Point","coordinates":[110.346403,20.051103]},"properties":{"full_address":"海南省海口市美兰区海甸二东路邮政嘉园"}},{"type":"Feature","geometry":{"type":"Point","coordinates":[110.20897,19.617205]},"properties":{"full_address":"海南省省直辖县级行政单位定安县新竹镇新竹村委会中安村"}},{"type":"Feature","geometry":{"type":"Point","coordinates":[104.123469,30.632113]},"properties":{"full_address":"四川省成都市锦江区沙河街道锦东庭园14栋和15栋（岷江路1668号）"}},{"type":"Feature","geometry":{"type":"Point","coordinates":[104.093341,30.636752]},"properties":{"full_address":"四川省成都市锦江区牛市口街道南府锦1栋（莲桂西路170号）"}},{"type":"Feature","geometry":{"type":"Point","coordinates":[104.082434,30.65157]},"properties":{"full_address":"四川省成都市锦江区锦官驿街道南糠市街48号大院2栋，包括楼栋底层商户"}},{"type":"Feature","geometry":{"type":"Point","coordinates":[104.094152,30.640888]},"properties":{"full_address":"四川省成都市锦江区牛市口街道宏济新路488号晶蓝半岛A区1、2栋，包括底商"}},{"type":"Feature","geometry":{"type":"Point","coordinates":[104.073407,30.649947]},"properties":{"full_address":"四川省成都市锦江区督院街道锦兴路前卫街12号昆仑华庭"}},{"type":"Feature","geometry":{"type":"Point","coordinates":[104.021213,30.655452]},"properties":{"full_address":"四川省成都市青羊区光华街道怡馨花园5栋（二环路西一段89号）"}},{"type":"Feature","geometry":{"type":"Point","coordinates":[104.031754,30.700094]},"properties":{"full_address":"四川省成都市金牛区营门口街道首开龙湖紫宸小区（一期）3栋（花照壁西顺街198号）"}},{"type":"Feature","geometry":{"type":"Point","coordinates":[104.032899,30.64891]},"properties":{"full_address":"四川省成都市武侯区浆洗街街道百花公寓1-2栋"}},{"type":"Feature","geometry":{"type":"Point","coordinates":[104.089241,30.638268]},"properties":{"full_address":"四川省成都市武侯区望江路街道中海格林威治城 2 栋、熙美本色医疗美容(望江路1号)"}},{"type":"Feature","geometry":{"type":"Point","coordinates":[104.044666,30.638378]},"properties":{"full_address":"四川省成都市武侯区浆洗街街道一环路南四段28号小区1栋"}},{"type":"Feature","geometry":{"type":"Point","coordinates":[104.082266,30.642196]},"properties":{"full_address":"四川省成都市武侯区望江路街道江天路1号院1-2栋"}},{"type":"Feature","geometry":{"type":"Point","coordinates":[104.16826,30.698508]},"properties":{"full_address":"四川省成都市成华区金科天籁城2栋（成都市成华区龙港路36号），包括楼栋底层商户"}},{"type":"Feature","geometry":{"type":"Point","coordinates":[104.115333,30.662868]},"properties":{"full_address":"四川省成都市成华区海棠名居5栋、6栋、7栋、8栋(成都市杉板桥路52号) ,包括楼栋底层商户"}},{"type":"Feature","geometry":{"type":"Point","coordinates":[104.235509,30.571564]},"properties":{"full_address":"四川省成都市龙泉驿区驿都城二期7栋（龙泉驿区大连北路199号）"}},{"type":"Feature","geometry":{"type":"Point","coordinates":[104.069235,30.77298]},"properties":{"full_address":"四川省成都市新都区敬城路501号圣采泊尚17栋、18栋"}},{"type":"Feature","geometry":{"type":"Point","coordinates":[104.059072,30.57311]},"properties":{"full_address":"四川省成都市高新区石羊街道南苑B区6栋（高新区锦城大道825号）"}},{"type":"Feature","geometry":{"type":"Point","coordinates":[104.080117,30.465062]},"properties":{"full_address":"四川省成都市天府新区华阳街道麓湖生态城澜语溪岸1栋（嘉州路109号）"}},{"type":"Feature","geometry":{"type":"Point","coordinates":[103.241804,29.578661]},"properties":{"full_address":"四川省眉山市洪雅县七里坪镇度假区F3区15栋、16栋、17栋"}},{"type":"Feature","geometry":{"type":"Point","coordinates":[103.841013,36.050596]},"properties":{"full_address":"甘肃省兰州市城关区皋兰路街道六建家属院"}},{"type":"Feature","geometry":{"type":"Point","coordinates":[103.833548,36.036222]},"properties":{"full_address":"甘肃省兰州市城关区五泉街道和平新村19号火电公司家属院"}},{"type":"Feature","geometry":{"type":"Point","coordinates":[103.842385,36.034495]},"properties":{"full_address":"甘肃省兰州市城关区火车站街道金轮颐园小区6号楼"}},{"type":"Feature","geometry":{"type":"Point","coordinates":[103.841022,36.033804]},"properties":{"full_address":"甘肃省兰州市城关区铁路西村街道达祥南苑小区"}},{"type":"Feature","geometry":{"type":"Point","coordinates":[103.831882,36.068211]},"properties":{"full_address":"甘肃省兰州市城关区草场街街道3512西大院63号楼"}},{"type":"Feature","geometry":{"type":"Point","coordinates":[103.826183,36.039374]},"properties":{"full_address":"甘肃省兰州市城关区五泉街道五泉南路117号"}},{"type":"Feature","geometry":{"type":"Point","coordinates":[103.920682,36.042068]},"properties":{"full_address":"甘肃省兰州市城关区东岗街道兰泰小区院内48中学"}},{"type":"Feature","geometry":{"type":"Point","coordinates":[103.843159,36.031841]},"properties":{"full_address":"甘肃省兰州市城关区火车站街道铁路设计院小区"}},{"type":"Feature","geometry":{"type":"Point","coordinates":[103.877534,36.042784]},"properties":{"full_address":"甘肃省兰州市城关区嘉峪关路街道东瓯世贸广场"}},{"type":"Feature","geometry":{"type":"Point","coordinates":[103.828078,36.040091]},"properties":{"full_address":"甘肃省兰州市城关区五泉街道五泉下广场马金龙麻辣烫店"}},{"type":"Feature","geometry":{"type":"Point","coordinates":[103.815196,36.081217]},"properties":{"full_address":"甘肃省兰州市城关区九洲片区（含新九洲花园二号区以北，含兰州奔马集团九州一期保障房以南，含兰州广泽包装印刷有限公司以东，含天源9号B区以西）"}},{"type":"Feature","geometry":{"type":"Point","coordinates":[103.838441,36.042587]},"properties":{"full_address":"甘肃省兰州市城关区五泉街道中信倚泉苑小区"}},{"type":"Feature","geometry":{"type":"Point","coordinates":[103.830717,36.077142]},"properties":{"full_address":"甘肃省兰州市城关区草场街街道香榭丽花园东南区"}},{"type":"Feature","geometry":{"type":"Point","coordinates":[103.926541,36.044175]},"properties":{"full_address":"甘肃省兰州市城关区东岗街道东岗世纪新村D区4-3栋"}},{"type":"Feature","geometry":{"type":"Point","coordinates":[103.8467,36.05585]},"properties":{"full_address":"甘肃省兰州市城关区东岗西路街道平凉路484号"}},{"type":"Feature","geometry":{"type":"Point","coordinates":[103.835672,36.047893]},"properties":{"full_address":"甘肃省兰州市城关区皋兰路街道颜家沟94-98号"}},{"type":"Feature","geometry":{"type":"Point","coordinates":[103.884959,36.043762]},"properties":{"full_address":"甘肃省兰州市城关区拱星墩街道东岗东路2036号"}},{"type":"Feature","geometry":{"type":"Point","coordinates":[103.82244,36.086461]},"properties":{"full_address":"甘肃省兰州市城关区恒大绿洲二号院6号楼"}},{"type":"Feature","geometry":{"type":"Point","coordinates":[103.82244,36.086461]},"properties":{"full_address":"甘肃省兰州市城关区恒大绿洲二号院9号楼"}},{"type":"Feature","geometry":{"type":"Point","coordinates":[103.831407,36.041732]},"properties":{"full_address":"甘肃省兰州市城关区闵家桥140号"}},{"type":"Feature","geometry":{"type":"Point","coordinates":[103.828148,36.070729]},"properties":{"full_address":"甘肃省兰州市城关区天诚丽舍1号楼"}},{"type":"Feature","geometry":{"type":"Point","coordinates":[103.865718,36.037223]},"properties":{"full_address":"甘肃省兰州市城关区团结新村街道地矿之家东院10号楼"}},{"type":"Feature","geometry":{"type":"Point","coordinates":[103.823901,36.043471]},"properties":{"full_address":"甘肃省兰州市城关区五泉街道祁连山家属院5号楼"}},{"type":"Feature","geometry":{"type":"Point","coordinates":[103.827916,36.041308]},"properties":{"full_address":"甘肃省兰州市城关区五泉路32号"}},{"type":"Feature","geometry":{"type":"Point","coordinates":[103.854132,36.075145]},"properties":{"full_address":"甘肃省兰州市城关区盐场路街道兰州制药厂家属院5号楼"}},{"type":"Feature","geometry":{"type":"Point","coordinates":[103.868222,36.06074]},"properties":{"full_address":"甘肃省兰州市城关区雁南街道雁南路区委家属院2122号9号楼"}},{"type":"Feature","geometry":{"type":"Point","coordinates":[103.824557,36.05886]},"properties":{"full_address":"甘肃省兰州市城关区张掖路街道中广大厦怡园"}},{"type":"Feature","geometry":{"type":"Point","coordinates":[103.824086,36.045144]},"properties":{"full_address":"甘肃省兰州市城关区中山林54号2单元"}},{"type":"Feature","geometry":{"type":"Point","coordinates":[103.830663,36.071701]},"properties":{"full_address":"甘肃省兰州市城关区草场街街道白土巷"}},{"type":"Feature","geometry":{"type":"Point","coordinates":[103.917464,36.040556]},"properties":{"full_address":"甘肃省兰州市城关区草场街街道富星小院"}},{"type":"Feature","geometry":{"type":"Point","coordinates":[103.835724,36.089004]},"properties":{"full_address":"甘肃省兰州市城关区草场街街道恒大绿洲一号院"}},{"type":"Feature","geometry":{"type":"Point","coordinates":[103.826129,36.068239]},"properties":{"full_address":"甘肃省兰州市城关区草场街街道元森石榴园"}},{"type":"Feature","geometry":{"type":"Point","coordinates":[103.823941,36.039832]},"properties":{"full_address":"甘肃省兰州市城关区五泉街道五泉南路润翠园"}},{"type":"Feature","geometry":{"type":"Point","coordinates":[103.858772,36.067594]},"properties":{"full_address":"甘肃省兰州市城关区雁南街道海弘外滩银谷"}},{"type":"Feature","geometry":{"type":"Point","coordinates":[103.878992,36.051048]},"properties":{"full_address":"甘肃省兰州市城关区雁南街道锦华医院"}},{"type":"Feature","geometry":{"type":"Point","coordinates":[103.866,36.057]},"properties":{"full_address":"甘肃省兰州市城关区雁南街道南河路大雁滩村自建房片区（南河路以北、雁西路以西、雁南路以南、警察学院家属院以东)"}},{"type":"Feature","geometry":{"type":"Point","coordinates":[103.866304,36.064377]},"properties":{"full_address":"甘肃省兰州市城关区雁南街道滩尖子自建房片区（雁滩公园以北、金地花园以西、金鹏大厦以北、嘉盛园以北)"}},{"type":"Feature","geometry":{"type":"Point","coordinates":[103.876986,36.053304]},"properties":{"full_address":"甘肃省兰州市城关区雁南街道张苏滩水果批发市场"}},{"type":"Feature","geometry":{"type":"Point","coordinates":[103.876986,36.053304]},"properties":{"full_address":"甘肃省兰州市城关区雁南街道张苏滩自建房片区"}},{"type":"Feature","geometry":{"type":"Point","coordinates":[103.90784,36.053803]},"properties":{"full_address":"甘肃省兰州市城关区雁园街道刘家滩自建房片区（金徽财富中心以西、飞雁街以东、温馨家园以南、高新创新园区以北)"}},{"type":"Feature","geometry":{"type":"Point","coordinates":[103.817442,36.052172]},"properties":{"full_address":"甘肃省兰州市城关区白银路街道兰林路小区"}},{"type":"Feature","geometry":{"type":"Point","coordinates":[103.877168,36.051256]},"properties":{"full_address":"甘肃省兰州市城关区雁南街道恒孚小区"}},{"type":"Feature","geometry":{"type":"Point","coordinates":[103.878983,36.060588]},"properties":{"full_address":"甘肃省兰州市城关区雁南街道嘉盛园D区"}},{"type":"Feature","geometry":{"type":"Point","coordinates":[103.858553,36.065916]},"properties":{"full_address":"甘肃省兰州市城关区雁南街道滩尖子花园小区"}},{"type":"Feature","geometry":{"type":"Point","coordinates":[103.864632,36.061284]},"properties":{"full_address":"甘肃省兰州市城关区雁南街道张苏滩工商局家属院"}},{"type":"Feature","geometry":{"type":"Point","coordinates":[103.873564,36.056364]},"properties":{"full_address":"甘肃省兰州市城关区雁南街道雁南路安居小区"}},{"type":"Feature","geometry":{"type":"Point","coordinates":[103.870377,36.062074]},"properties":{"full_address":"甘肃省兰州市城关区雁南街道雁滩路自建房片区"}},{"type":"Feature","geometry":{"type":"Point","coordinates":[103.892948,36.055769]},"properties":{"full_address":"甘肃省兰州市城关区均家滩三网格（雁兴路以西、雁滩路以南、均家滩汽修厂以东、均家滩村南侧边缘）"}},{"type":"Feature","geometry":{"type":"Point","coordinates":[103.895917,36.048854]},"properties":{"full_address":"甘肃省兰州市城关区高新区南面滩二网格（南面滩村西北角）"}},{"type":"Feature","geometry":{"type":"Point","coordinates":[103.757998,36.0823]},"properties":{"full_address":"甘肃省兰州市七里河区南滨河中路43号至49号（单号）治安分局家属院小区（含七里河区出租车管理大队和东方红轨道交通派出所所在单独楼栋）"}},{"type":"Feature","geometry":{"type":"Point","coordinates":[103.626615,36.098654]},"properties":{"full_address":"甘肃省兰州市西固区西固城街道玉和苑小区"}},{"type":"Feature","geometry":{"type":"Point","coordinates":[103.625469,36.112738]},"properties":{"full_address":"甘肃省兰州市西固区西固城街道合水北路231号西固交警大队家属院及周边区域（西固城街道合水北路以西、城投公司停车场以南、环卫局特种车辆停车场以东、合水北路中国体育彩票以北）"}},{"type":"Feature","geometry":{"type":"Point","coordinates":[103.6686,36.103466]},"properties":{"full_address":"甘肃省兰州市西固区陈坪街道新滩社区北滩庄闽兴建材市场及周边区域（一支路以南、北滩油库以北、北滩庄公厕巷道以东、南滨河西路以西）"}},{"type":"Feature","geometry":{"type":"Point","coordinates":[103.728205,36.105866]},"properties":{"full_address":"甘肃省兰州市安宁区西路街道交大南苑公寓10号楼"}},{"type":"Feature","geometry":{"type":"Point","coordinates":[103.714358,36.100149]},"properties":{"full_address":"甘肃省兰州市安宁区孔家崖街道陇电盐锅峡电厂小区"}},{"type":"Feature","geometry":{"type":"Point","coordinates":[103.714711,36.100297]},"properties":{"full_address":"甘肃省兰州市安宁区甘肃火电工程公司安宁小区"}},{"type":"Feature","geometry":{"type":"Point","coordinates":[103.736412,36.107111]},"properties":{"full_address":"甘肃省兰州市安宁区培黎街道西北师范大学知行学院"}},{"type":"Feature","geometry":{"type":"Point","coordinates":[103.719728,36.110334]},"properties":{"full_address":"甘肃省兰州市安宁区西路街道荣光葳廉公馆小区"}},{"type":"Feature","geometry":{"type":"Point","coordinates":[103.680313,36.104037]},"properties":{"full_address":"甘肃省兰州市安宁区刘家堡街道海亮壹号3号楼"}},{"type":"Feature","geometry":{"type":"Point","coordinates":[103.737356,36.101849]},"properties":{"full_address":"甘肃省兰州市安宁区培黎街道甘肃东兴铝业兰州生活小区西区"}},{"type":"Feature","geometry":{"type":"Point","coordinates":[103.741737,36.103079]},"properties":{"full_address":"甘肃省兰州市安宁区十里店街道邱家湾新村"}},{"type":"Feature","geometry":{"type":"Point","coordinates":[103.876888,36.047884]},"properties":{"full_address":"甘肃省兰州市安宁区忠和镇盐池社区保利玫瑰花语小区5号楼"}},{"type":"Feature","geometry":{"type":"Point","coordinates":[103.87655,36.04791]},"properties":{"full_address":"甘肃省兰州市安宁区保利新派小区26号楼"}},{"type":"Feature","geometry":{"type":"Point","coordinates":[103.7523,36.0825]},"properties":{"full_address":"甘肃省兰州市安宁区孔家崖街道桃海高层商住楼"}},{"type":"Feature","geometry":{"type":"Point","coordinates":[103.74563,36.100393]},"properties":{"full_address":"甘肃省兰州市安宁区培黎街道天合溪园小区(含锦江之星酒店)"}},{"type":"Feature","geometry":{"type":"Point","coordinates":[103.402391,36.410177]},"properties":{"full_address":"甘肃省兰州市永登县红城华山村2社"}},{"type":"Feature","geometry":{"type":"Point","coordinates":[104.012633,36.054948]},"properties":{"full_address":"甘肃省兰州市榆中县和平镇东坪村老林展柜厂"}},{"type":"Feature","geometry":{"type":"Point","coordinates":[103.965759,35.98997]},"properties":{"full_address":"甘肃省兰州市榆中县和平镇新元绿洲小区9号楼"}},{"type":"Feature","geometry":{"type":"Point","coordinates":[103.966923,35.990406]},"properties":{"full_address":"甘肃省兰州市榆中县和平镇新元绿洲小区12号楼"}},{"type":"Feature","geometry":{"type":"Point","coordinates":[103.969705,36.007911]},"properties":{"full_address":"甘肃省兰州市榆中县和平镇和平嘉园南区1号楼"}},{"type":"Feature","geometry":{"type":"Point","coordinates":[103.964279,35.995506]},"properties":{"full_address":"甘肃省兰州市榆中县和平镇薇乐如意园7号楼"}},{"type":"Feature","geometry":{"type":"Point","coordinates":[103.973889,36.0091]},"properties":{"full_address":"甘肃省兰州市榆中县和平镇和平村徐家营社"}},{"type":"Feature","geometry":{"type":"Point","coordinates":[103.969916,36.00869]},"properties":{"full_address":"甘肃省兰州市榆中县和平镇和平嘉园北区7号楼"}},{"type":"Feature","geometry":{"type":"Point","coordinates":[103.969916,36.00869]},"properties":{"full_address":"甘肃省兰州市榆中县和平镇和平嘉园北区8号楼"}},{"type":"Feature","geometry":{"type":"Point","coordinates":[104.004623,35.963612]},"properties":{"full_address":"甘肃省兰州市榆中县定远镇定远村东社"}},{"type":"Feature","geometry":{"type":"Point","coordinates":[104.013243,35.974242]},"properties":{"full_address":"甘肃省兰州市榆中县定远镇张老营村"}},{"type":"Feature","geometry":{"type":"Point","coordinates":[104.148556,36.535398]},"properties":{"full_address":"甘肃省白银市白银区金地华府3号楼"}},{"type":"Feature","geometry":{"type":"Point","coordinates":[104.853392,36.712024]},"properties":{"full_address":"甘肃省白银市平川区长征街道化工社区瑞嘉新城A区1号楼—10号楼"}},{"type":"Feature","geometry":{"type":"Point","coordinates":[104.851718,36.717673]},"properties":{"full_address":"甘肃省白银市平川区长征街道黄土岘社区靖煤勘察设计公司"}},{"type":"Feature","geometry":{"type":"Point","coordinates":[104.686039,36.571936]},"properties":{"full_address":"甘肃省白银市靖远县若笠乡富民社区11号楼"}},{"type":"Feature","geometry":{"type":"Point","coordinates":[104.414671,36.63056]},"properties":{"full_address":"甘肃省白银市靖远县刘川镇来窑村米粮社"}},{"type":"Feature","geometry":{"type":"Point","coordinates":[105.05675,35.69184]},"properties":{"full_address":"甘肃省白银市会宁县会师镇颐园水景小区"}},{"type":"Feature","geometry":{"type":"Point","coordinates":[105.056244,35.690553]},"properties":{"full_address":"甘肃省白银市会宁县会师镇箐华港湾李宁专卖店"}},{"type":"Feature","geometry":{"type":"Point","coordinates":[105.21534,36.162507]},"properties":{"full_address":"甘肃省白银市会宁县土门岘镇土门村上窝窝社"}},{"type":"Feature","geometry":{"type":"Point","coordinates":[104.895192,36.230586]},"properties":{"full_address":"甘肃省白银市会宁县郭城驿镇新堡子村古城社（渡槽以北、农田玉米地以南、国巉路209线以西、祖厉河以东区域）"}},{"type":"Feature","geometry":{"type":"Point","coordinates":[105.033181,35.703452]},"properties":{"full_address":"甘肃省白银市会宁县会宁定西汽车站（含西面临街铺面）"}},{"type":"Feature","geometry":{"type":"Point","coordinates":[105.030027,35.708078]},"properties":{"full_address":"甘肃省白银市会宁县会师镇钟鼓楼社区兆烽嘉园15号楼"}},{"type":"Feature","geometry":{"type":"Point","coordinates":[105.066249,35.680966]},"properties":{"full_address":"甘肃省白银市会宁县第四中学"}},{"type":"Feature","geometry":{"type":"Point","coordinates":[105.06587,35.689472]},"properties":{"full_address":"甘肃省白银市会宁县会师镇南关通宁街51号"}},{"type":"Feature","geometry":{"type":"Point","coordinates":[104.662789,36.074055]},"properties":{"full_address":"甘肃省白银市会宁县头寨子镇双坪村牛岔组"}},{"type":"Feature","geometry":{"type":"Point","coordinates":[105.053619,35.693785]},"properties":{"full_address":"甘肃省白银市会宁县会师镇红军北路9号"}},{"type":"Feature","geometry":{"type":"Point","coordinates":[105.70991,34.567058]},"properties":{"full_address":"甘肃省天水市秦州区石马坪街道天北小区3号楼"}},{"type":"Feature","geometry":{"type":"Point","coordinates":[105.894138,34.571963]},"properties":{"full_address":"甘肃省天水市麦积区道北街道吕家村（北山路东侧、环城北路北侧、排洪沟西侧）区域"}},{"type":"Feature","geometry":{"type":"Point","coordinates":[105.899991,34.553279]},"properties":{"full_address":"甘肃省天水市麦积区道北街道育才名苑小区"}},{"type":"Feature","geometry":{"type":"Point","coordinates":[105.907526,34.550147]},"properties":{"full_address":"甘肃省天水市麦积区甘泉路地质队家属院小区"}},{"type":"Feature","geometry":{"type":"Point","coordinates":[106.198582,34.625455]},"properties":{"full_address":"甘肃省天水市清水县陇东镇朱湾村"}},{"type":"Feature","geometry":{"type":"Point","coordinates":[106.124214,34.753837]},"properties":{"full_address":"甘肃省天水市清水县西华路林业局苗圃家属楼小区"}},{"type":"Feature","geometry":{"type":"Point","coordinates":[105.481128,34.823445]},"properties":{"full_address":"甘肃省天水市甘谷县新兴镇大坪村委阴坡自然村"}},{"type":"Feature","geometry":{"type":"Point","coordinates":[105.089684,34.9087]},"properties":{"full_address":"甘肃省天水市甘谷县礼辛镇下街村"}},{"type":"Feature","geometry":{"type":"Point","coordinates":[105.107696,34.897387]},"properties":{"full_address":"甘肃省天水市甘谷县礼辛镇尉坪村河湾自然村"}},{"type":"Feature","geometry":{"type":"Point","coordinates":[104.870574,34.621655]},"properties":{"full_address":"甘肃省天水市武山县滩歌镇代沟村下庄"}},{"type":"Feature","geometry":{"type":"Point","coordinates":[103.075236,37.611294]},"properties":{"full_address":"甘肃省武威市古浪县土门镇台子村"}},{"type":"Feature","geometry":{"type":"Point","coordinates":[100.426341,38.93278]},"properties":{"full_address":"甘肃省张掖市甘州区绿洲家园小区东区"}},{"type":"Feature","geometry":{"type":"Point","coordinates":[100.436609,38.93911]},"properties":{"full_address":"甘肃省张掖市甘州区张电嘉苑小区12号楼"}},{"type":"Feature","geometry":{"type":"Point","coordinates":[104.601008,35.590358]},"properties":{"full_address":"甘肃省定西市安定区凤翔镇福台村安置点B区1号-44号院落及安定区食景天食府"}},{"type":"Feature","geometry":{"type":"Point","coordinates":[104.632073,35.570468]},"properties":{"full_address":"甘肃省定西市安定区永定路街道恒正华府B区16号楼、17号楼"}},{"type":"Feature","geometry":{"type":"Point","coordinates":[105.088621,34.994738]},"properties":{"full_address":"甘肃省定西市通渭县常河镇老湾村老湾社"}},{"type":"Feature","geometry":{"type":"Point","coordinates":[103.815545,35.149577]},"properties":{"full_address":"甘肃省定西市临洮县南屏镇安川村柯柴社"}},{"type":"Feature","geometry":{"type":"Point","coordinates":[103.8486,35.376595]},"properties":{"full_address":"甘肃省定西市临洮县洮阳镇李范家新村社区"}},{"type":"Feature","geometry":{"type":"Point","coordinates":[103.753223,35.792029]},"properties":{"full_address":"甘肃省定西市临洮县中铺镇上铺村"}},{"type":"Feature","geometry":{"type":"Point","coordinates":[104.421512,33.191725]},"properties":{"full_address":"甘肃省陇南市文县中寨镇中寨一村永兴修理厂至李代代、马贵平住宅以东，峡沟路至赵宝元住宅垂直以西，中寨一村中街以南，滨河路以北"}},{"type":"Feature","geometry":{"type":"Point","coordinates":[104.459355,33.247192]},"properties":{"full_address":"甘肃省陇南市文县中寨镇大海村大桥子至寺院桥以东，四河坝路以西，寺院桥至陶术德住宅以南，大桥子路以北区域"}},{"type":"Feature","geometry":{"type":"Point","coordinates":[103.207068,35.600824]},"properties":{"full_address":"甘肃省临夏回族自治州临夏市红园街道红园社区北院小区1号楼"}},{"type":"Feature","geometry":{"type":"Point","coordinates":[103.222565,35.608974]},"properties":{"full_address":"甘肃省临夏回族自治州临夏市中天健2号楼、3号楼"}},{"type":"Feature","geometry":{"type":"Point","coordinates":[103.213899,35.587971]},"properties":{"full_address":"甘肃省临夏回族自治州临夏市公路段下家属院6号楼、8号楼、11号楼"}},{"type":"Feature","geometry":{"type":"Point","coordinates":[103.22592,35.601554]},"properties":{"full_address":"甘肃省临夏回族自治州临夏市魁星阁光华东路延伸段入口平房区（环城东路以东、光华东路延伸段以南、光华东路魁星阁寺以西、新花市周家坝路以北）"}},{"type":"Feature","geometry":{"type":"Point","coordinates":[103.211651,35.584609]},"properties":{"full_address":"甘肃省临夏回族自治州临夏市圣泽苑A区10号楼"}},{"type":"Feature","geometry":{"type":"Point","coordinates":[103.211576,35.610682]},"properties":{"full_address":"甘肃省临夏回族自治州临夏市天华苑第6栋（54单元、55单元、56单元、57单元、58单元）及53单元"}},{"type":"Feature","geometry":{"type":"Point","coordinates":[102.995327,35.53912]},"properties":{"full_address":"甘肃省临夏回族自治州临夏县红台乡三大湾村槐沟社"}},{"type":"Feature","geometry":{"type":"Point","coordinates":[103.213204,35.654943]},"properties":{"full_address":"甘肃省临夏回族自治州临夏县先锋乡前韩村寨五一社"}},{"type":"Feature","geometry":{"type":"Point","coordinates":[103.504656,35.308381]},"properties":{"full_address":"甘肃省临夏回族自治州康乐县白王乡新庄村范家崖（1社、11社）"}},{"type":"Feature","geometry":{"type":"Point","coordinates":[103.571448,35.481986]},"properties":{"full_address":"甘肃省临夏回族自治州广河县城关镇西关村北门巷道以西、马巷市场以东、电厂渠以南、兰郎路以北区域"}},{"type":"Feature","geometry":{"type":"Point","coordinates":[103.556803,35.4784]},"properties":{"full_address":"甘肃省临夏回族自治州广河县城关镇赵家村泉力大巷道为中心，泉力西巷道以东、泉力东巷道以西、兰郎路以南、南山根以北区域"}},{"type":"Feature","geometry":{"type":"Point","coordinates":[103.750891,35.5641]},"properties":{"full_address":"甘肃省临夏回族自治州广河县三甲集镇沙家村大场巷道以西、粮站巷道以东、兰郎路以南、永红渠以北区域"}},{"type":"Feature","geometry":{"type":"Point","coordinates":[103.510607,35.479888]},"properties":{"full_address":"甘肃省临夏回族自治州广河县阿力麻土乡古城村"}},{"type":"Feature","geometry":{"type":"Point","coordinates":[103.686767,35.524847]},"properties":{"full_address":"甘肃省临夏回族自治州广河县祁家集镇田家村"}},{"type":"Feature","geometry":{"type":"Point","coordinates":[103.799468,35.540439]},"properties":{"full_address":"甘肃省临夏回族自治州广河县齐家镇上马家村"}},{"type":"Feature","geometry":{"type":"Point","coordinates":[103.758137,35.562113]},"properties":{"full_address":"甘肃省临夏回族自治州广河县三甲集镇东关村（含社区）"}},{"type":"Feature","geometry":{"type":"Point","coordinates":[102.965693,35.63547]},"properties":{"full_address":"甘肃省临夏回族自治州积石山保安族东乡族撒拉族自治县居集镇深沟村一社、二社、三社、四社、五社、六社、七社、八社"}},{"type":"Feature","geometry":{"type":"Point","coordinates":[102.87654,35.691059]},"properties":{"full_address":"甘肃省临夏回族自治州积石山保安族东乡族撒拉族自治县寨子沟乡尕马家村一社、二社、三社、四社、五社、六社、七社"}},{"type":"Feature","geometry":{"type":"Point","coordinates":[102.520283,35.196491]},"properties":{"full_address":"甘肃省甘南藏族自治州夏河县拉卜楞镇天珠国际酒店"}},{"type":"Feature","geometry":{"type":"Point","coordinates":[102.520283,35.196491]},"properties":{"full_address":"甘肃省甘南藏族自治州夏河县拉卜楞镇天珠国际酒店2号楼"}},{"type":"Feature","geometry":{"type":"Point","coordinates":[102.521807,35.202503]},"properties":{"full_address":"甘肃省甘南藏族自治州夏河县市场监管局家属楼小区"}},{"type":"Feature","geometry":{"type":"Point","coordinates":[102.520265,35.196514]},"properties":{"full_address":"甘肃省甘南藏族自治州夏河县拉卜楞镇家属楼小区"}},{"type":"Feature","geometry":{"type":"Point","coordinates":[102.224968,34.637573]},"properties":{"full_address":"甘肃省甘南藏族自治州夏河县科才镇科才村"}},{"type":"Feature","geometry":{"type":"Point","coordinates":[102.197585,34.687882]},"properties":{"full_address":"甘肃省甘南藏族自治州夏河县科才镇其莫村"}},{"type":"Feature","geometry":{"type":"Point","coordinates":[102.515877,34.747205]},"properties":{"full_address":"甘肃省甘南藏族自治州夏河县牙利吉办事处尼玛龙行政村第11自然村"}},{"type":"Feature","geometry":{"type":"Point","coordinates":[102.515877,34.747205]},"properties":{"full_address":"甘肃省甘南藏族自治州夏河县牙利吉办事处尼玛龙行政村第1自然村"}},{"type":"Feature","geometry":{"type":"Point","coordinates":[102.515877,34.747205]},"properties":{"full_address":"甘肃省甘南藏族自治州夏河县牙利吉办事处尼玛龙行政村第2自然村"}},{"type":"Feature","geometry":{"type":"Point","coordinates":[102.515877,34.747205]},"properties":{"full_address":"甘肃省甘南藏族自治州夏河县牙利吉办事处尼玛龙行政村第3自然村"}},{"type":"Feature","geometry":{"type":"Point","coordinates":[102.186768,34.623597]},"properties":{"full_address":"甘肃省甘南藏族自治州夏河县科才镇赞布宁村"}}]}