{"type":"FeatureCollection","features":[{"type":"Feature","geometry":{"type":"Point","coordinates":[117.114701,39.043537]},"properties":{"full_address":"天津市市辖区西青区精武镇“和光尘樾”一期建筑工地"}},{"type":"Feature","geometry":{"type":"Point","coordinates":[117.117526,39.152029]},"properties":{"full_address":"天津市市辖区西青区西营门街跃升里商业街西区（三区）"}},{"type":"Feature","geometry":{"type":"Point","coordinates":[117.197095,39.077789]},"properties":{"full_address":"天津市市辖区河西区天塔街清海湾大众浴池"}},{"type":"Feature","geometry":{"type":"Point","coordinates":[117.735748,38.930241]},"properties":{"full_address":"天津市市辖区滨海新区天津临港经济区东方星城"}},{"type":"Feature","geometry":{"type":"Point","coordinates":[120.527344,36.847732]},"properties":{"full_address":"山东省青岛市莱西市第七中学（龙口东路25号）"}},{"type":"Feature","geometry":{"type":"Point","coordinates":[120.530368,36.84559]},"properties":{"full_address":"山东省青岛市莱西市龙口东路18号安居小区"}},{"type":"Feature","geometry":{"type":"Point","coordinates":[122.144103,37.428403]},"properties":{"full_address":"山东省威海市环翠区经济技术开发区华夏路51号鼎信大厦"}},{"type":"Feature","geometry":{"type":"Point","coordinates":[122.116376,37.516784]},"properties":{"full_address":"山东省威海市环翠区火炬高技术产业开发区古寨东路145号渊源澡塘"}},{"type":"Feature","geometry":{"type":"Point","coordinates":[116.618244,36.940725]},"properties":{"full_address":"山东省德州市禹城市十里望镇禹王街北）"}},{"type":"Feature","geometry":{"type":"Point","coordinates":[116.600059,36.937571]},"properties":{"full_address":"山东省德州市禹城市十里望镇亿鑫街北首）"}},{"type":"Feature","geometry":{"type":"Point","coordinates":[117.55245,37.587859]},"properties":{"full_address":"山东省滨州市阳信县翟王镇镇前路1号"}},{"type":"Feature","geometry":{"type":"Point","coordinates":[117.921667,36.87368]},"properties":{"full_address":"山东省淄博市周村区北郊镇大埠村"}},{"type":"Feature","geometry":{"type":"Point","coordinates":[107.194321,34.350071]},"properties":{"full_address":"陕西省宝鸡市渭滨区石鼓太阳市香辣蟹火锅店"}},{"type":"Feature","geometry":{"type":"Point","coordinates":[107.140063,34.385876]},"properties":{"full_address":"陕西省宝鸡市金台区中山西路街道胜利村"}},{"type":"Feature","geometry":{"type":"Point","coordinates":[103.648817,36.658795]},"properties":{"full_address":"甘肃省兰州市永登县新区秦川镇五道岘村"}},{"type":"Feature","geometry":{"type":"Point","coordinates":[104.116239,37.329317]},"properties":{"full_address":"甘肃省白银市景泰县上沙沃镇大桥村"}},{"type":"Feature","geometry":{"type":"Point","coordinates":[126.470289,43.957047]},"properties":{"full_address":"吉林省吉林市昌邑区吉林经开区九站街道农校社区八委十组（九龙路以南&经开大街以东&翰林路以南）"}},{"type":"Feature","geometry":{"type":"Point","coordinates":[126.225734,43.979173]},"properties":{"full_address":"吉林省吉林市昌邑区桦皮厂社区"}},{"type":"Feature","geometry":{"type":"Point","coordinates":[114.057105,22.512094]},"properties":{"full_address":"广东省深圳市福田区福保街道菩提路216号点彩人家28栋"}},{"type":"Feature","geometry":{"type":"Point","coordinates":[113.645242,22.940636]},"properties":{"full_address":"广东省东莞市松山湖高新技术产业开发区台科片区"}},{"type":"Feature","geometry":{"type":"Point","coordinates":[116.832831,39.251299]},"properties":{"full_address":"河北省廊坊市安次区葛渔城镇全域"}},{"type":"Feature","geometry":{"type":"Point","coordinates":[119.900075,31.779203]},"properties":{"full_address":"江苏省常州市钟楼区清云澜湾项目工地（常州市钟楼区五星街道龙江中路8-2高架桥下）"}},{"type":"Feature","geometry":{"type":"Point","coordinates":[118.864037,31.9635]},"properties":{"full_address":"江苏省南京市江宁区东山街道湖西雅居东苑"}},{"type":"Feature","geometry":{"type":"Point","coordinates":[118.612324,24.889197]},"properties":{"full_address":"福建省泉州市丰泽区丰泽街道东美社区北至妙云街"}},{"type":"Feature","geometry":{"type":"Point","coordinates":[118.606805,24.889416]},"properties":{"full_address":"福建省泉州市丰泽区西至刺桐南路"}},{"type":"Feature","geometry":{"type":"Point","coordinates":[118.601633,24.888572]},"properties":{"full_address":"福建省泉州市丰泽区南至泉秀街"}},{"type":"Feature","geometry":{"type":"Point","coordinates":[118.653671,24.912008]},"properties":{"full_address":"福建省泉州市丰泽区东至坪山路和东霞街（河岸）区域，丰泽街道霞淮社区，城东街道前头社区"}},{"type":"Feature","geometry":{"type":"Point","coordinates":[118.652909,24.918272]},"properties":{"full_address":"福建省泉州市丰泽区浔美社区"}},{"type":"Feature","geometry":{"type":"Point","coordinates":[118.706255,25.364906]},"properties":{"full_address":"福建省莆田市仙游县仙游私立一中"}},{"type":"Feature","geometry":{"type":"Point","coordinates":[122.196708,40.252323]},"properties":{"full_address":"辽宁省营口市鲅鱼圈区北大荒物流股份有限公司"}},{"type":"Feature","geometry":{"type":"Point","coordinates":[126.872109,45.236597]},"properties":{"full_address":"黑龙江省哈尔滨市五常市拉林镇"}},{"type":"Feature","geometry":{"type":"Point","coordinates":[127.04866,45.23238]},"properties":{"full_address":"黑龙江省哈尔滨市五常市八家子乡全域"}}]}