{"type":"FeatureCollection","features":[{"type":"Feature","geometry":{"type":"Point","coordinates":[108.873871,34.207554]},"properties":{"province":"陕西省","city":"西安市","county":"雁塔区","community":"高新区丈八街道","full_address":"陕西省西安市雁塔区高新区丈八街道","info":""}},{"type":"Feature","geometry":{"type":"Point","coordinates":[108.81236,34.302455]},"properties":{"province":"陕西省","city":"西安市","county":"未央区","community":"西咸新区沣东新城斗门街道","full_address":"陕西省西安市未央区西咸新区沣东新城斗门街道","info":""}},{"type":"Feature","geometry":{"type":"Point","coordinates":[113.443137,34.163325]},"properties":{"province":"河南省","city":"许昌市","county":"禹州市","community":"韩城街道","full_address":"河南省许昌市禹州市韩城街道","info":""}},{"type":"Feature","geometry":{"type":"Point","coordinates":[113.479325,34.176584]},"properties":{"province":"河南省","city":"许昌市","county":"禹州市","community":"钧台街道","full_address":"河南省许昌市禹州市钧台街道","info":""}},{"type":"Feature","geometry":{"type":"Point","coordinates":[113.47723,34.15941]},"properties":{"province":"河南省","city":"许昌市","county":"禹州市","community":"颍川街道南街社区马府巷街","full_address":"河南省许昌市禹州市颍川街道南街社区马府巷街","info":""}},{"type":"Feature","geometry":{"type":"Point","coordinates":[113.473851,34.156182]},"properties":{"province":"河南省","city":"许昌市","county":"禹州市","community":"南街社区清真寺后街","full_address":"河南省许昌市禹州市南街社区清真寺后街","info":""}},{"type":"Feature","geometry":{"type":"Point","coordinates":[113.487538,34.148905]},"properties":{"province":"河南省","city":"许昌市","county":"禹州市","community":"寨子社区南市场北四路","full_address":"河南省许昌市禹州市寨子社区南市场北四路","info":""}},{"type":"Feature","geometry":{"type":"Point","coordinates":[113.436785,34.127343]},"properties":{"province":"河南省","city":"许昌市","county":"禹州市","community":"梁北镇赵桥村","full_address":"河南省许昌市禹州市梁北镇赵桥村","info":""}},{"type":"Feature","geometry":{"type":"Point","coordinates":[114.146807,34.164028]},"properties":{"province":"河南省","city":"许昌市","county":"鄢陵县","community":"秦村","full_address":"河南省许昌市鄢陵县秦村","info":""}},{"type":"Feature","geometry":{"type":"Point","coordinates":[113.933184,34.226738]},"properties":{"province":"河南省","city":"许昌市","county":"长葛市","community":"董村","full_address":"河南省许昌市长葛市董村","info":""}},{"type":"Feature","geometry":{"type":"Point","coordinates":[113.484671,34.096634]},"properties":{"province":"河南省","city":"许昌市","county":"禹州市","community":"铁李村","full_address":"河南省许昌市禹州市铁李村","info":""}},{"type":"Feature","geometry":{"type":"Point","coordinates":[113.492168,34.102852]},"properties":{"province":"河南省","city":"许昌市","county":"禹州市","community":"大白庄村","full_address":"河南省许昌市禹州市大白庄村","info":""}},{"type":"Feature","geometry":{"type":"Point","coordinates":[113.484851,33.956197]},"properties":{"province":"河南省","city":"许昌市","county":"襄城县","community":"余楼村","full_address":"河南省许昌市襄城县余楼村","info":""}},{"type":"Feature","geometry":{"type":"Point","coordinates":[113.454098,34.117803]},"properties":{"province":"河南省","city":"许昌市","county":"禹州市","community":"半坡店村","full_address":"河南省许昌市禹州市半坡店村","info":""}},{"type":"Feature","geometry":{"type":"Point","coordinates":[113.437068,34.125383]},"properties":{"province":"河南省","city":"许昌市","county":"禹州市","community":"梁北村","full_address":"河南省许昌市禹州市梁北村","info":""}},{"type":"Feature","geometry":{"type":"Point","coordinates":[113.450709,34.090512]},"properties":{"province":"河南省","city":"许昌市","county":"禹州市","community":"大席店村","full_address":"河南省许昌市禹州市大席店村","info":""}},{"type":"Feature","geometry":{"type":"Point","coordinates":[113.438349,34.108485]},"properties":{"province":"河南省","city":"许昌市","county":"禹州市","community":"梁北新峰矿务局一矿家属院","full_address":"河南省许昌市禹州市梁北新峰矿务局一矿家属院","info":""}},{"type":"Feature","geometry":{"type":"Point","coordinates":[113.167148,34.227898]},"properties":{"province":"河南省","city":"许昌市","county":"禹州市","community":"鸠山镇后沟村","full_address":"河南省许昌市禹州市鸠山镇后沟村","info":""}},{"type":"Feature","geometry":{"type":"Point","coordinates":[113.832773,34.007498]},"properties":{"province":"河南省","city":"许昌市","county":"魏都区","community":"褚河街道湘徐社区","full_address":"河南省许昌市魏都区褚河街道湘徐社区","info":""}},{"type":"Feature","geometry":{"type":"Point","coordinates":[113.172061,34.138014]},"properties":{"province":"河南省","city":"许昌市","county":"禹州市","community":"磨街乡刘门村","full_address":"河南省许昌市禹州市磨街乡刘门村","info":""}},{"type":"Feature","geometry":{"type":"Point","coordinates":[113.370164,34.253273]},"properties":{"province":"河南省","city":"许昌市","county":"禹州市","community":"顺店镇罗西村","full_address":"河南省许昌市禹州市顺店镇罗西村","info":""}},{"type":"Feature","geometry":{"type":"Point","coordinates":[113.416492,34.075985]},"properties":{"province":"河南省","city":"许昌市","county":"禹州市","community":"张得镇大周村","full_address":"河南省许昌市禹州市张得镇大周村","info":""}},{"type":"Feature","geometry":{"type":"Point","coordinates":[113.37862,34.130451]},"properties":{"province":"河南省","city":"许昌市","county":"禹州市","community":"方岗镇黄庄村","full_address":"河南省许昌市禹州市方岗镇黄庄村","info":""}},{"type":"Feature","geometry":{"type":"Point","coordinates":[113.622288,34.762085]},"properties":{"province":"河南省","city":"郑州市","county":"中原区","community":"棉纺路街道盛润锦绣城社区盛润锦绣城小区东院1号楼","full_address":"河南省郑州市中原区棉纺路街道盛润锦绣城社区盛润锦绣城小区东院1号楼","info":""}},{"type":"Feature","geometry":{"type":"Point","coordinates":[113.600309,34.725862]},"properties":{"province":"河南省","city":"郑州市","county":"中原区","community":"航海西路街道启福社区华山路10号院","full_address":"河南省郑州市中原区航海西路街道启福社区华山路10号院","info":""}},{"type":"Feature","geometry":{"type":"Point","coordinates":[113.65622,34.731693]},"properties":{"province":"河南省","city":"郑州市","county":"二七区","community":"建中街办事处永安社区保全街28号院","full_address":"河南省郑州市二七区建中街办事处永安社区保全街28号院","info":""}},{"type":"Feature","geometry":{"type":"Point","coordinates":[113.628072,34.682763]},"properties":{"province":"河南省","city":"郑州市","county":"二七区","community":"嵩山路街道玉晖园社区玉晖园小区","full_address":"河南省郑州市二七区嵩山路街道玉晖园社区玉晖园小区","info":""}},{"type":"Feature","geometry":{"type":"Point","coordinates":[113.636867,34.735225]},"properties":{"province":"河南省","city":"郑州市","county":"二七区","community":"淮河路街道陇海社区富田陇海花园","full_address":"河南省郑州市二七区淮河路街道陇海社区富田陇海花园","info":""}},{"type":"Feature","geometry":{"type":"Point","coordinates":[113.640034,34.739488]},"properties":{"province":"河南省","city":"郑州市","county":"二七区","community":"大学路街道桃源社区桃源路45号院","full_address":"河南省郑州市二七区大学路街道桃源社区桃源路45号院","info":""}},{"type":"Feature","geometry":{"type":"Point","coordinates":[113.642535,34.740543]},"properties":{"province":"河南省","city":"郑州市","county":"二七区","community":"桃源路25号院翰林世家","full_address":"河南省郑州市二七区桃源路25号院翰林世家","info":""}},{"type":"Feature","geometry":{"type":"Point","coordinates":[113.720874,34.763465]},"properties":{"province":"河南省","city":"郑州市","county":"金水区","community":"未来路街道民航社区广汇·PAMA小区8号","full_address":"河南省郑州市金水区未来路街道民航社区广汇·PAMA小区8号","info":""}},{"type":"Feature","geometry":{"type":"Point","coordinates":[114.357082,36.090468]},"properties":{"province":"河南省","city":"安阳市","county":"文峰区","community":"","full_address":"河南省安阳市文峰区","info":""}},{"type":"Feature","geometry":{"type":"Point","coordinates":[114.535236,35.534826]},"properties":{"province":"河南省","city":"安阳市","county":"滑县","community":"锦和街道锦和书苑人才公寓","full_address":"河南省安阳市滑县锦和街道锦和书苑人才公寓","info":""}},{"type":"Feature","geometry":{"type":"Point","coordinates":[114.544657,35.535123]},"properties":{"province":"河南省","city":"安阳市","county":"滑县","community":"锦和街道岸尚公馆东区四号楼","full_address":"河南省安阳市滑县锦和街道岸尚公馆东区四号楼","info":""}},{"type":"Feature","geometry":{"type":"Point","coordinates":[114.742067,35.819443]},"properties":{"province":"河南省","city":"安阳市","county":"内黄县","community":"六村乡袁六村","full_address":"河南省安阳市内黄县六村乡袁六村","info":""}},{"type":"Feature","geometry":{"type":"Point","coordinates":[114.357763,35.924515]},"properties":{"province":"河南省","city":"安阳市","county":"汤阴县","community":"（汤阴县育才中学&古贤镇除外）","full_address":"河南省安阳市汤阴县（汤阴县育才中学&古贤镇除外）","info":""}},{"type":"Feature","geometry":{"type":"Point","coordinates":[114.110486,22.584765]},"properties":{"province":"广东省","city":"深圳市","county":"罗湖区","community":"清水河街道鹤围村58栋","full_address":"广东省深圳市罗湖区清水河街道鹤围村58栋","info":""}},{"type":"Feature","geometry":{"type":"Point","coordinates":[114.110342,22.584782]},"properties":{"province":"广东省","city":"深圳市","county":"罗湖区","community":"清水河街道鹤围村64栋","full_address":"广东省深圳市罗湖区清水河街道鹤围村64栋","info":""}},{"type":"Feature","geometry":{"type":"Point","coordinates":[113.45388,22.275159]},"properties":{"province":"广东省","city":"中山市","county":"坦洲镇","community":"国际花城一期第41栋","full_address":"广东省中山市坦洲镇国际花城一期第41栋","info":""}},{"type":"Feature","geometry":{"type":"Point","coordinates":[113.566612,22.284213]},"properties":{"province":"广东省","city":"珠海市","county":"香洲区","community":"南屏镇将军山榕园小区2栋","full_address":"广东省珠海市香洲区南屏镇将军山榕园小区2栋","info":""}},{"type":"Feature","geometry":{"type":"Point","coordinates":[113.48782,22.224247]},"properties":{"province":"广东省","city":"珠海市","county":"香洲区","community":"南屏镇十二村成丰园中45号","full_address":"广东省珠海市香洲区南屏镇十二村成丰园中45号","info":""}},{"type":"Feature","geometry":{"type":"Point","coordinates":[113.472934,22.222274]},"properties":{"province":"广东省","city":"珠海市","county":"香洲区","community":"南屏镇广生一街73号","full_address":"广东省珠海市香洲区南屏镇广生一街73号","info":""}},{"type":"Feature","geometry":{"type":"Point","coordinates":[117.365554,39.03095]},"properties":{"province":"天津市","city":"市辖区","county":"津南区","community":"辛庄镇碧水世纪园","full_address":"天津市市辖区津南区辛庄镇碧水世纪园","info":""}},{"type":"Feature","geometry":{"type":"Point","coordinates":[117.344086,39.032572]},"properties":{"province":"天津市","city":"市辖区","county":"津南区","community":"上东苑","full_address":"天津市市辖区津南区上东苑","info":""}},{"type":"Feature","geometry":{"type":"Point","coordinates":[117.328814,39.034761]},"properties":{"province":"天津市","city":"市辖区","county":"津南区","community":"汀芳花园","full_address":"天津市市辖区津南区汀芳花园","info":""}},{"type":"Feature","geometry":{"type":"Point","coordinates":[117.331977,39.034215]},"properties":{"province":"天津市","city":"市辖区","county":"津南区","community":"汀兰花园","full_address":"天津市市辖区津南区汀兰花园","info":""}},{"type":"Feature","geometry":{"type":"Point","coordinates":[117.349516,39.027863]},"properties":{"province":"天津市","city":"市辖区","county":"津南区","community":"昕盛里","full_address":"天津市市辖区津南区昕盛里","info":""}},{"type":"Feature","geometry":{"type":"Point","coordinates":[117.349485,39.02871]},"properties":{"province":"天津市","city":"市辖区","county":"津南区","community":"鑫庭花园","full_address":"天津市市辖区津南区鑫庭花园","info":""}},{"type":"Feature","geometry":{"type":"Point","coordinates":[117.385979,38.979715]},"properties":{"province":"天津市","city":"市辖区","county":"津南区","community":"咸水沽镇春福里（津九轩小区）","full_address":"天津市市辖区津南区咸水沽镇春福里（津九轩小区）","info":""}},{"type":"Feature","geometry":{"type":"Point","coordinates":[117.409239,38.993513]},"properties":{"province":"天津市","city":"市辖区","county":"津南区","community":"东旺家园","full_address":"天津市市辖区津南区东旺家园","info":""}},{"type":"Feature","geometry":{"type":"Point","coordinates":[117.409239,38.993513]},"properties":{"province":"天津市","city":"市辖区","county":"津南区","community":"鑫洋园","full_address":"天津市市辖区津南区鑫洋园","info":""}},{"type":"Feature","geometry":{"type":"Point","coordinates":[117.387478,38.983522]},"properties":{"province":"天津市","city":"市辖区","county":"津南区","community":"众惠里","full_address":"天津市市辖区津南区众惠里","info":""}},{"type":"Feature","geometry":{"type":"Point","coordinates":[117.392213,38.978039]},"properties":{"province":"天津市","city":"市辖区","county":"津南区","community":"宝业馨苑","full_address":"天津市市辖区津南区宝业馨苑","info":""}},{"type":"Feature","geometry":{"type":"Point","coordinates":[117.374068,39.001804]},"properties":{"province":"天津市","city":"市辖区","county":"津南区","community":"博雅花园","full_address":"天津市市辖区津南区博雅花园","info":""}},{"type":"Feature","geometry":{"type":"Point","coordinates":[117.391454,39.000339]},"properties":{"province":"天津市","city":"市辖区","county":"津南区","community":"合力园","full_address":"天津市市辖区津南区合力园","info":""}},{"type":"Feature","geometry":{"type":"Point","coordinates":[117.371103,38.983367]},"properties":{"province":"天津市","city":"市辖区","county":"津南区","community":"金才园","full_address":"天津市市辖区津南区金才园","info":""}},{"type":"Feature","geometry":{"type":"Point","coordinates":[117.371382,38.998261]},"properties":{"province":"天津市","city":"市辖区","county":"津南区","community":"金芳园","full_address":"天津市市辖区津南区金芳园","info":""}},{"type":"Feature","geometry":{"type":"Point","coordinates":[117.373787,38.991703]},"properties":{"province":"天津市","city":"市辖区","county":"津南区","community":"水岸华庭","full_address":"天津市市辖区津南区水岸华庭","info":""}},{"type":"Feature","geometry":{"type":"Point","coordinates":[117.343757,38.946914]},"properties":{"province":"天津市","city":"市辖区","county":"津南区","community":"八里台镇尚湖苑","full_address":"天津市市辖区津南区八里台镇尚湖苑","info":""}},{"type":"Feature","geometry":{"type":"Point","coordinates":[117.348314,38.913866]},"properties":{"province":"天津市","city":"市辖区","county":"津南区","community":"丽湖苑","full_address":"天津市市辖区津南区丽湖苑","info":""}},{"type":"Feature","geometry":{"type":"Point","coordinates":[117.412098,38.949245]},"properties":{"province":"天津市","city":"市辖区","county":"津南区","community":"北闸口镇尚礼园","full_address":"天津市市辖区津南区北闸口镇尚礼园","info":""}},{"type":"Feature","geometry":{"type":"Point","coordinates":[117.320349,39.050987]},"properties":{"province":"天津市","city":"市辖区","county":"津南区","community":"双港镇李桃园","full_address":"天津市市辖区津南区双港镇李桃园","info":""}},{"type":"Feature","geometry":{"type":"Point","coordinates":[117.30398,39.061127]},"properties":{"province":"天津市","city":"市辖区","county":"津南区","community":"柳景家园","full_address":"天津市市辖区津南区柳景家园","info":""}},{"type":"Feature","geometry":{"type":"Point","coordinates":[117.288415,39.02586]},"properties":{"province":"天津市","city":"市辖区","county":"津南区","community":"仁和园","full_address":"天津市市辖区津南区仁和园","info":""}},{"type":"Feature","geometry":{"type":"Point","coordinates":[117.316822,39.044694]},"properties":{"province":"天津市","city":"市辖区","county":"津南区","community":"仁永名居","full_address":"天津市市辖区津南区仁永名居","info":""}},{"type":"Feature","geometry":{"type":"Point","coordinates":[117.289954,39.022208]},"properties":{"province":"天津市","city":"市辖区","county":"津南区","community":"善和园","full_address":"天津市市辖区津南区善和园","info":""}},{"type":"Feature","geometry":{"type":"Point","coordinates":[117.212395,39.028173]},"properties":{"province":"天津市","city":"市辖区","county":"西青区","community":"大寺镇宇泰家园（不含C区）","full_address":"天津市市辖区西青区大寺镇宇泰家园（不含C区）","info":""}},{"type":"Feature","geometry":{"type":"Point","coordinates":[117.2601,38.877762]},"properties":{"province":"天津市","city":"市辖区","county":"西青区","community":"王稳庄镇盛泰园","full_address":"天津市市辖区西青区王稳庄镇盛泰园","info":""}},{"type":"Feature","geometry":{"type":"Point","coordinates":[121.44414,31.22346]},"properties":{"province":"上海市","city":"市辖区","county":"静安区","community":"静安寺街道愚园路228号","full_address":"上海市市辖区静安区静安寺街道愚园路228号","info":""}},{"type":"Feature","geometry":{"type":"Point","coordinates":[116.17707,39.75289]},"properties":{"province":"北京市","city":"市辖区","county":"房山区","community":"长阳镇北广阳城大街8号","full_address":"北京市市辖区房山区长阳镇北广阳城大街8号","info":""}}]}